lat,lon,postcode,admin_district,region,latitude,longitude,estado_api,descripcion_estado
56.119329,-3.794679,FK10 9SA,Clackmannanshire,,56.119329,-3.794679,200,OK
52.037623,-0.157442,SG7 5QX,North Hertfordshire,East of England,52.037623,-0.157442,200,OK
55.928198,-4.667651,PA14 5SX,Inverclyde,,55.928157,-4.667582,200,OK
52.534187,-1.048306,LE8 8AN,Harborough,East Midlands,52.534177,-1.048291,200,OK
54.307504,-1.631578,DL8 1LG,North Yorkshire,Yorkshire and The Humber,54.307504,-1.631578,200,OK
51.797351,1.131058,CO16 7AE,Tendring,East of England,51.797351,1.131058,200,OK
57.155448,-2.104237,AB25 3TQ,Aberdeen City,,57.155215,-2.103906,200,OK
50.34972,-4.716686,PL24 2EN,Cornwall,South West,50.34972,-4.716686,200,OK
53.79884,-3.053329,FY4 1AQ,Blackpool,North West,53.799133,-3.052759,200,OK
53.420449,-2.218804,M20 6JZ,Manchester,North West,53.420449,-2.218819,200,OK
52.740672,-1.360994,LE67 5DJ,North West Leicestershire,East Midlands,52.740672,-1.360994,200,OK
51.272724,0.531095,ME15 7SE,Maidstone,South East,51.272724,0.531095,200,OK
53.435098,-2.684974,WA9 4ZP,St. Helens,North West,53.435098,-2.684974,200,OK
53.462638,-2.210978,M13 9AW,Manchester,North West,53.462638,-2.210978,200,OK
52.328965,1.681002,IP18 6LG,East Suffolk,East of England,52.328965,1.681002,200,OK
50.827318,-0.159807,BN3 1FN,Brighton and Hove,South East,50.827082,-0.160199,200,OK
53.860501,-2.167777,BB8 9DR,Pendle,North West,53.860501,-2.167777,200,OK
54.716848,-5.809445,BT38 8AJ,Mid and East Antrim,,54.716848,-5.809445,200,OK
51.516948,-0.137336,W1T 3PB,Westminster,London,51.516948,-0.137336,200,OK
52.976717,-1.989564,ST10 1LF,Staffordshire Moorlands,West Midlands,52.976717,-1.989564,200,OK
51.404296,0.04665,BR1 2AD,Bromley,London,51.404296,0.04665,200,OK
52.735121,-2.717651,SY1 4NU,Shropshire,West Midlands,52.735121,-2.717651,200,OK
50.937661,0.545607,,,,,,200,OK
54.903909,-5.011391,DG9 8BP,Dumfries and Galloway,,54.903909,-5.011391,200,OK
51.479434,-3.202992,CF5 1PD,Cardiff,,51.479434,-3.202992,200,OK
50.839444,-0.657923,PO20 3XS,Arun,South East,50.839444,-0.657923,200,OK
52.797395,-0.908256,LE14 4ET,Melton,East Midlands,52.797395,-0.908256,200,OK
53.430963,-2.088655,SK6 1PD,Stockport,North West,53.430963,-2.088655,200,OK
52.951139,1.044663,NR25 7RH,North Norfolk,East of England,52.951139,1.044663,200,OK
52.187749,0.019852,CB23 7BZ,South Cambridgeshire,East of England,52.187749,0.019852,200,OK
51.705876,-2.188979,GL6 9DN,Stroud,South West,51.705876,-2.188979,200,OK
50.376874,-4.158285,PL1 5LJ,Plymouth,South West,50.376874,-4.158285,200,OK
51.464614,0.103337,DA16 3QJ,Bexley,London,51.464614,0.103337,200,OK
55.874753,-4.310022,G11 5AD,Glasgow City,,55.874753,-4.310022,200,OK
57.318069,-6.375924,IV47 8SJ,Highland,,57.318069,-6.375924,200,OK
51.636837,-3.358592,CF37 3EN,Rhondda Cynon Taf,,51.636837,-3.358592,200,OK
53.223101,-2.876285,CH2 1LW,Cheshire West and Chester,North West,53.223101,-2.876285,200,OK
51.550441,-1.778097,SN1 4DF,Swindon,South West,51.550441,-1.778097,200,OK
51.51304,-0.154069,W1K 6RN,Westminster,London,51.51304,-0.154069,200,OK
53.204754,-0.406655,LN4 1JG,North Kesteven,East Midlands,53.204754,-0.406655,200,OK
50.854475,-0.565259,BN18 0AB,Arun,South East,50.854475,-0.565259,200,OK
51.569595,-2.210699,SN16 0NE,Wiltshire,South West,51.569425,-2.210338,200,OK
51.502592,-3.13956,CF3 4FU,Cardiff,,51.50271,-3.139476,200,OK
53.04873,-0.390381,NG34 9HE,North Kesteven,East Midlands,53.04873,-0.390381,200,OK
50.982226,-2.169212,SP7 0DE,Dorset,South West,50.982226,-2.169212,200,OK
51.74884,-3.409581,CF48 1PU,Merthyr Tydfil,,51.74884,-3.409581,200,OK
52.7598,-1.588127,DE11 9JA,South Derbyshire,East Midlands,52.7598,-1.588127,200,OK
51.396328,-0.775446,RG12 8ZQ,Bracknell Forest,South East,51.396328,-0.775446,200,OK
55.904387,-3.172651,EH16 6UU,City of Edinburgh,,55.904387,-3.172651,200,OK
50.975172,0.016984,BN8 4LQ,Lewes,South East,50.975172,0.016984,200,OK
55.871768,-4.260469,G4 9RQ,Glasgow City,,55.871252,-4.259941,200,OK
54.342306,-2.898114,LA23 3NL,Westmorland and Furness,North West,54.342306,-2.898114,200,OK
51.791628,-3.987842,SA18 3BS,Carmarthenshire,,51.791747,-3.987635,200,OK
55.805558,-4.398224,G78 1ND,East Renfrewshire,,55.805558,-4.398224,200,OK
51.969035,1.329409,IP11 2YZ,East Suffolk,East of England,51.969035,1.329409,200,OK
51.667312,-0.75624,HP14 4LN,Buckinghamshire,South East,51.667312,-0.75624,200,OK
53.418319,-2.739969,WA9 4QF,St. Helens,North West,53.418409,-2.739925,200,OK
53.4345,-1.275596,S66 3ZE,Rotherham,Yorkshire and The Humber,53.4345,-1.275596,200,OK
52.332985,-0.17306,PE29 1WZ,Huntingdonshire,East of England,52.333027,-0.173023,200,OK
54.489501,-6.80096,BT70 1JT,Mid Ulster,,54.489501,-6.80096,200,OK
51.647003,-3.907066,SA1 7EN,Swansea,,51.647003,-3.907066,200,OK
52.748571,0.397743,PE30 5AQ,King's Lynn and West Norfolk,East of England,52.748571,0.397743,200,OK
54.764595,-3.323153,CA7 3AY,Cumberland,North West,54.764586,-3.323168,200,OK
51.125349,-0.166394,RH10 1SX,Crawley,South East,51.125349,-0.166394,200,OK
51.568116,-0.455802,UB10 8HN,Hillingdon,London,51.568116,-0.455802,200,OK
53.281152,-2.90285,CH65 8BX,Cheshire West and Chester,North West,53.281102,-2.902339,200,OK
50.36043,-4.165651,PL1 3GX,Plymouth,South West,50.360772,-4.1664,200,OK
51.609356,-0.233988,NW7 2BE,Barnet,London,51.609608,-0.234007,200,OK
57.668349,-2.523858,AB45 1HX,Aberdeenshire,,57.668259,-2.523907,200,OK
53.228475,-1.472602,S40 3SG,Chesterfield,East Midlands,53.228475,-1.472602,200,OK
52.071614,-2.708654,HR1 1JR,"Herefordshire, County of",West Midlands,52.071614,-2.708654,200,OK
51.522386,-0.264878,W3 0BL,Ealing,London,51.522386,-0.264878,200,OK
53.615762,-0.213239,DN40 2AE,North East Lincolnshire,Yorkshire and The Humber,53.615762,-0.213239,200,OK
50.450076,-4.344746,PL12 5AX,Cornwall,South West,50.450054,-4.344821,200,OK
53.739017,-1.887684,HX3 5NU,Calderdale,Yorkshire and The Humber,53.739017,-1.887684,200,OK
50.872849,-2.962008,TA20 1QD,Somerset,South West,50.872849,-2.962022,200,OK
50.761221,-1.298468,PO31 7TA,Isle of Wight,South East,50.761221,-1.298468,200,OK
51.627156,-3.656601,CF34 0TW,Bridgend,,51.627156,-3.656601,200,OK
51.475937,-2.538129,BS16 3DJ,"Bristol, City of",South West,51.475937,-2.538129,200,OK
53.021802,-1.017068,NG14 7BX,Newark and Sherwood,East Midlands,53.021802,-1.017068,200,OK
51.601043,0.235196,,,,,,200,OK
51.519412,0.047194,E6 5YR,Newham,London,51.519448,0.046747,200,OK
52.453422,-2.354594,,,,,,200,OK
53.670641,-1.677566,WF14 8HZ,Kirklees,Yorkshire and The Humber,53.671003,-1.67832,200,OK
53.407029,-1.456618,S5 7AP,Sheffield,Yorkshire and The Humber,53.407029,-1.456618,200,OK
51.57216,-0.093519,N4 1QJ,Hackney,London,51.57216,-0.093519,200,OK
51.457233,-1.043533,RG31 5BD,Reading,South East,51.457233,-1.043533,200,OK
57.130817,-2.092225,AB11 8HW,Aberdeen City,,57.130817,-2.092241,200,OK
51.710264,-3.350067,CF48 4HD,Merthyr Tydfil,,51.710264,-3.350067,200,OK
50.279743,-3.793327,TQ7 3PZ,South Hams,South West,50.279743,-3.793327,200,OK
51.160103,-3.321067,TA4 4NG,Somerset,South West,51.160103,-3.321067,200,OK
51.513685,-3.203874,CF14 1UD,Cardiff,,51.513493,-3.204105,200,OK
51.600129,-0.142482,N10 2DT,Haringey,London,51.60035,-0.143383,200,OK
53.547196,-2.223669,M24 4TQ,Rochdale,North West,53.547196,-2.223669,200,OK
51.483013,0.003303,SE10 9XR,Greenwich,London,51.483055,0.003463,200,OK
50.73746,-3.314041,EX11 1UF,East Devon,South West,50.73746,-3.314041,200,OK
55.870153,-4.216112,G21 2EG,Glasgow City,,55.870091,-4.216556,200,OK
51.980277,-0.225058,SG6 3BJ,North Hertfordshire,East of England,51.980407,-0.225344,200,OK
51.102332,-0.848787,GU35 8QP,East Hampshire,South East,51.102611,-0.847852,200,OK
53.560662,-0.648531,DN16 3HP,North Lincolnshire,Yorkshire and The Humber,53.560662,-0.648531,200,OK
53.569559,-2.095302,OL2 8SS,Oldham,North West,53.569559,-2.095302,200,OK
53.796733,-1.68366,LS28 7PR,Leeds,Yorkshire and The Humber,53.796733,-1.68366,200,OK
52.243543,-0.898185,NN1 3RF,West Northamptonshire,East Midlands,52.243543,-0.898185,200,OK
51.53872,0.7167,SS1 2LG,Southend-on-Sea,East of England,51.538243,0.7167,200,OK
51.43778,-2.476954,BS30 6PL,South Gloucestershire,South West,51.43778,-2.476954,200,OK
53.132412,-1.186864,NG18 4RS,Mansfield,East Midlands,53.132412,-1.186864,200,OK
53.266745,-3.170333,CH6 6BG,Flintshire,,53.266745,-3.170333,200,OK
51.666678,-3.517747,CF42 6DY,Rhondda Cynon Taf,,51.666678,-3.517747,200,OK
51.272563,1.099615,CT1 1XW,Canterbury,South East,51.272563,1.099615,200,OK
50.751896,-1.540667,SO41 3TF,New Forest,South East,50.752271,-1.540314,200,OK
51.232267,-0.576086,GU2 4BB,Guildford,South East,51.232276,-0.576086,200,OK
51.546114,-0.092214,N1 2PU,Islington,London,51.546114,-0.092214,200,OK
55.949264,-3.214074,EH3 7LU,City of Edinburgh,,55.949252,-3.213978,200,OK
53.31981,-3.467685,LL18 4JS,Denbighshire,,53.31981,-3.467685,200,OK
52.456675,-1.818828,B25 8LU,Birmingham,West Midlands,52.456675,-1.818828,200,OK
53.491901,-2.240967,M4 4FS,Manchester,North West,53.491881,-2.240949,200,OK
50.830826,-0.776328,PO19 8AL,Chichester,South East,50.831006,-0.777204,200,OK
53.761053,-2.362641,BB5 6BE,Hyndburn,North West,53.761053,-2.362641,200,OK
52.684528,-1.131508,LE4 3GR,Charnwood,East Midlands,52.684528,-1.131508,200,OK
54.78366,-1.33137,,,,,,200,OK
53.341837,-2.217936,SK9 2EY,Cheshire East,North West,53.341837,-2.217936,200,OK
53.260237,-2.124383,SK10 1HW,Cheshire East,North West,53.26002,-2.124364,200,OK
54.578086,-1.237088,TS1 1SF,Middlesbrough,North East,54.578086,-1.237088,200,OK
51.524963,-0.032854,E3 4SX,Tower Hamlets,London,51.524963,-0.032854,200,OK
53.189745,-0.557247,LN5 9AW,Lincoln,East Midlands,53.189745,-0.557247,200,OK
53.604941,-0.968036,DN8 5RW,Doncaster,Yorkshire and The Humber,53.604941,-0.968036,200,OK
50.849934,0.435263,TN39 4LX,Rother,South East,50.849934,0.435263,200,OK
51.907019,-2.084073,GL51 9HB,Cheltenham,South West,51.907019,-2.084073,200,OK
50.400578,-3.87549,PL21 0XG,South Hams,South West,50.400578,-3.87549,200,OK
50.722284,-1.904296,BH4 9AS,"Bournemouth, Christchurch and Poole",South West,50.722284,-1.904296,200,OK
51.900623,-0.435125,LU3 1YD,Luton,East of England,51.900623,-0.435125,200,OK
55.789952,-3.992387,ML1 1QY,North Lanarkshire,,55.790013,-3.991369,200,OK
51.887735,-0.101933,SG2 7BY,East Hertfordshire,East of England,51.887735,-0.101933,200,OK
52.296397,-2.599959,WR15 8TE,Malvern Hills,West Midlands,52.296397,-2.599959,200,OK
54.852908,-5.821929,BT40 1QX,Mid and East Antrim,,54.852908,-5.821929,200,OK
54.270855,-6.640049,,,,,,200,OK
52.58204,-1.838354,B74 2TS,Birmingham,West Midlands,52.58204,-1.838354,200,OK
52.480404,0.836318,IP24 1QS,Breckland,East of England,52.480404,0.836318,200,OK
51.805654,-0.792236,HP21 7JU,Buckinghamshire,South East,51.805654,-0.792236,200,OK
52.887622,1.416779,NR11 8DT,North Norfolk,East of England,52.887622,1.416779,200,OK
53.519153,-2.046789,OL5 0NY,Tameside,North West,53.519144,-2.046759,200,OK
51.507415,-0.730364,SL6 2QW,Windsor and Maidenhead,South East,51.507415,-0.730364,200,OK
52.627988,1.346199,NR7 0PX,Broadland,East of England,52.628003,1.346251,200,OK
51.579246,-4.017802,SA3 4TL,Swansea,,51.579251,-4.017807,200,OK
53.374725,-1.319916,S26 3RT,Rotherham,Yorkshire and The Humber,53.374717,-1.320111,200,OK
52.67316,-1.813616,WS14 9HW,Lichfield,West Midlands,52.673528,-1.813349,200,OK
54.298774,-5.927234,BT31 9JX,"Newry, Mourne and Down",,54.298774,-5.927234,200,OK
52.968958,-1.503474,DE22 5JY,Amber Valley,East Midlands,52.968958,-1.503474,200,OK
53.705366,-0.877443,DN14 6AE,East Riding of Yorkshire,Yorkshire and The Humber,53.705057,-0.877088,200,OK
50.150346,-5.08017,TR11 2RN,Cornwall,South West,50.150346,-5.08017,200,OK
51.486716,-0.216045,W6 8LP,Hammersmith and Fulham,London,51.486716,-0.216059,200,OK
51.372894,-1.057445,RG7 3QX,West Berkshire,South East,51.372894,-1.057445,200,OK
57.663577,-3.311372,IV30 4LF,Moray,,57.663309,-3.311245,200,OK
53.517262,-2.648022,WN3 6XD,Wigan,North West,53.517262,-2.648022,200,OK
52.394979,-0.725319,NN15 7QQ,North Northamptonshire,East Midlands,52.394979,-0.725319,200,OK
52.021592,-1.280868,,,,,,200,OK
51.105268,-0.181359,RH10 5NH,Crawley,South East,51.105268,-0.181359,200,OK
51.260473,-0.267672,KT20 7PF,Mole Valley,South East,51.260473,-0.267672,200,OK
55.944217,-3.0584,EH21 6JE,East Lothian,,55.944217,-3.0584,200,OK
50.872639,0.574827,TN34 2HJ,Hastings,South East,50.872639,0.574827,200,OK
55.496268,-3.774643,ML12 6SN,South Lanarkshire,,55.496268,-3.774627,200,OK
53.174986,-4.22254,LL56 4NX,Gwynedd,,53.174986,-4.22254,200,OK
57.696063,-2.019446,AB43 9SR,Aberdeenshire,,57.696045,-2.019345,200,OK
51.523798,-0.74816,SL6 5BJ,Windsor and Maidenhead,South East,51.523798,-0.74816,200,OK
51.589185,-3.309115,CF37 5ES,Rhondda Cynon Taf,,51.589185,-3.309115,200,OK
53.478096,-2.196364,,,,,,200,OK
51.133934,-2.991901,TA6 4PW,Somerset,South West,51.134195,-2.991907,200,OK
51.660604,-3.030606,NP44 1LL,Torfaen,,51.660604,-3.030606,200,OK
55.857279,-4.256397,G1 4NL,Glasgow City,,55.857279,-4.256397,200,OK
53.746453,-2.489842,BB2 1NA,Blackburn with Darwen,North West,53.746282,-2.489916,200,OK
54.942863,-1.439347,NE36 0PF,South Tyneside,North East,54.942863,-1.439347,200,OK
52.537695,-2.014744,B70 0RJ,Sandwell,West Midlands,52.537695,-2.014744,200,OK
55.110512,-1.928193,NE19 2BT,Northumberland,North East,55.110512,-1.928193,200,OK
51.709409,-0.03663,EN8 0BS,Broxbourne,East of England,51.709409,-0.03663,200,OK
52.184636,-0.012867,CB23 2RE,South Cambridgeshire,East of England,52.184635,-0.012852,200,OK
51.73725,-1.236658,OX4 4AZ,Oxford,South East,51.73725,-1.236658,200,OK
53.561456,-0.81857,DN9 1QJ,North Lincolnshire,Yorkshire and The Humber,53.561456,-0.81857,200,OK
51.40782,-0.309142,KT1 1HH,Kingston upon Thames,London,51.407852,-0.30822,200,OK
52.559389,0.102372,PE15 8SD,Fenland,East of England,52.559389,0.102372,200,OK
52.999636,-0.400433,NG34 7HN,North Kesteven,East Midlands,52.999636,-0.400433,200,OK
51.502339,-0.027561,E14 8JL,Tower Hamlets,London,51.502456,-0.027008,200,OK
51.30696,-0.90106,RG27 8NJ,Hart,South East,51.307012,-0.90093,200,OK
55.902032,-4.20606,G64 1LB,East Dunbartonshire,,55.902032,-4.20606,200,OK
51.605597,0.060066,IG8 8DD,Redbridge,London,51.605597,0.060066,200,OK
51.229558,0.648336,ME17 1DH,Maidstone,South East,51.229558,0.648336,200,OK
51.805215,0.558426,CM3 2QD,Braintree,East of England,51.805215,0.558426,200,OK
51.556821,-0.804679,SL7 2SW,Buckinghamshire,South East,51.556821,-0.804679,200,OK
56.110805,-3.939445,FK8 2HP,Stirling,,56.110805,-3.939445,200,OK
51.622878,-0.177775,N12 8QH,Barnet,London,51.622878,-0.177775,200,OK
53.030863,-1.40988,DE5 8LH,Amber Valley,East Midlands,53.030863,-1.40988,200,OK
51.10894,0.266669,TN3 9HE,Wealden,South East,51.10894,0.266669,200,OK
51.37556,1.332716,CT8 8JH,Thanet,South East,51.37556,1.332716,200,OK
54.548149,-1.172624,TS7 9NW,Redcar and Cleveland,North East,54.548149,-1.172624,200,OK
51.621947,-3.874077,,,,,,200,OK
50.837118,-0.171067,BN3 6HF,Brighton and Hove,South East,50.83681,-0.17125,200,OK
51.969841,-1.239363,OX27 7HS,Cherwell,South East,51.969841,-1.239363,200,OK
51.732557,-5.201159,SA62 3BE,Pembrokeshire,,51.732557,-5.201159,200,OK
52.017569,-0.748212,MK6 1LE,Milton Keynes,South East,52.017538,-0.748528,200,OK
51.528133,-0.36071,UB6 9HS,Ealing,London,51.528133,-0.36071,200,OK
57.365303,-2.082773,AB41 9AY,Aberdeenshire,,57.365565,-2.081261,200,OK
52.462926,-2.008552,B68 0QA,Sandwell,West Midlands,52.462926,-2.008552,200,OK
54.556209,-5.976416,BT10 0AU,Belfast,,54.556209,-5.976416,200,OK
53.455108,-2.41275,M44 6HQ,Salford,North West,53.455108,-2.41275,200,OK
51.007683,-0.107705,RH16 1TL,Mid Sussex,South East,51.007683,-0.107705,200,OK
51.463939,-0.229717,SW15 6JB,Wandsworth,London,51.463939,-0.229717,200,OK
53.820734,-1.900046,BD13 5FB,Bradford,Yorkshire and The Humber,53.820734,-1.900046,200,OK
52.852757,-0.81656,NG32 1SE,Melton,East Midlands,52.852757,-0.81656,200,OK
50.306317,-5.21394,TR5 0NG,Cornwall,South West,50.306657,-5.214019,200,OK
55.586495,-4.498468,KA1 4SF,East Ayrshire,,55.586495,-4.498468,200,OK
51.34759,-0.266274,KT19 9JZ,Epsom and Ewell,South East,51.34759,-0.266274,200,OK
51.365046,0.108281,BR6 9DZ,Bromley,London,51.365046,0.108281,200,OK
51.750551,-4.997474,SA62 3HQ,Pembrokeshire,,51.750551,-4.997474,200,OK
53.297257,-1.462228,S18 1XX,North East Derbyshire,East Midlands,53.297257,-1.462228,200,OK
52.455792,-1.965565,B17 0SS,Birmingham,West Midlands,52.455792,-1.965565,200,OK
53.153582,-2.187312,CW12 3HX,Cheshire East,North West,53.1536,-2.187207,200,OK
55.90072,-3.153764,EH17 8FP,City of Edinburgh,,55.90072,-3.153764,200,OK
52.830188,0.87336,NR21 8NR,North Norfolk,East of England,52.830188,0.87336,200,OK
51.371479,0.72795,ME9 8GF,Swale,South East,51.371479,0.72795,200,OK
52.490171,-1.836864,B8 3LP,Birmingham,West Midlands,52.490171,-1.836864,200,OK
53.733708,-2.650453,PR5 6ZF,South Ribble,North West,53.733708,-2.650453,200,OK
53.055055,0.006213,PE22 0UQ,East Lindsey,East Midlands,53.055055,0.006213,200,OK
51.927124,1.248558,CO12 4WG,Tendring,East of England,51.927124,1.248558,200,OK
51.903694,-1.14628,OX26 4UX,Cherwell,South East,51.903365,-1.145574,200,OK
50.464447,-3.561066,TQ2 6XB,Torbay,South West,50.464558,-3.560859,200,OK
53.475502,-2.575939,WA3 2FZ,Wigan,North West,53.475502,-2.575939,200,OK
51.843897,-0.188472,AL6 0UJ,Welwyn Hatfield,East of England,51.843886,-0.188478,200,OK
53.567456,-0.980304,DN7 6PH,Doncaster,Yorkshire and The Humber,53.567682,-0.980168,200,OK
53.747487,-2.735811,PR1 0RA,South Ribble,North West,53.747487,-2.735811,200,OK
54.97415,-1.611195,NE1 8BF,Newcastle upon Tyne,North East,54.973797,-1.611118,200,OK
50.857221,-3.399898,EX15 1JJ,Mid Devon,South West,50.857221,-3.399898,200,OK
51.656826,-3.182458,NP12 2LB,Caerphilly,,51.656567,-3.182234,200,OK
51.698958,-0.392747,WD25 7SR,Three Rivers,East of England,51.698968,-0.39279,200,OK
52.382896,-1.746787,B93 9JU,Solihull,West Midlands,52.382896,-1.746787,200,OK
51.695853,-4.123281,,,,,,200,OK
57.694482,-2.023203,AB43 9SU,Aberdeenshire,,57.694365,-2.023723,200,OK
52.597123,-2.125401,WV1 1PX,Wolverhampton,West Midlands,52.597123,-2.125401,200,OK
53.595966,-2.41033,BL2 3BD,Bolton,North West,53.595966,-2.41033,200,OK
51.51049,-0.121992,WC2R 0LT,Westminster,London,51.51049,-0.121992,200,OK
55.851226,-4.019059,ML5 4HB,North Lanarkshire,,55.851226,-4.019059,200,OK
53.399557,-3.043725,CH41 8ED,Wirral,North West,53.399965,-3.043299,200,OK
51.552768,-3.023364,NP10 8HF,Newport,,51.552768,-3.023364,200,OK
51.516528,-0.063531,E1 1EU,Tower Hamlets,London,51.516528,-0.063531,200,OK
54.970005,-1.60772,NE1 2DS,Newcastle upon Tyne,North East,54.970093,-1.607576,200,OK
51.385392,-0.814666,RG40 3AS,Wokingham,South East,51.385392,-0.814666,200,OK
53.925311,-1.827888,LS29 9EA,Bradford,Yorkshire and The Humber,53.925361,-1.827693,200,OK
51.621902,-4.019409,SA2 7NR,Swansea,,51.621902,-4.019409,200,OK
55.473225,-4.602271,KA8 9QT,South Ayrshire,,55.473225,-4.602271,200,OK
51.387956,-2.786871,BS49 4NG,North Somerset,South West,51.387956,-2.786871,200,OK
54.88886,-2.957334,CA2 5RE,Cumberland,North West,54.88886,-2.957334,200,OK
52.635106,-1.137023,LE1 5FQ,Leicester,East Midlands,52.635027,-1.137239,200,OK
51.39916,0.452741,ME2 3UG,Gravesham,South East,51.39916,0.452741,200,OK
50.788933,-1.061276,PO4 9DS,Portsmouth,South East,50.788933,-1.061276,200,OK
53.414844,-2.98479,L3 6NA,Liverpool,North West,53.414844,-2.98479,200,OK
51.468026,-2.589948,BS6 5DD,"Bristol, City of",South West,51.468026,-2.589948,200,OK
51.37003,-0.476037,KT15 2SD,Runnymede,South East,51.37003,-0.476037,200,OK
50.840804,-2.945958,,,,,,200,OK
53.197245,-3.002098,CH5 2PB,Flintshire,,53.197245,-3.002098,200,OK
51.444758,-1.004252,RG30 3EP,Reading,South East,51.444758,-1.004252,200,OK
51.571077,-0.77979,SL7 2FU,Buckinghamshire,South East,51.570857,-0.779878,200,OK
53.189023,-1.064045,NG21 9HR,Newark and Sherwood,East Midlands,53.189023,-1.064045,200,OK
51.363208,-0.172026,SM5 3PZ,Sutton,London,51.363234,-0.172025,200,OK
51.547109,0.627176,SS9 2TB,Southend-on-Sea,East of England,51.547109,0.627176,200,OK
54.277463,-3.212207,LA20 6HH,Westmorland and Furness,North West,54.277463,-3.212207,200,OK
53.345613,-2.836151,L24 2UP,Liverpool,North West,53.345613,-2.836151,200,OK
53.246023,-1.340779,S44 5HG,Chesterfield,East Midlands,53.246023,-1.340779,200,OK
54.916809,-1.440661,SR5 3BQ,Sunderland,North East,54.916809,-1.440661,200,OK
54.883413,-2.763867,CA8 9BS,Cumberland,North West,54.883413,-2.763867,200,OK
52.196173,-1.671947,CV37 7DD,Stratford-on-Avon,West Midlands,52.196173,-1.671947,200,OK
53.914957,-1.939463,BD20 9JU,Bradford,Yorkshire and The Humber,53.914957,-1.939463,200,OK
52.183715,-1.696522,CV37 7JZ,Stratford-on-Avon,West Midlands,52.183715,-1.696522,200,OK
53.085294,-2.502827,CW5 6PD,Cheshire East,North West,53.085294,-2.502827,200,OK
51.354077,-0.023394,CR0 9DQ,Croydon,London,51.354077,-0.023394,200,OK
54.35449,-2.776992,LA9 5SE,Westmorland and Furness,North West,54.35449,-2.776992,200,OK
50.928408,-1.328317,SO30 3EA,Eastleigh,South East,50.928408,-1.328317,200,OK
51.731657,0.708214,CM9 4SB,Maldon,East of England,51.731676,0.708171,200,OK
51.185195,-0.82592,GU10 4DD,Waverley,South East,51.185195,-0.82592,200,OK
53.843397,-1.799772,BD17 5SJ,Bradford,Yorkshire and The Humber,53.843397,-1.799772,200,OK
53.393044,-2.664779,WA5 3LX,Warrington,North West,53.393044,-2.664779,200,OK
53.521367,-1.125155,DN1 2EE,Doncaster,Yorkshire and The Humber,53.52124,-1.124663,200,OK
51.396211,-0.126446,CR7 6EW,Merton,London,51.396211,-0.126446,200,OK
53.488887,-2.085219,OL6 6QE,Tameside,North West,53.488887,-2.085219,200,OK
53.265338,-2.751613,WA6 9HD,Cheshire West and Chester,North West,53.265338,-2.751613,200,OK
55.861501,-3.761805,ML7 5SB,North Lanarkshire,,55.861501,-3.761805,200,OK
51.922282,1.228439,CO12 5ED,Tendring,East of England,51.922282,1.228439,200,OK
53.817319,-1.728904,BD2 3RT,Bradford,Yorkshire and The Humber,53.817319,-1.728904,200,OK
52.363595,-1.238221,CV22 5BA,Rugby,West Midlands,52.363595,-1.238221,200,OK
55.864216,-4.114849,,,,,,200,OK
53.769391,-1.558689,LS11 7HB,Leeds,Yorkshire and The Humber,53.769391,-1.558689,200,OK
50.867074,-3.900584,EX18 7SA,Mid Devon,South West,50.866703,-3.900185,200,OK
52.886333,-1.49406,DE23 1XP,Derby,East Midlands,52.886342,-1.494205,200,OK
53.382094,-1.468391,S1 2PB,Sheffield,Yorkshire and The Humber,53.382012,-1.468181,200,OK
53.592889,-1.647699,HD8 9UH,Kirklees,Yorkshire and The Humber,53.592889,-1.647699,200,OK
53.85533,-1.497731,LS17 8TR,Leeds,Yorkshire and The Humber,53.85533,-1.497731,200,OK
50.646549,-4.573923,PL15 8PY,Cornwall,South West,50.646549,-4.573923,200,OK
57.663694,-4.354146,IV16 9XR,Highland,,57.663694,-4.354146,200,OK
53.660878,-1.55599,WF4 6LG,Wakefield,Yorkshire and The Humber,53.660878,-1.55599,200,OK
54.359781,-6.275194,BT32 4QS,"Armagh City, Banbridge and Craigavon",,54.359781,-6.275194,200,OK
55.903556,-3.142572,EH17 8LG,City of Edinburgh,,55.903556,-3.142572,200,OK
50.954745,-4.248035,EX39 5NA,Torridge,South West,50.954745,-4.248035,200,OK
50.915913,-3.481125,EX16 6UX,Mid Devon,South West,50.915913,-3.481125,200,OK
50.455548,-4.467196,PL14 6BY,Cornwall,South West,50.455548,-4.467196,200,OK
52.31674,-0.620354,NN9 5YD,North Northamptonshire,East Midlands,52.31674,-0.620354,200,OK
51.811933,1.02909,CO7 0LR,Tendring,East of England,51.811933,1.02909,200,OK
54.660758,-1.562028,DL17 0RS,County Durham,North East,54.660758,-1.562028,200,OK
51.516882,-3.218967,CF14 1AZ,Cardiff,,51.516882,-3.218967,200,OK
50.997893,-0.0974,RH16 3TR,Mid Sussex,South East,50.997893,-0.0974,200,OK
51.017411,-4.246731,EX39 5BA,Torridge,South West,51.017411,-4.246731,200,OK
54.933871,-2.704612,CA8 1HR,Cumberland,North West,54.934076,-2.703351,200,OK
54.352537,-7.402844,BT94 4TF,Fermanagh and Omagh,,54.352537,-7.402844,200,OK
53.460181,-2.780836,WA10 5JX,St. Helens,North West,53.460181,-2.780836,200,OK
50.814709,-1.078446,PO2 0BP,Portsmouth,South East,50.814709,-1.078446,200,OK
54.549718,-1.905966,DL12 8QE,County Durham,North East,54.549718,-1.905966,200,OK
51.323245,-0.194652,SM7 3BT,Reigate and Banstead,South East,51.322881,-0.194351,200,OK
53.54945,-0.662714,DN17 2UJ,North Lincolnshire,Yorkshire and The Humber,53.549835,-0.662536,200,OK
53.702564,-2.462139,BB3 3AL,Blackburn with Darwen,North West,53.702564,-2.462139,200,OK
52.695735,-1.998685,WS11 7WH,Cannock Chase,West Midlands,52.695735,-1.998685,200,OK
53.622463,-2.162791,OL12 6JY,Rochdale,North West,53.622434,-2.162804,200,OK
53.509395,-1.381576,S73 0UQ,Rotherham,Yorkshire and The Humber,53.509395,-1.381576,200,OK
50.410527,-4.177295,PL5 2DS,Plymouth,South West,50.410527,-4.177295,200,OK
52.008816,-0.698788,MK7 8HF,Milton Keynes,South East,52.008816,-0.698788,200,OK
53.085281,-2.461889,CW2 8FF,Cheshire East,North West,53.085281,-2.461889,200,OK
57.355362,-2.497914,AB51 5AE,Aberdeenshire,,57.355662,-2.497137,200,OK
51.542814,-2.284798,GL9 1DG,South Gloucestershire,South West,51.542814,-2.284798,200,OK
51.812317,-1.399378,OX29 8AW,West Oxfordshire,South East,51.812308,-1.399393,200,OK
53.613126,-2.341117,BL8 3LP,Bury,North West,53.613142,-2.34116,200,OK
55.206765,-3.102569,DG13 0PD,Dumfries and Galloway,,55.206765,-3.102569,200,OK
53.570036,-2.314933,M26 2XA,Bury,North West,53.570043,-2.314917,200,OK
51.379018,-0.251077,KT4 7AS,Epsom and Ewell,South East,51.379018,-0.251077,200,OK
51.524978,-0.091454,EC1V 9BW,Islington,London,51.525032,-0.091296,200,OK
54.897526,-7.052972,,,,,,200,OK
53.589957,-2.763104,WN8 7HY,West Lancashire,North West,53.589957,-2.763104,200,OK
51.434268,-1.441707,RG17 9RJ,West Berkshire,South East,51.434277,-1.441735,200,OK
53.719333,-0.437661,HU13 0BP,East Riding of Yorkshire,Yorkshire and The Humber,53.719333,-0.437661,200,OK
51.789468,-4.337313,SA17 5TP,Carmarthenshire,,51.789468,-4.337313,200,OK
53.183897,-2.842923,CH3 6BA,Cheshire West and Chester,North West,53.183897,-2.842923,200,OK
52.378074,-2.252035,DY10 1HT,Wyre Forest,West Midlands,52.378074,-2.252035,200,OK
51.524185,-0.652393,SL1 6HB,Slough,South East,51.524185,-0.652393,200,OK
54.821771,-7.452488,BT82 8BZ,Derry City and Strabane,,54.821771,-7.452488,200,OK
55.969657,-3.219984,EH5 2DW,City of Edinburgh,,55.969657,-3.219984,200,OK
50.740586,-3.489447,EX4 8NR,Exeter,South West,50.740538,-3.488949,200,OK
54.887639,-2.967777,CA2 6TQ,Cumberland,North West,54.887639,-2.967777,200,OK
52.881687,-0.180145,PE11 4PQ,South Holland,East Midlands,52.881687,-0.180145,200,OK
54.951637,-1.364935,SR6 7AA,South Tyneside,North East,54.951637,-1.364935,200,OK
51.677081,-4.151078,SA15 1RS,Carmarthenshire,,51.677081,-4.151078,200,OK
53.748372,-2.463979,BB1 1NG,Blackburn with Darwen,North West,53.748317,-2.464069,200,OK
51.553169,0.553533,SS7 5HH,Castle Point,East of England,51.553169,0.553533,200,OK
51.131683,-0.17542,RH10 9SE,Crawley,South East,51.131683,-0.17542,200,OK
55.833765,-4.049144,G71 5BN,North Lanarkshire,,55.833765,-4.049144,200,OK
51.502347,-0.23273,W12 8BQ,Hammersmith and Fulham,London,51.502284,-0.232689,200,OK
51.117636,-0.163929,RH10 1LR,Crawley,South East,51.117636,-0.163929,200,OK
50.828336,-0.170189,BN3 4AH,Brighton and Hove,South East,50.828421,-0.170456,200,OK
53.506943,-0.297373,LN7 6RW,West Lindsey,East Midlands,53.506943,-0.297373,200,OK
52.858311,-2.844024,SY12 0JF,Shropshire,West Midlands,52.858311,-2.844024,200,OK
51.756312,-1.217575,OX3 7PJ,Oxford,South East,51.756312,-1.217575,200,OK
55.445878,-4.612109,KA7 3RB,South Ayrshire,,55.445878,-4.612109,200,OK
52.438306,-1.800515,B92 8BY,Solihull,West Midlands,52.438306,-1.800515,200,OK
53.173553,-2.855257,CH3 6GH,Cheshire West and Chester,North West,53.173553,-2.855257,200,OK
51.736714,-4.696298,SA67 8LH,Pembrokeshire,,51.736714,-4.696298,200,OK
54.507863,-6.76868,BT70 1EN,Mid Ulster,,54.507863,-6.76868,200,OK
53.505141,-1.357167,S63 6QH,Rotherham,Yorkshire and The Humber,53.505141,-1.357167,200,OK
55.867482,-4.096215,G34 0DX,Glasgow City,,55.867482,-4.096215,200,OK
50.284438,-3.817662,,,,,,200,OK
53.171618,-1.183642,NG19 8JG,Mansfield,East Midlands,53.171618,-1.183642,200,OK
52.473715,-1.935179,B16 9BG,Birmingham,West Midlands,52.473507,-1.934591,200,OK
51.305731,-0.758248,GU14 8DB,Rushmoor,South East,51.305731,-0.758248,200,OK
53.488092,-2.042868,SK15 3DU,Tameside,North West,53.488092,-2.042868,200,OK
51.362639,-0.882047,RG40 4LH,Wokingham,South East,51.362639,-0.882047,200,OK
52.881807,-1.484706,DE24 9PE,Derby,East Midlands,52.881807,-1.484706,200,OK
53.169659,-2.818424,CH3 7QJ,Cheshire West and Chester,North West,53.169659,-2.818424,200,OK
54.948359,-1.726491,NE21 6QW,Gateshead,North East,54.948359,-1.726491,200,OK
55.013329,-2.960607,CA6 5UN,Cumberland,North West,55.013329,-2.960607,200,OK
53.770358,-0.353906,HU6 7LH,"Kingston upon Hull, City of",Yorkshire and The Humber,53.770358,-0.353906,200,OK
53.563628,-1.802378,HD9 2PU,Kirklees,Yorkshire and The Humber,53.563628,-1.802378,200,OK
55.945256,-3.209577,EH3 8DE,City of Edinburgh,,55.945256,-3.209577,200,OK
54.126161,-3.202074,LA13 9LF,Westmorland and Furness,North West,54.126206,-3.202075,200,OK
50.212368,-5.300931,TR14 8SG,Cornwall,South West,50.212377,-5.300917,200,OK
54.695102,-1.751219,DL15 8HJ,County Durham,North East,54.695102,-1.751219,200,OK
54.763312,-1.46724,DH6 1LH,County Durham,North East,54.763312,-1.46724,200,OK
54.138705,-3.20965,LA14 4PQ,Westmorland and Furness,North West,54.138705,-3.20965,200,OK
50.83353,-2.941418,TA20 4QT,Dorset,South West,50.833756,-2.941144,200,OK
51.32629,-2.952997,BS24 9BG,North Somerset,South West,51.32629,-2.952997,200,OK
56.480862,-2.932178,DD4 8HB,Dundee City,,56.480862,-2.932178,200,OK
53.941602,-1.105801,YO24 1LH,York,Yorkshire and The Humber,53.941602,-1.105801,200,OK
54.859095,-1.725657,DH9 7TP,County Durham,North East,54.859095,-1.725657,200,OK
53.494173,-2.187003,M40 2UQ,Manchester,North West,53.494164,-2.187018,200,OK
51.375894,1.30858,CT7 9DU,Thanet,South East,51.375894,1.30858,200,OK
52.403544,-1.447741,CV3 2DT,Coventry,West Midlands,52.403544,-1.447741,200,OK
52.47728,-1.892477,B5 4BW,Birmingham,West Midlands,52.477307,-1.893051,200,OK
53.297283,-1.120047,S80 1AQ,Bassetlaw,East Midlands,53.297283,-1.120047,200,OK
51.659885,-0.277741,WD6 1UL,Hertsmere,East of England,51.659885,-0.277741,200,OK
54.597772,-5.787989,BT16 1UH,Lisburn and Castlereagh,,54.597383,-5.787345,200,OK
52.952162,-2.86785,LL13 0LN,Wrexham,,52.952162,-2.86785,200,OK
51.311456,-2.205242,BA14 0PE,Wiltshire,South West,51.311456,-2.205242,200,OK
51.947973,0.436681,CM7 4RF,Braintree,East of England,51.947973,0.436681,200,OK
55.950149,-3.186399,EH1 1TB,City of Edinburgh,,55.950241,-3.186113,200,OK
51.583135,0.419866,SS15 6EB,Basildon,East of England,51.583135,0.419866,200,OK
51.788922,0.636467,CM8 1RU,Braintree,East of England,51.788922,0.636467,200,OK
52.607542,1.733222,NR30 2FH,Great Yarmouth,East of England,52.607464,1.733127,200,OK
53.744007,-1.287196,WF11 9NF,North Yorkshire,Yorkshire and The Humber,53.744134,-1.287497,200,OK
51.104045,-3.99559,EX32 7JZ,North Devon,South West,51.104045,-3.99559,200,OK
55.0372,-7.233741,BT47 6TR,Derry City and Strabane,,55.0372,-7.233741,200,OK
50.435032,-3.560816,TQ4 6BP,Torbay,South West,50.435032,-3.560816,200,OK
56.366252,-2.893619,KY16 0UZ,Fife,,56.366252,-2.893619,200,OK
51.902737,-2.056107,GL52 5NN,Cheltenham,South West,51.902737,-2.056107,200,OK
52.687569,-1.395331,LE67 6LE,North West Leicestershire,East Midlands,52.687434,-1.3952,200,OK
51.326506,-2.179505,BA14 7QX,Wiltshire,South West,51.326506,-2.179505,200,OK
55.927391,-4.670061,PA14 5TE,Inverclyde,,55.927386,-4.669978,200,OK
52.654674,-1.06664,LE5 1UZ,Leicester,East Midlands,52.654656,-1.066617,200,OK
52.689432,-1.931784,WS7 2YU,Lichfield,West Midlands,52.689233,-1.931748,200,OK
55.94296,-4.56903,G82 1LT,West Dunbartonshire,,55.942955,-4.568965,200,OK
54.437144,-6.408411,BT63 5GS,"Armagh City, Banbridge and Craigavon",,54.437144,-6.408411,200,OK
55.624334,-3.517252,ML12 6AS,South Lanarkshire,,55.624334,-3.517252,200,OK
56.470808,-3.010317,DD2 3US,Dundee City,,56.470843,-3.010435,200,OK
51.775086,0.111873,CM20 3JN,Harlow,East of England,51.774995,0.111794,200,OK
54.913853,-1.756783,NE39 1DG,Gateshead,North East,54.913853,-1.756783,200,OK
51.285198,-2.053191,SN10 5UH,Wiltshire,South West,51.285198,-2.053191,200,OK
50.391406,-4.028551,PL7 2WN,Plymouth,South West,50.391406,-4.028551,200,OK
52.339233,-0.202249,PE29 6UZ,Huntingdonshire,East of England,52.338987,-0.202083,200,OK
51.524291,-0.049677,E1 4AE,Tower Hamlets,London,51.524218,-0.049594,200,OK
51.41932,-3.276264,CF62 9TZ,Vale of Glamorgan,,51.41932,-3.276264,200,OK
51.475569,-2.513949,BS16 4JP,"Bristol, City of",South West,51.475569,-2.513949,200,OK
52.040505,-2.647918,HR1 4JL,"Herefordshire, County of",West Midlands,52.040505,-2.647918,200,OK
51.214227,-2.656765,BA5 2LN,Somerset,South West,51.214227,-2.656765,200,OK
51.549193,-2.426084,BS37 5TN,South Gloucestershire,South West,51.549193,-2.426084,200,OK
50.806803,-0.52424,BN17 6RA,Arun,South East,50.806803,-0.52424,200,OK
51.543008,0.646353,SS9 2NA,Southend-on-Sea,East of England,51.543008,0.646353,200,OK
53.410533,-2.994183,L3 9RY,Liverpool,North West,53.410533,-2.994183,200,OK
51.888012,0.906883,CO1 2QA,Colchester,East of England,51.888039,0.906987,200,OK
54.129324,-6.260705,BT34 3UL,"Newry, Mourne and Down",,54.129324,-6.260705,200,OK
52.99398,-2.11852,ST3 5YG,Stoke-on-Trent,West Midlands,52.99398,-2.11852,200,OK
51.699437,0.10836,CM16 5JU,Epping Forest,East of England,51.699437,0.10836,200,OK
51.378357,0.528886,ME4 5QZ,Medway,South East,51.378357,0.528886,200,OK
52.354556,0.505148,,,,,,200,OK
53.612853,-1.346176,WF9 4JA,Wakefield,Yorkshire and The Humber,53.612853,-1.346176,200,OK
55.93928,-3.18882,EH9 1LW,City of Edinburgh,,55.939097,-3.18827,200,OK
52.145398,1.082689,IP6 8LH,Mid Suffolk,East of England,52.145572,1.082862,200,OK
51.649138,-3.991893,SA5 4BW,Swansea,,51.649138,-3.991893,200,OK
51.888651,-2.051593,GL52 6JY,Cheltenham,South West,51.888651,-2.051593,200,OK
52.532918,-2.014413,B70 0JZ,Sandwell,West Midlands,52.532936,-2.014339,200,OK
51.581573,-0.432383,HA4 7TF,Hillingdon,London,51.581573,-0.432383,200,OK
51.305005,-2.497222,BS39 7XT,Bath and North East Somerset,South West,51.305005,-2.497222,200,OK
51.513,-0.129426,WC2H 0AA,Westminster,London,51.513033,-0.129237,200,OK
54.448556,-3.45611,CA20 1DZ,Cumberland,North West,54.448556,-3.45611,200,OK
57.165288,-2.13788,AB24 4GD,Aberdeen City,,57.165288,-2.13788,200,OK
55.003444,-1.432468,NE33 2BP,South Tyneside,North East,55.003044,-1.431659,200,OK
50.223455,-5.280781,TR14 8FA,Cornwall,South West,50.223455,-5.280781,200,OK
51.549085,-3.271994,CF15 7QL,Rhondda Cynon Taf,,51.549085,-3.271994,200,OK
51.787266,-1.476041,OX28 3SZ,West Oxfordshire,South East,51.787266,-1.476041,200,OK
51.189198,0.604475,TN27 9PT,Maidstone,South East,51.189198,0.604475,200,OK
51.06987,-1.794758,SP1 1DF,Wiltshire,South West,51.06987,-1.794758,200,OK
52.652108,-1.465281,CV13 6NQ,Hinckley and Bosworth,East Midlands,52.652108,-1.465281,200,OK
52.473603,-1.892618,,,,,,200,OK
52.084693,-1.945403,WR11 1HS,Wychavon,West Midlands,52.084693,-1.945403,200,OK
51.420988,-0.74355,RG12 2JJ,Bracknell Forest,South East,51.420988,-0.74355,200,OK
50.710439,-3.423196,EX5 1DP,East Devon,South West,50.710439,-3.423196,200,OK
53.691612,-2.195055,OL13 0DB,Rossendale,North West,53.691597,-2.195056,200,OK
51.463774,-0.039086,SE4 2EW,Lewisham,London,51.463774,-0.039086,200,OK
55.049803,-1.915483,NE18 0QP,Northumberland,North East,55.049803,-1.915483,200,OK
53.779075,-1.713596,BD4 9ET,Bradford,Yorkshire and The Humber,53.779075,-1.713596,200,OK
54.773878,-1.541247,DH1 2ED,County Durham,North East,54.773878,-1.541247,200,OK
51.877049,0.931503,CO2 8YX,Colchester,East of England,51.876997,0.931398,200,OK
53.821652,-2.235854,BB9 5LF,Pendle,North West,53.821652,-2.235854,200,OK
50.106714,-5.271476,TR13 8UW,Cornwall,South West,50.106714,-5.271476,200,OK
52.052789,-0.889174,MK19 6GN,West Northamptonshire,East Midlands,52.052789,-0.889174,200,OK
51.462109,-0.122496,SW4 7RP,Lambeth,London,51.462109,-0.122496,200,OK
52.817437,-2.12059,ST16 3UL,Stafford,West Midlands,52.817437,-2.12059,200,OK
51.435411,-0.916497,RG6 7LU,Wokingham,South East,51.435411,-0.916497,200,OK
53.80735,-3.013998,FY3 9SX,Blackpool,North West,53.80735,-3.013998,200,OK
50.392933,-4.065464,PL7 4LT,Plymouth,South West,50.392933,-4.065464,200,OK
51.428224,0.19818,DA2 7EN,Dartford,South East,51.428224,0.19818,200,OK
53.393636,-2.325569,WA15 7SN,Trafford,North West,53.393636,-2.325569,200,OK
51.619776,-3.009603,NP20 6QF,Newport,,51.619501,-3.009192,200,OK
52.535379,-1.880158,B44 8QH,Birmingham,West Midlands,52.535379,-1.880158,200,OK
51.376402,1.392669,CT9 4AH,Thanet,South East,51.376402,1.392669,200,OK
52.240558,-0.875339,NN1 5JY,West Northamptonshire,East Midlands,52.240525,-0.875589,200,OK
53.478734,-2.542155,WN7 3PF,Wigan,North West,53.478675,-2.541431,200,OK
51.510944,-0.383708,UB1 1HZ,Ealing,London,51.510697,-0.383385,200,OK
53.370697,-4.539166,LL65 4EH,Isle of Anglesey,,53.370697,-4.539166,200,OK
51.676788,-1.917952,GL7 5TN,Cotswold,South West,51.676788,-1.917952,200,OK
52.548273,-1.865759,B44 0PF,Birmingham,West Midlands,52.548777,-1.8662,200,OK
53.831677,-1.966339,BD22 0EN,Bradford,Yorkshire and The Humber,53.831677,-1.966339,200,OK
51.615837,-0.115884,N13 4HD,Enfield,London,51.615837,-0.115884,200,OK
55.866907,-4.275018,G3 7QL,Glasgow City,,55.866907,-4.275018,200,OK
53.445796,-2.086608,SK14 1DU,Tameside,North West,53.445669,-2.085478,200,OK
51.526812,-0.067778,E2 6BD,Tower Hamlets,London,51.526812,-0.067778,200,OK
50.925381,-1.443762,SO16 4HB,Southampton,South East,50.925381,-1.443762,200,OK
51.375803,-0.393213,KT12 4QS,Elmbridge,South East,51.375803,-0.393213,200,OK
50.751027,-2.010026,BH18 9PA,"Bournemouth, Christchurch and Poole",South West,50.751027,-2.010026,200,OK
51.579402,0.060065,IG4 5EL,Redbridge,London,51.579402,0.060065,200,OK
51.584602,-0.283823,HA3 9RA,Brent,London,51.584573,-0.284286,200,OK
51.517845,-0.101729,EC1A 9HY,City of London,London,51.517845,-0.101729,200,OK
50.764105,-1.771567,BH23 7AW,"Bournemouth, Christchurch and Poole",South West,50.764105,-1.771567,200,OK
51.475375,-2.565767,BS5 6XR,"Bristol, City of",South West,51.475409,-2.565927,200,OK
51.75102,0.09038,CM18 7NR,Harlow,East of England,51.751526,0.09056,200,OK
55.950847,-3.209351,EH2 4QZ,City of Edinburgh,,55.950926,-3.209098,200,OK
54.571347,-1.251723,TS1 5QZ,Middlesbrough,North East,54.571347,-1.251723,200,OK
53.912969,-2.1847,BB18 5BE,Pendle,North West,53.912924,-2.184731,200,OK
52.015925,-0.773948,MK5 7EW,Milton Keynes,South East,52.015925,-0.773948,200,OK
51.720048,0.690071,CM9 6FN,Maldon,East of England,51.720048,0.690071,200,OK
50.260295,-5.090278,TR1 3FT,Cornwall,South West,50.260295,-5.090278,200,OK
51.37909,0.079223,BR5 1HD,Bromley,London,51.378743,0.079035,200,OK
53.348741,-2.146948,SK12 1JS,Cheshire East,North West,53.348741,-2.146948,200,OK
54.278823,-0.431315,YO12 5DH,North Yorkshire,Yorkshire and The Humber,54.278823,-0.431315,200,OK
57.685904,-2.019843,AB43 9PB,Aberdeenshire,,57.685904,-2.019843,200,OK
55.755634,-4.924393,,,,,,200,OK
51.818212,-0.84471,HP19 7AL,Buckinghamshire,South East,51.818212,-0.84471,200,OK
52.474167,-0.707838,NN18 8SY,North Northamptonshire,East Midlands,52.474167,-0.707838,200,OK
52.914538,-1.292627,NG10 5QE,Erewash,East Midlands,52.914538,-1.292627,200,OK
51.575148,-0.260439,NW9 8LP,Brent,London,51.575148,-0.260439,200,OK
53.827772,-1.391032,LS15 4HJ,Leeds,Yorkshire and The Humber,53.827772,-1.391032,200,OK
54.248541,-0.975307,YO62 7RN,North Yorkshire,Yorkshire and The Humber,54.248541,-0.975307,200,OK
51.272781,-1.092165,RG21 5NY,Basingstoke and Deane,South East,51.272781,-1.092165,200,OK
55.86069,-4.367534,G52 4JN,Renfrewshire,,55.860247,-4.367892,200,OK
52.453057,-2.838003,SY7 8BZ,Shropshire,West Midlands,52.453057,-2.838003,200,OK
51.241376,0.678004,ME17 1GT,Maidstone,South East,51.241376,0.678004,200,OK
52.721568,1.102308,NR9 5QH,Broadland,East of England,52.721568,1.102308,200,OK
51.389661,1.386735,CT9 1QQ,Thanet,South East,51.389661,1.386735,200,OK
55.071858,-6.51148,BT53 6JG,Causeway Coast and Glens,,55.071858,-6.51148,200,OK
51.463252,-1.950894,SN11 8SP,Wiltshire,South West,51.463252,-1.950894,200,OK
57.650511,-3.511592,,,,,,200,OK
51.461489,-1.037312,RG31 6EX,Reading,South East,51.461389,-1.037156,200,OK
51.523058,-0.092241,EC1Y 8SN,Islington,London,51.523058,-0.092241,200,OK
51.889736,-0.361929,LU2 8UR,Luton,East of England,51.889736,-0.361929,200,OK
53.836033,-2.221788,BB9 7HW,Pendle,North West,53.836033,-2.221788,200,OK
51.477702,-3.200858,CF11 6JG,Cardiff,,51.477939,-3.200643,200,OK
52.187107,0.143823,CB1 7UB,Cambridge,East of England,52.187107,0.143823,200,OK
53.735213,-2.717436,PR1 9EH,South Ribble,North West,53.735213,-2.717436,200,OK
52.968785,-0.363704,NG34 0BN,North Kesteven,East Midlands,52.968785,-0.363704,200,OK
57.65606,-3.317301,IV30 4EE,Moray,,57.656096,-3.3175,200,OK
52.478883,-1.730497,B37 7UA,Solihull,West Midlands,52.478883,-1.730497,200,OK
51.516637,-3.158833,CF23 6UR,Cardiff,,51.516637,-3.158833,200,OK
52.40621,-1.503822,CV1 2DS,Coventry,West Midlands,52.406101,-1.503676,200,OK
55.876883,-3.618059,EH47 7ED,West Lothian,,55.876883,-3.618059,200,OK
53.544156,-2.399399,BL4 9HZ,Bolton,North West,53.544156,-2.399399,200,OK
50.800454,0.311656,BN23 7EY,Eastbourne,South East,50.800077,0.312106,200,OK
57.02828,-2.192811,AB39 3PL,Aberdeenshire,,57.028306,-2.193223,200,OK
52.153294,-1.858184,B50 4NS,Stratford-on-Avon,West Midlands,52.153258,-1.858243,200,OK
50.933698,-1.447163,SO16 5DY,Southampton,South East,50.933698,-1.447163,200,OK
53.260548,-1.900766,SK17 7NH,High Peak,East Midlands,53.260594,-1.901261,200,OK
51.538271,-0.14127,NW1 0ND,Camden,London,51.538271,-0.14127,200,OK
51.655788,-0.215327,EN5 4DN,Barnet,London,51.655788,-0.215327,200,OK
53.474909,-2.176763,M11 2JD,Manchester,North West,53.474909,-2.176763,200,OK
57.056464,-2.483188,AB31 5ZB,Aberdeenshire,,57.057049,-2.482916,200,OK
50.825294,-4.523967,EX23 8GP,Cornwall,South West,50.825316,-4.523372,200,OK
53.427928,-2.868333,L14 8XH,Liverpool,North West,53.427757,-2.86839,200,OK
51.046997,0.4116,TN5 7BW,Rother,South East,51.047375,0.412005,200,OK
52.186888,0.987232,IP14 1QJ,Mid Suffolk,East of England,52.186654,0.987203,200,OK
51.853529,-2.176371,GL3 3ST,Tewkesbury,South West,51.853529,-2.176371,200,OK
51.126555,-4.154169,EX33 2LS,North Devon,South West,51.126555,-4.154169,200,OK
53.85554,-1.756235,BD17 6TY,Bradford,Yorkshire and The Humber,53.85554,-1.756235,200,OK
51.464552,-3.167403,CF10 5EX,Cardiff,,51.46476,-3.167388,200,OK
51.800653,0.642286,CM8 2BL,Braintree,East of England,51.800867,0.642354,200,OK
51.887513,-1.1873,OX26 1XD,Cherwell,South East,51.887531,-1.187314,200,OK
51.711872,-1.588344,OX18 2SR,West Oxfordshire,South East,51.711872,-1.588344,200,OK
53.410452,-2.875965,L14 6TN,Knowsley,North West,53.410452,-2.875965,200,OK
52.19288,-1.708822,CV37 6ZS,Stratford-on-Avon,West Midlands,52.193006,-1.708996,200,OK
51.770979,0.689273,CM9 8WS,Maldon,East of England,51.770979,0.689273,200,OK
52.447552,-1.511474,CV6 4LY,Coventry,West Midlands,52.447182,-1.511352,200,OK
52.875084,0.497511,PE31 7RW,King's Lynn and West Norfolk,East of England,52.875084,0.497511,200,OK
51.586696,-0.501753,UB9 5PN,Buckinghamshire,South East,51.586509,-0.501918,200,OK
50.985286,0.938951,TN28 8BN,Folkestone and Hythe,South East,50.985286,0.938951,200,OK
50.973837,-3.222438,TA21 8DU,Somerset,South West,50.973837,-3.222438,200,OK
51.657456,-3.283411,CF46 6EP,Caerphilly,,51.657456,-3.283411,200,OK
51.649805,-3.008911,NP44 8TQ,Torfaen,,51.649805,-3.008911,200,OK
51.359921,-0.257244,KT19 0AJ,Epsom and Ewell,South East,51.359921,-0.257244,200,OK
53.578942,-1.015582,DN7 4LU,Doncaster,Yorkshire and The Humber,53.578942,-1.015582,200,OK
51.702264,-4.135217,SA14 8HD,Carmarthenshire,,51.702264,-4.135217,200,OK
52.474879,-2.133267,DY5 3LG,Dudley,West Midlands,52.474879,-2.133267,200,OK
53.506804,-1.441276,S74 9PU,Barnsley,Yorkshire and The Humber,53.506804,-1.441276,200,OK
54.485283,-0.638442,YO21 3NL,North Yorkshire,Yorkshire and The Humber,54.485283,-0.638442,200,OK
51.75264,-0.457138,HP2 4DX,Dacorum,East of England,51.75264,-0.457138,200,OK
55.997006,-3.838121,FK1 4SJ,Falkirk,,55.997006,-3.838121,200,OK
51.783481,1.144236,CO15 1WE,Tendring,East of England,51.783481,1.144236,200,OK
51.750882,-0.341271,AL3 4EB,St Albans,East of England,51.75099,-0.341462,200,OK
53.169555,0.102339,PE23 5GG,East Lindsey,East Midlands,53.169555,0.102339,200,OK
51.541806,-2.57096,BS32 4SY,South Gloucestershire,South West,51.542199,-2.571328,200,OK
51.440934,-0.906093,RG5 3RH,Wokingham,South East,51.440934,-0.906093,200,OK
51.471837,-0.532847,SL3 9PL,Windsor and Maidenhead,South East,51.471837,-0.532847,200,OK
54.486386,-0.633435,YO21 1HS,North Yorkshire,Yorkshire and The Humber,54.486386,-0.633435,200,OK
52.071647,-0.609084,MK43 0HT,Central Bedfordshire,East of England,52.071647,-0.609084,200,OK
52.954004,-0.95192,NG12 3TL,Rushcliffe,East Midlands,52.954114,-0.951899,200,OK
51.01146,-4.192879,EX39 4HE,Torridge,South West,51.01146,-4.192879,200,OK
51.260509,-0.559664,GU1 1TB,Guildford,South East,51.260599,-0.560686,200,OK
51.873545,-2.207983,GL2 0JZ,Gloucester,South West,51.873545,-2.207983,200,OK
52.539357,-2.019124,,,,,,200,OK
53.341456,-2.853207,L24 3XA,Liverpool,North West,53.341456,-2.853207,200,OK
53.491088,-3.038933,L23 8UL,Sefton,North West,53.491088,-3.038933,200,OK
56.410121,-5.476581,PA34 4NG,Argyll and Bute,,56.410121,-5.476581,200,OK
53.342754,-1.449504,S14 1GB,Sheffield,Yorkshire and The Humber,53.342754,-1.449504,200,OK
55.974234,-3.247433,EH4 4EZ,City of Edinburgh,,55.974234,-3.247433,200,OK
54.526612,-1.587067,DL3 9RE,Darlington,North East,54.526612,-1.587067,200,OK
53.409752,-3.030105,CH44 4HG,Wirral,North West,53.409752,-3.030105,200,OK
51.427022,0.463872,ME3 7LU,Gravesham,South East,51.427022,0.463872,200,OK
51.561127,-1.780108,SN1 2SD,Swindon,South West,51.560803,-1.780152,200,OK
53.814122,-1.670199,LS28 5LQ,Leeds,Yorkshire and The Humber,53.814069,-1.670533,200,OK
53.342101,-2.831967,L24 2UA,Liverpool,North West,53.342101,-2.831967,200,OK
51.362391,-0.202321,SM1 2GT,Sutton,London,51.362336,-0.202298,200,OK
56.970475,-5.762878,PH40 4PE,Highland,,56.970475,-5.762878,200,OK
55.852425,-4.276455,G5 8RS,Glasgow City,,55.852474,-4.275437,200,OK
50.41505,-5.075919,TR7 2NF,Cornwall,South West,50.414992,-5.07607,200,OK
55.352159,-4.684294,KA19 7AW,South Ayrshire,,55.352159,-4.684294,200,OK
53.885068,-3.013445,FY5 4LF,Wyre,North West,53.885068,-3.013445,200,OK
51.628402,-2.396575,GL12 8SJ,South Gloucestershire,South West,51.628402,-2.396575,200,OK
50.914651,-1.419309,SO15 5BD,Southampton,South East,50.914651,-1.419309,200,OK
55.930785,-3.473922,EH52 5QZ,West Lothian,,55.930785,-3.473922,200,OK
54.127251,-1.525421,HG4 1TQ,North Yorkshire,Yorkshire and The Humber,54.127251,-1.525421,200,OK
51.110918,0.450804,TN17 1EX,Tunbridge Wells,South East,51.110874,0.45073,200,OK
51.628201,-0.068255,N9 9PG,Enfield,London,51.628201,-0.068255,200,OK
51.492002,-0.262065,W4 4GF,Hounslow,London,51.492002,-0.262065,200,OK
52.039126,-1.328465,OX16 6SB,Cherwell,South East,52.039126,-1.328465,200,OK
51.153837,-1.341162,SO21 3JT,Winchester,South East,51.153837,-1.341162,200,OK
55.674668,-4.643536,KA13 7RH,North Ayrshire,,55.674668,-4.643536,200,OK
53.483769,-2.852896,L33 7TQ,Knowsley,North West,53.483432,-2.852075,200,OK
51.322903,-2.121357,BA14 6LR,Wiltshire,South West,51.322903,-2.121357,200,OK
56.064449,-3.493314,KY12 8NJ,Fife,,56.064284,-3.494336,200,OK
52.96204,-1.074253,NG4 2HN,Gedling,East Midlands,52.96204,-1.074253,200,OK
55.680269,-3.761716,ML11 7FB,South Lanarkshire,,55.680507,-3.761377,200,OK
53.645985,-2.633188,PR7 3FA,Chorley,North West,53.645985,-2.633188,200,OK
53.581364,-2.416835,BL2 2AL,Bolton,North West,53.581441,-2.418029,200,OK
52.724827,-4.057886,LL42 1PW,Gwynedd,,52.724827,-4.057886,200,OK
52.494686,-2.173405,DY6 9QH,Dudley,West Midlands,52.494539,-2.17334,200,OK
53.459379,-2.217527,M13 0BN,Manchester,North West,53.459379,-2.217527,200,OK
50.524375,-4.989599,PL28 8NX,Cornwall,South West,50.524375,-4.989599,200,OK
51.12519,-0.06848,RH10 4XP,Mid Sussex,South East,51.125118,-0.06844,200,OK
53.820823,-1.581477,LS6 3JJ,Leeds,Yorkshire and The Humber,53.820823,-1.581477,200,OK
52.059035,-1.363055,OX16 0LY,Cherwell,South East,52.059035,-1.363055,200,OK
50.285883,-3.777186,TQ7 1AH,South Hams,South West,50.285883,-3.777186,200,OK
51.387947,0.335125,DA3 7AU,Dartford,South East,51.387947,0.335125,200,OK
53.019173,-1.353916,DE75 7PR,Amber Valley,East Midlands,53.019173,-1.353916,200,OK
53.558293,-1.80509,HD9 2SX,Kirklees,Yorkshire and The Humber,53.558284,-1.805059,200,OK
51.520043,-0.157331,W1U 6BF,Westminster,London,51.520043,-0.157331,200,OK
51.282942,-1.05011,RG24 8AP,Basingstoke and Deane,South East,51.282788,-1.050042,200,OK
51.438707,-2.601529,BS3 9BW,"Bristol, City of",South West,51.438707,-2.601529,200,OK
54.595281,-5.705351,BT23 4BZ,Ards and North Down,,54.595281,-5.705351,200,OK
55.854621,-4.105716,G69 6AR,Glasgow City,,55.854621,-4.105716,200,OK
55.093993,-1.60668,,,,,,200,OK
51.925384,0.696358,CO6 2PD,Braintree,East of England,51.925384,0.696358,200,OK
54.724385,-1.861921,DL13 3JG,County Durham,North East,54.724385,-1.861921,200,OK
54.845364,-1.773899,DH8 7SZ,County Durham,North East,54.845346,-1.77404,200,OK
53.094937,-2.425257,CW1 6HL,Cheshire East,North West,53.095511,-2.425636,200,OK
55.801744,-4.29143,G46 6LS,East Renfrewshire,,55.801982,-4.290742,200,OK
51.635343,-0.146434,EN4 8LL,Barnet,London,51.635409,-0.146448,200,OK
51.581252,-0.30889,HA3 0DZ,Brent,London,51.581252,-0.30889,200,OK
51.291354,0.293515,TN15 9JA,Tonbridge and Malling,South East,51.291354,0.293515,200,OK
51.286329,1.024865,CT2 9AU,Canterbury,South East,51.286447,1.025003,200,OK
54.671702,-5.963109,BT36 7UP,Antrim and Newtownabbey,,54.671702,-5.963109,200,OK
51.537681,0.743534,SS1 3DY,Southend-on-Sea,East of England,51.537681,0.743534,200,OK
51.461477,0.224135,DA1 5RN,Dartford,South East,51.461477,0.224135,200,OK
51.606616,-3.095433,NP11 6BJ,Caerphilly,,51.606616,-3.095433,200,OK
51.515733,-0.151466,W1U 1DL,Westminster,London,51.515771,-0.151483,200,OK
50.844326,-0.142859,BN1 6EW,Brighton and Hove,South East,50.844326,-0.142859,200,OK
52.104341,1.099104,IP6 0JE,Mid Suffolk,East of England,52.104269,1.099114,200,OK
52.399633,-1.438016,CV3 2UP,Coventry,West Midlands,52.399633,-1.438016,200,OK
51.038998,-4.236104,EX39 1JA,Torridge,South West,51.038998,-4.236104,200,OK
51.817247,-0.83352,HP19 8GT,Buckinghamshire,South East,51.817223,-0.833767,200,OK
52.373238,-1.248733,CV21 3NG,Rugby,West Midlands,52.373163,-1.248398,200,OK
55.794231,-4.008877,ML1 3LW,North Lanarkshire,,55.794231,-4.008877,200,OK
52.328636,0.725389,IP31 1PL,West Suffolk,East of England,52.328636,0.725389,200,OK
51.475243,-0.657277,SL4 4XX,Windsor and Maidenhead,South East,51.475243,-0.657277,200,OK
52.859672,-2.717221,SY4 5DF,Shropshire,West Midlands,52.859672,-2.717221,200,OK
51.537138,-2.617457,BS35 5RN,South Gloucestershire,South West,51.537174,-2.617386,200,OK
52.711298,-2.763738,SY3 8NS,Shropshire,West Midlands,52.711424,-2.763681,200,OK
52.906048,-1.449816,DE24 8US,Derby,East Midlands,52.906048,-1.449816,200,OK
51.782228,-2.700122,NP25 4AR,Monmouthshire,,51.782228,-2.700122,200,OK
55.763608,-2.007719,TD15 2GZ,Northumberland,North East,55.7635,-2.007496,200,OK
50.84265,-2.947856,TA20 2QF,Somerset,South West,50.842668,-2.947786,200,OK
53.825602,-3.052952,FY1 2HT,Blackpool,North West,53.825602,-3.052952,200,OK
52.636666,1.259454,NR5 8PN,Norwich,East of England,52.636622,1.259436,200,OK
52.509979,-0.83183,LE16 8HQ,North Northamptonshire,East Midlands,52.509979,-0.83183,200,OK
50.785138,-0.983087,PO11 9HT,Havant,South East,50.785138,-0.983087,200,OK
52.039913,0.966582,IP7 5JH,Babergh,East of England,52.039913,0.966582,200,OK
51.192875,-1.741637,,,,,,200,OK
51.010365,-2.681932,BA22 8JS,Somerset,South West,51.010365,-2.681932,200,OK
51.491492,-3.170972,CF24 3JR,Cardiff,,51.491535,-3.171255,200,OK
51.631669,-3.356068,CF37 3ES,Rhondda Cynon Taf,,51.631669,-3.356068,200,OK
53.779752,-0.398226,HU16 4NP,East Riding of Yorkshire,Yorkshire and The Humber,53.779752,-0.398226,200,OK
51.637416,-0.056678,N9 7DA,Enfield,London,51.637416,-0.056678,200,OK
51.850606,-1.909507,GL54 4DP,Cotswold,South West,51.850606,-1.909507,200,OK
50.717948,-3.556981,EX4 1RL,Exeter,South West,50.717948,-3.556981,200,OK
56.212804,-2.960551,KY8 6AJ,Fife,,56.212804,-2.960551,200,OK
51.510309,-0.136626,W1B 5AD,Westminster,London,51.510165,-0.136575,200,OK
53.530357,-1.301691,S63 9PD,Barnsley,Yorkshire and The Humber,53.530357,-1.301691,200,OK
53.047161,-1.413926,DE5 3GY,Amber Valley,East Midlands,53.047161,-1.413926,200,OK
51.215515,-1.560959,SP11 8DS,Test Valley,South East,51.215497,-1.561059,200,OK
51.752853,-1.256749,OX1 3DU,Oxford,South East,51.752788,-1.256949,200,OK
51.486371,0.066268,SE18 6AJ,Greenwich,London,51.486221,0.066144,200,OK
51.87948,0.16763,CM23 2BP,East Hertfordshire,East of England,51.87948,0.16763,200,OK
55.931081,-3.269431,EH11 3NJ,City of Edinburgh,,55.931081,-3.269431,200,OK
53.027111,-2.152799,ST1 6AP,Stoke-on-Trent,West Midlands,53.027111,-2.152799,200,OK
52.852305,-1.607463,DE65 6HQ,South Derbyshire,East Midlands,52.852305,-1.607463,200,OK
54.705543,-1.75055,DL15 8RA,County Durham,North East,54.706414,-1.750281,200,OK
50.912227,-1.353268,SO19 7LY,Southampton,South East,50.912227,-1.353268,200,OK
54.653611,-5.686319,BT20 3LW,Ards and North Down,,54.653611,-5.686319,200,OK
52.500915,-1.797139,B34 6LN,Birmingham,West Midlands,52.500915,-1.797139,200,OK
53.306777,-1.365462,S21 4DL,North East Derbyshire,East Midlands,53.306777,-1.365462,200,OK
51.870385,0.90685,CO2 8QE,Colchester,East of England,51.870385,0.90685,200,OK
50.873565,0.589192,TN34 2BQ,Hastings,South East,50.873565,0.589192,200,OK
51.388961,-0.08736,SE25 5PZ,Croydon,London,51.388961,-0.08736,200,OK
51.382989,0.543026,ME7 5JB,Medway,South East,51.382989,0.543026,200,OK
51.126316,1.311756,CT16 1DB,Dover,South East,51.126316,1.311756,200,OK
51.490604,-0.135903,SW1V 2QB,Westminster,London,51.490604,-0.135903,200,OK
51.542896,0.251727,RM14 2DW,Havering,London,51.542896,0.251727,200,OK
51.354248,1.423814,CT10 2HH,Thanet,South East,51.354248,1.423814,200,OK
51.740371,-3.50236,CF44 9PH,Rhondda Cynon Taf,,51.740371,-3.50236,200,OK
51.236139,-0.583974,GU2 7NS,Guildford,South East,51.236127,-0.583997,200,OK
51.518046,-3.109025,CF3 1RS,Cardiff,,51.518046,-3.109025,200,OK
54.732328,-1.521233,DH6 5BU,County Durham,North East,54.732328,-1.521233,200,OK
53.371657,-2.260081,M22 0WQ,Manchester,North West,53.371657,-2.260081,200,OK
53.333752,-2.247732,SK9 5GG,Cheshire East,North West,53.333247,-2.247413,200,OK
54.752842,-7.482477,BT82 9JJ,Derry City and Strabane,,54.752842,-7.482477,200,OK
52.714705,1.689632,NR29 4AL,Great Yarmouth,East of England,52.714705,1.689632,200,OK
52.623537,-0.270283,PE4 5AE,Peterborough,East of England,52.623537,-0.270283,200,OK
53.446921,-2.331713,M41 9PE,Trafford,North West,53.446993,-2.331728,200,OK
56.37195,-3.980126,PH6 2EP,Perth and Kinross,,56.37195,-3.980126,200,OK
51.533482,-3.215431,CF14 6SL,Cardiff,,51.533482,-3.215431,200,OK
53.386227,-2.271972,M22 9QH,Manchester,North West,53.38628,-2.272198,200,OK
57.661554,-2.746195,AB45 2SE,Aberdeenshire,,57.661554,-2.746195,200,OK
53.722458,-1.380213,WF10 1QJ,Wakefield,Yorkshire and The Humber,53.722458,-1.380213,200,OK
51.60721,-0.439241,HA6 2UF,Hillingdon,London,51.60721,-0.439241,200,OK
50.999639,-3.092897,TA1 3FT,Somerset,South West,50.999639,-3.092897,200,OK
53.380082,-1.945272,SK22 2HJ,High Peak,East Midlands,53.380082,-1.945272,200,OK
52.042792,-2.004771,WR11 7SW,Wychavon,West Midlands,52.042792,-2.004771,200,OK
51.458117,-2.094455,SN15 3RB,Wiltshire,South West,51.458117,-2.094455,200,OK
50.844093,0.494154,TN40 1TP,Rother,South East,50.844093,0.494154,200,OK
52.505098,-2.153174,DY6 7XW,Dudley,West Midlands,52.505097,-2.153204,200,OK
54.725413,-5.787792,BT38 7LH,Mid and East Antrim,,54.725413,-5.787792,200,OK
51.393427,-0.197223,SM4 5SP,Merton,London,51.393427,-0.197223,200,OK
53.478532,-2.592434,WA3 3TH,Wigan,North West,53.478532,-2.592434,200,OK
54.292411,-0.421533,YO12 6LX,North Yorkshire,Yorkshire and The Humber,54.292411,-0.421533,200,OK
53.374063,-2.166605,SK7 3NX,Stockport,North West,53.374063,-2.166605,200,OK
52.285385,1.029169,IP14 4JA,Mid Suffolk,East of England,52.285385,1.029169,200,OK
52.811045,-2.111671,ST16 3WG,Stafford,West Midlands,52.811045,-2.111671,200,OK
53.210345,-0.127805,LN9 5GE,East Lindsey,East Midlands,53.210345,-0.127805,200,OK
53.296719,-3.084293,CH64 6TX,Cheshire West and Chester,North West,53.296719,-3.084293,200,OK
52.478163,-0.90139,LE16 7XL,Harborough,East Midlands,52.478163,-0.90139,200,OK
55.054373,-1.452928,NE26 1TE,North Tyneside,North East,55.054373,-1.452928,200,OK
53.794879,-3.033403,FY4 3HA,Blackpool,North West,53.794879,-3.033403,200,OK
50.870619,0.010918,BN7 2YY,Lewes,South East,50.870619,0.010918,200,OK
52.838471,-1.183666,LE12 6RS,Rushcliffe,East Midlands,52.838471,-1.183666,200,OK
53.493887,-1.272475,S64 0LU,Doncaster,Yorkshire and The Humber,53.493887,-1.272475,200,OK
51.798784,-3.973538,,,,,,200,OK
51.139263,-3.535879,TA24 7ER,Somerset,South West,51.139263,-3.535879,200,OK
57.514399,-2.458432,AB53 8BR,Aberdeenshire,,57.514399,-2.458432,200,OK
51.600941,-0.669067,HP9 1DW,Buckinghamshire,South East,51.600941,-0.669067,200,OK
51.475834,0.1383,DA7 5LS,Bexley,London,51.475834,0.1383,200,OK
51.46078,-1.017981,RG30 4XY,Reading,South East,51.46078,-1.017981,200,OK
51.58776,-0.133156,N8 7HP,Haringey,London,51.58776,-0.133156,200,OK
52.567703,-2.066391,WV14 7NT,Wolverhampton,West Midlands,52.567703,-2.066391,200,OK
52.246986,0.68321,IP33 3JL,West Suffolk,East of England,52.246986,0.68321,200,OK
53.046596,-0.383494,NG34 9HY,North Kesteven,East Midlands,53.046596,-0.383494,200,OK
54.977781,-2.104601,NE46 3HQ,Northumberland,North East,54.977781,-2.104601,200,OK
53.32406,-1.488539,S8 7GA,Sheffield,Yorkshire and The Humber,53.32406,-1.488539,200,OK
52.34465,1.501648,IP19 8AQ,East Suffolk,East of England,52.344678,1.501752,200,OK
51.520717,-0.10929,EC1N 7TP,Camden,London,51.520668,-0.109482,200,OK
53.113757,-2.652155,CW6 9QY,Cheshire East,North West,53.113757,-2.652155,200,OK
53.386219,-2.922303,L18 1JH,Liverpool,North West,53.386219,-2.922303,200,OK
50.830887,-1.079632,PO2 9NU,Portsmouth,South East,50.830887,-1.079632,200,OK
53.212034,-2.876494,CH2 1SZ,Cheshire West and Chester,North West,53.212034,-2.876494,200,OK
51.566314,-0.45621,UB10 8HG,Hillingdon,London,51.566291,-0.45585,200,OK
51.234588,-0.803608,GU9 0JB,Waverley,South East,51.234588,-0.803608,200,OK
51.64993,-0.168895,EN4 9PP,Barnet,London,51.64993,-0.168895,200,OK
50.997081,-1.475538,SO51 7TB,Test Valley,South East,50.997081,-1.475538,200,OK
51.498987,-0.193354,W8 6TH,Kensington and Chelsea,London,51.498951,-0.193341,200,OK
54.67219,-5.922017,BT36 6BY,Antrim and Newtownabbey,,54.67219,-5.922017,200,OK
50.896907,-1.340939,SO19 0ER,Southampton,South East,50.896907,-1.340939,200,OK
53.216009,-2.660087,CW8 2HX,Cheshire West and Chester,North West,53.216009,-2.660087,200,OK
52.486938,-1.268858,LE17 5AE,Harborough,East Midlands,52.486938,-1.268858,200,OK
52.802886,-1.401802,DE73 8BY,North West Leicestershire,East Midlands,52.802886,-1.401802,200,OK
54.467233,-6.548171,BT62 1RL,"Armagh City, Banbridge and Craigavon",,54.467233,-6.548171,200,OK
52.176759,-2.3381,WR6 5JU,Malvern Hills,West Midlands,52.176759,-2.3381,200,OK
52.274543,-0.70751,NN29 7TQ,North Northamptonshire,East Midlands,52.274543,-0.70751,200,OK
51.822619,-0.826678,HP20 9ZZ,Buckinghamshire,South East,51.822617,-0.826547,200,OK
54.986158,-1.663179,NE4 9RX,Newcastle upon Tyne,North East,54.986158,-1.663179,200,OK
50.799106,0.331046,BN23 5PD,Eastbourne,South East,50.799106,0.331046,200,OK
51.448588,-0.361431,TW2 6HP,Richmond upon Thames,London,51.448588,-0.361431,200,OK
51.335238,-0.76114,GU15 3BX,Surrey Heath,South East,51.335593,-0.760697,200,OK
51.735958,-0.612057,HP5 3NT,Buckinghamshire,South East,51.735958,-0.612057,200,OK
51.500782,-0.277456,W3 8SU,Ealing,London,51.500782,-0.277456,200,OK
52.217958,-0.083479,CB23 6FB,South Cambridgeshire,East of England,52.21795,-0.083538,200,OK
51.693064,-0.399018,WD25 7DA,Watford,East of England,51.693064,-0.399033,200,OK
55.857336,-4.22417,G31 1AA,Glasgow City,,55.857693,-4.224303,200,OK
51.884727,0.90952,CO1 2BN,Colchester,East of England,51.884727,0.90952,200,OK
53.167963,-2.247029,CW12 4QN,Cheshire East,North West,53.167963,-2.247029,200,OK
54.76509,-1.578853,DH1 3LW,County Durham,North East,54.76509,-1.578853,200,OK
53.3805,-4.309853,LL69 9AQ,Isle of Anglesey,,53.3805,-4.309853,200,OK
51.283661,-0.819726,GU51 3EZ,Hart,South East,51.283661,-0.819726,200,OK
54.179614,-3.121914,LA12 0RS,Westmorland and Furness,North West,54.179614,-3.121914,200,OK
53.14912,-2.372533,CW11 1BS,Cheshire East,North West,53.149102,-2.372518,200,OK
50.725353,-1.784591,BH6 4JB,"Bournemouth, Christchurch and Poole",South West,50.725353,-1.784591,200,OK
53.769788,-1.130924,YO8 9NU,North Yorkshire,Yorkshire and The Humber,53.769788,-1.130924,200,OK
51.434167,-0.506331,TW18 4LB,Spelthorne,South East,51.434167,-0.506331,200,OK
52.488241,-1.986835,B67 6PS,Sandwell,West Midlands,52.488241,-1.986835,200,OK
50.982885,-1.377189,SO53 2HT,Eastleigh,South East,50.982877,-1.377179,200,OK
51.672341,-4.705127,SA70 7JU,Pembrokeshire,,51.672341,-4.705127,200,OK
55.675442,-3.784251,ML11 7QD,South Lanarkshire,,55.675442,-3.784251,200,OK
53.461845,-2.901679,L11 0BB,Liverpool,North West,53.461845,-2.901679,200,OK
52.096875,-1.761389,GL55 6UF,Cotswold,South West,52.096875,-1.761389,200,OK
52.564967,-0.247417,PE2 9AS,Peterborough,East of England,52.564967,-0.247417,200,OK
52.103267,0.232845,CB21 6AT,South Cambridgeshire,East of England,52.103304,0.232833,200,OK
53.188384,-4.208962,LL56 4QX,Gwynedd,,53.188384,-4.208962,200,OK
50.791794,-0.681195,PO21 2NU,Arun,South East,50.791794,-0.681195,200,OK
50.23317,-5.228203,TR15 2BL,Cornwall,South West,50.23317,-5.228203,200,OK
53.564132,-2.376034,BL3 1DU,Bolton,North West,53.564087,-2.376595,200,OK
55.886441,-4.223405,G21 4JG,Glasgow City,,55.886441,-4.223405,200,OK
52.381775,-1.818333,B90 4LQ,Solihull,West Midlands,52.381775,-1.818333,200,OK
50.586823,-3.460602,EX7 0AF,Teignbridge,South West,50.586823,-3.460602,200,OK
53.527363,-2.408746,M38 9WJ,Salford,North West,53.527246,-2.408306,200,OK
50.62238,-3.409777,EX8 1EX,East Devon,South West,50.62238,-3.409777,200,OK
51.588205,-0.126991,N8 7RR,Haringey,London,51.588205,-0.126991,200,OK
52.948736,-1.50019,DE22 2LD,Derby,East Midlands,52.948736,-1.50019,200,OK
54.596951,-1.56426,DL5 6JZ,County Durham,North East,54.596951,-1.56426,200,OK
51.455695,0.182946,DA1 4RS,Bexley,London,51.455234,0.183053,200,OK
53.760116,-1.636003,LS27 7TY,Leeds,Yorkshire and The Humber,53.760116,-1.636003,200,OK
52.225295,-0.294411,PE19 8JW,Huntingdonshire,East of England,52.22526,-0.294441,200,OK
52.136306,-1.561492,CV35 0QP,Stratford-on-Avon,West Midlands,52.136306,-1.561492,200,OK
53.895404,-1.951041,BD20 6QF,Bradford,Yorkshire and The Humber,53.895404,-1.951041,200,OK
53.840376,-1.466831,LS14 2EF,Leeds,Yorkshire and The Humber,53.840376,-1.466831,200,OK
51.479843,-0.194149,SW6 2DH,Hammersmith and Fulham,London,51.480001,-0.193884,200,OK
53.566593,-1.460346,S71 2GA,Barnsley,Yorkshire and The Humber,53.566569,-1.46095,200,OK
53.111956,-2.381862,CW11 4TU,Cheshire East,North West,53.111956,-2.381862,200,OK
51.014951,-0.079707,RH16 2HR,Mid Sussex,South East,51.014951,-0.079707,200,OK
51.533261,-0.052653,E2 9HR,Tower Hamlets,London,51.533261,-0.052653,200,OK
53.197573,-1.069921,NG21 9LP,Newark and Sherwood,East Midlands,53.197573,-1.069921,200,OK
54.32841,-7.29205,BT75 0AJ,Fermanagh and Omagh,,54.32841,-7.29205,200,OK
50.525331,-3.590544,TQ12 4DX,Teignbridge,South West,50.525331,-3.590544,200,OK
50.746694,-1.595486,SO41 0LN,New Forest,South East,50.746694,-1.595486,200,OK
56.249496,-3.163816,KY15 7HB,Fife,,56.249496,-3.163816,200,OK
53.586812,-2.089329,OL2 8EF,Oldham,North West,53.586812,-2.089329,200,OK
51.492916,-0.099521,SE1 6EE,Southwark,London,51.492916,-0.099521,200,OK
53.543397,-2.102577,OL1 3UY,Oldham,North West,53.543416,-2.101581,200,OK
53.71879,-0.439485,HU13 0BJ,East Riding of Yorkshire,Yorkshire and The Humber,53.71879,-0.439485,200,OK
53.668081,-1.684926,WF14 8HA,Kirklees,Yorkshire and The Humber,53.668081,-1.684926,200,OK
52.550265,-1.163058,LE8 5PF,Blaby,East Midlands,52.550265,-1.163058,200,OK
51.456571,-0.076589,SE22 8RZ,Southwark,London,51.456571,-0.076589,200,OK
51.518636,-0.137166,W1T 3HS,Westminster,London,51.518636,-0.137166,200,OK
53.408264,-2.855055,L36 4HT,Knowsley,North West,53.408264,-2.855055,200,OK
53.774558,-1.719074,BD4 9AD,Bradford,Yorkshire and The Humber,53.774558,-1.719074,200,OK
54.545345,-3.562826,CA28 6XX,Cumberland,North West,54.545325,-3.562919,200,OK
53.515608,-2.199569,M9 4FX,Manchester,North West,53.515742,-2.199992,200,OK
53.461302,-3.007057,L20 4PW,Sefton,North West,53.461302,-3.007057,200,OK
56.025136,-3.790948,FK2 8NZ,Falkirk,,56.025136,-3.790948,200,OK
53.424474,-2.835832,L36 8BX,Knowsley,North West,53.424474,-2.835832,200,OK
55.168256,-2.325045,NE48 1PA,Northumberland,North East,55.168256,-2.325045,200,OK
52.484888,0.52722,IP26 4AS,King's Lynn and West Norfolk,East of England,52.484888,0.52722,200,OK
55.934239,-3.19582,EH9 1PS,City of Edinburgh,,55.934239,-3.19582,200,OK
51.47234,0.060753,SE18 4LE,Greenwich,London,51.47234,0.060753,200,OK
53.334531,-3.396059,LL19 9NQ,Denbighshire,,53.334496,-3.395953,200,OK
51.585973,-0.146715,N10 3JH,Haringey,London,51.585973,-0.146715,200,OK
54.564388,-1.227692,TS4 2UB,Middlesbrough,North East,54.564388,-1.227692,200,OK
53.469246,-2.315889,M17 1NR,Trafford,North West,53.469246,-2.315889,200,OK
51.259627,-0.757383,GU11 2DN,Rushmoor,South East,51.259627,-0.757383,200,OK
51.691346,0.583372,CM3 4XA,Chelmsford,East of England,51.691346,0.583372,200,OK
52.029128,0.790383,,,,,,200,OK
53.384454,-2.619406,WA5 1BT,Warrington,North West,53.384454,-2.619406,200,OK
52.272673,-1.943943,B97 5XS,Redditch,West Midlands,52.272673,-1.943943,200,OK
51.456916,-3.181961,CF11 7GX,Cardiff,,51.456916,-3.181961,200,OK
50.912127,-1.025345,PO8 9SE,East Hampshire,South East,50.912127,-1.025345,200,OK
52.927068,-1.501529,DE22 3BR,Derby,East Midlands,52.927131,-1.501454,200,OK
52.347862,0.519699,IP28 7PB,West Suffolk,East of England,52.347862,0.519699,200,OK
51.431183,-0.963075,RG2 7SL,Reading,South East,51.431183,-0.963075,200,OK
51.754519,0.068952,CM19 5NB,Harlow,East of England,51.754519,0.068952,200,OK
51.481507,-0.066121,SE15 6TU,Southwark,London,51.481507,-0.066121,200,OK
53.443169,-2.997655,L20 8LX,Sefton,North West,53.443169,-2.997655,200,OK
54.786171,-1.374216,SR8 3TZ,County Durham,North East,54.786171,-1.374216,200,OK
55.125226,-1.520409,NE24 5BT,Northumberland,North East,55.125226,-1.520409,200,OK
51.463442,-0.022533,SE13 7UD,Lewisham,London,51.463717,-0.022276,200,OK
52.74562,0.949163,NR20 5HQ,Breckland,East of England,52.745691,0.949212,200,OK
53.34589,-1.439476,S14 1SA,Sheffield,Yorkshire and The Humber,53.34589,-1.439476,200,OK
52.351158,0.509743,IP28 9ZZ,West Suffolk,East of England,52.351158,0.509743,200,OK
51.654751,-0.383353,WD23 2EB,Hertsmere,East of England,51.654751,-0.383353,200,OK
51.552691,0.094242,IG3 9AH,Redbridge,London,51.552691,0.094242,200,OK
54.68909,-1.551329,DL17 8DS,County Durham,North East,54.68909,-1.551329,200,OK
50.920582,-0.779638,PO18 0RQ,Chichester,South East,50.920582,-0.779638,200,OK
50.607781,-1.984077,BH19 2JX,Dorset,South West,50.607781,-1.984077,200,OK
51.568996,-0.429309,HA4 7EU,Hillingdon,London,51.568996,-0.429309,200,OK
54.06208,-1.411737,HG5 0QW,North Yorkshire,Yorkshire and The Humber,54.06208,-1.411737,200,OK
51.508874,-0.154453,W1K 7HB,Westminster,London,51.508744,-0.154214,200,OK
53.534302,-2.582198,WN2 3JE,Wigan,North West,53.534302,-2.582198,200,OK
53.50539,-1.358206,S63 6QN,Rotherham,Yorkshire and The Humber,53.50539,-1.358206,200,OK
55.980062,-3.711817,FK2 0TF,Falkirk,,55.980062,-3.711817,200,OK
53.749141,-1.101536,YO8 8LH,North Yorkshire,Yorkshire and The Humber,53.749141,-1.101536,200,OK
51.559868,-0.295805,HA9 7QT,Brent,London,51.559868,-0.295805,200,OK
52.0595,-0.866586,MK19 6BQ,West Northamptonshire,East Midlands,52.0595,-0.866586,200,OK
58.448609,-3.060498,KW1 4RD,Highland,,58.448609,-3.060498,200,OK
53.731969,-1.542751,WF3 2AS,Leeds,Yorkshire and The Humber,53.731969,-1.542751,200,OK
50.314413,-4.037421,PL8 1AJ,South Hams,South West,50.314413,-4.037421,200,OK
51.60757,-0.372365,HA5 4QA,Harrow,London,51.607582,-0.372313,200,OK
52.582978,1.73433,NR30 3GY,Great Yarmouth,East of England,52.582978,1.73433,200,OK
53.589438,-2.369463,BL2 5PF,Bury,North West,53.589438,-2.369463,200,OK
54.037488,-2.797589,LA1 4UJ,Lancaster,North West,54.037488,-2.797589,200,OK
51.589456,-2.987616,NP19 0AY,Newport,,51.589456,-2.987616,200,OK
57.16739,-2.120195,AB24 4AF,Aberdeen City,,57.16739,-2.120195,200,OK
50.947774,-2.817032,TA13 5EW,Somerset,South West,50.94825,-2.81714,200,OK
53.506881,-0.52753,DN20 9RR,North Lincolnshire,Yorkshire and The Humber,53.506881,-0.52753,200,OK
52.573625,-1.099724,LE18 3SY,Oadby and Wigston,East Midlands,52.573625,-1.099724,200,OK
51.521956,-0.111963,EC1R 5DQ,Camden,London,51.521956,-0.111963,200,OK
51.509206,-3.11956,CF3 3HP,Cardiff,,51.509206,-3.11956,200,OK
51.549153,-0.140924,NW5 2AB,Camden,London,51.549108,-0.140742,200,OK
52.377797,-1.257619,CV21 2TE,Rugby,West Midlands,52.377797,-1.257619,200,OK
51.538007,-2.57557,BS32 4UF,South Gloucestershire,South West,51.538006,-2.575572,200,OK
51.494189,-2.606434,BS10 5HW,"Bristol, City of",South West,51.494189,-2.606434,200,OK
50.969453,-0.883478,GU31 5QB,Chichester,South East,50.969453,-0.883478,200,OK
54.591788,-5.66835,BT23 8UJ,Ards and North Down,,54.591788,-5.66835,200,OK
51.508823,-0.195602,W11 3LQ,Kensington and Chelsea,London,51.508823,-0.195602,200,OK
53.544067,-2.294489,M45 7EZ,Bury,North West,53.544067,-2.294489,200,OK
51.747056,-3.751828,SA10 8PP,Neath Port Talbot,,51.747056,-3.751828,200,OK
55.454406,-4.267018,KA18 1DP,East Ayrshire,,55.454237,-4.266995,200,OK
53.309652,-0.929754,DN22 7HQ,Bassetlaw,East Midlands,53.309652,-0.929754,200,OK
51.586004,-0.220386,NW4 2EA,Barnet,London,51.586004,-0.220386,200,OK
53.604038,-1.851153,HD9 5RW,Kirklees,Yorkshire and The Humber,53.604038,-1.851153,200,OK
51.988426,-1.367319,OX15 0RE,Cherwell,South East,51.988426,-1.367319,200,OK
53.170993,-3.104144,CH7 6TW,Flintshire,,53.170993,-3.104144,200,OK
55.824685,-4.420637,PA2 6QE,Renfrewshire,,55.824685,-4.420637,200,OK
52.6334,1.219813,NR5 9HQ,Norwich,East of England,52.6334,1.219813,200,OK
54.574639,-1.241979,TS1 5BA,Middlesbrough,North East,54.574893,-1.241834,200,OK
51.383034,-0.224448,SM4 4LG,Merton,London,51.383041,-0.224395,200,OK
52.642087,-0.744293,LE15 8RE,Rutland,East Midlands,52.642188,-0.745329,200,OK
51.510303,-2.562871,BS34 7HU,South Gloucestershire,South West,51.510356,-2.562787,200,OK
52.980254,-0.014191,PE21 9AG,Boston,East Midlands,52.980254,-0.014191,200,OK
50.791004,-1.080799,PO5 1RA,Portsmouth,South East,50.791004,-1.080799,200,OK
50.868575,-1.276238,SO31 7NX,Fareham,South East,50.868575,-1.276238,200,OK
56.379607,-2.930885,KY16 0DE,Fife,,56.379607,-2.930885,200,OK
52.639087,-2.274641,WV7 3PS,Shropshire,West Midlands,52.639087,-2.274641,200,OK
54.968295,-2.053445,NE45 5RE,Northumberland,North East,54.968295,-2.053445,200,OK
55.11603,-1.510768,NE24 3TW,Northumberland,North East,55.11603,-1.510768,200,OK
51.536477,0.147428,RM9 6PB,Barking and Dagenham,London,51.536477,0.147428,200,OK
52.743785,-1.351655,LE67 5BW,North West Leicestershire,East Midlands,52.743785,-1.351655,200,OK
52.369993,-2.261995,DY11 7DG,Wyre Forest,West Midlands,52.369993,-2.261995,200,OK
55.011019,-1.570949,NE12 8AJ,North Tyneside,North East,55.011019,-1.570949,200,OK
53.430743,-2.823719,L34 4AD,Knowsley,North West,53.430743,-2.823719,200,OK
51.517954,-2.683147,BS11 8AD,"Bristol, City of",South West,51.517752,-2.683951,200,OK
53.363563,-2.856534,L25 0LA,Liverpool,North West,53.363563,-2.856534,200,OK
52.648314,-1.102205,LE4 9US,Leicester,East Midlands,52.648314,-1.102205,200,OK
51.421151,-2.575854,BS14 9UE,"Bristol, City of",South West,51.421151,-2.575854,200,OK
52.412221,-4.083278,SY23 1PJ,Ceredigion,,52.411793,-4.082537,200,OK
51.788041,0.626787,CM8 1FR,Braintree,East of England,51.788041,0.626787,200,OK
52.43597,-1.882104,B13 9RW,Birmingham,West Midlands,52.43597,-1.882104,200,OK
54.635508,-6.028037,BT14 8SU,Antrim and Newtownabbey,,54.635508,-6.028037,200,OK
52.633765,-1.695734,B79 7DF,Tamworth,West Midlands,52.633757,-1.69597,200,OK
54.122847,-3.232902,LA14 5SP,Westmorland and Furness,North West,54.122847,-3.232902,200,OK
52.863469,-0.151157,PE11 4NP,South Holland,East Midlands,52.863469,-0.151157,200,OK
54.497945,-6.341156,BT67 9LF,"Armagh City, Banbridge and Craigavon",,54.498244,-6.341329,200,OK
57.47755,-2.740321,AB54 7XX,Aberdeenshire,,57.47755,-2.740321,200,OK
50.723796,-3.526912,EX1 1TS,Exeter,South West,50.723948,-3.526861,200,OK
55.905596,-4.098351,G69 9NH,North Lanarkshire,,55.905596,-4.098351,200,OK
52.398287,-1.566852,CV4 9AG,Coventry,West Midlands,52.398287,-1.566852,200,OK
51.648341,-0.720422,HP15 7QW,Buckinghamshire,South East,51.648341,-0.720422,200,OK
51.398334,-2.01342,SN11 0PF,Wiltshire,South West,51.398334,-2.01342,200,OK
51.462522,-0.087439,SE5 8AU,Southwark,London,51.462522,-0.087439,200,OK
51.116169,1.23496,CT15 7BE,Dover,South East,51.116169,1.23496,200,OK
51.123488,-3.0016,TA6 3RY,Somerset,South West,51.123815,-3.002251,200,OK
51.249877,-0.205422,RH2 9NA,Reigate and Banstead,South East,51.249877,-0.205422,200,OK
50.798886,-1.896691,BH22 9EJ,Dorset,South West,50.798886,-1.896691,200,OK
53.226579,-3.248242,CH8 8LZ,Flintshire,,53.226599,-3.248108,200,OK
53.379918,-3.127432,CH49 2RU,Wirral,North West,53.380194,-3.12774,200,OK
53.797136,-1.72697,BD3 9PA,Bradford,Yorkshire and The Humber,53.797136,-1.72697,200,OK
51.686,-0.031176,EN8 7FH,Broxbourne,East of England,51.686,-0.031176,200,OK
52.638651,-2.944504,SY5 0DH,Shropshire,West Midlands,52.638439,-2.944733,200,OK
52.73988,-1.528002,DE12 6DN,North West Leicestershire,East Midlands,52.73988,-1.528002,200,OK
53.522674,-2.193539,M9 7ES,Manchester,North West,53.522674,-2.193539,200,OK
52.514035,-2.098634,DY1 2RF,Dudley,West Midlands,52.514035,-2.098634,200,OK
52.242382,-0.859285,NN3 3NG,West Northamptonshire,East Midlands,52.242382,-0.859285,200,OK
54.597205,-5.680931,BT23 7HB,Ards and North Down,,54.597308,-5.681157,200,OK
54.557217,-6.039795,BT17 0XB,Belfast,,54.557217,-6.039795,200,OK
51.111541,-0.857541,GU35 0DE,East Hampshire,South East,51.111541,-0.857541,200,OK
50.427008,-4.119197,PL6 6BR,Plymouth,South West,50.426977,-4.11921,200,OK
51.242347,-0.574558,GU1 4NZ,Guildford,South East,51.242347,-0.574558,200,OK
51.64213,0.601112,CM3 7BB,Chelmsford,East of England,51.64213,0.601112,200,OK
52.035733,1.147101,IP2 8LX,Ipswich,East of England,52.035733,1.147101,200,OK
50.87154,0.599783,TN35 5TD,Hastings,South East,50.87154,0.599783,200,OK
52.009678,-0.764707,MK4 1HF,Milton Keynes,South East,52.009791,-0.765228,200,OK
53.867117,-2.992055,FY5 5NB,Wyre,North West,53.867117,-2.992055,200,OK
52.747862,-2.633163,TF6 6BN,Telford and Wrekin,West Midlands,52.747862,-2.633163,200,OK
53.87105,-2.219557,BB9 6LW,Pendle,North West,53.87105,-2.219557,200,OK
50.724699,-2.935429,DT7 3QE,Dorset,South West,50.724699,-2.935429,200,OK
51.461471,-2.586195,BS2 8SA,"Bristol, City of",South West,51.461471,-2.586195,200,OK
53.74538,-2.708071,PR1 9QT,South Ribble,North West,53.745197,-2.708675,200,OK
51.298802,-0.175443,CR5 3NS,Reigate and Banstead,South East,51.299137,-0.175719,200,OK
55.827929,-4.290256,G41 3RJ,Glasgow City,,55.827929,-4.290256,200,OK
54.479593,-0.612269,YO22 4FN,North Yorkshire,Yorkshire and The Humber,54.479593,-0.612269,200,OK
51.747208,-1.295024,OX2 9DZ,Vale of White Horse,South East,51.747208,-1.295024,200,OK
51.33976,-1.768821,SN9 5EE,Wiltshire,South West,51.33951,-1.769712,200,OK
55.896645,-3.166213,EH17 8WJ,City of Edinburgh,,55.895992,-3.165921,200,OK
53.588218,-2.538918,BL4 4AR,Bolton,North West,53.588218,-2.538918,200,OK
54.602507,-1.075824,TS10 4NY,Redcar and Cleveland,North East,54.602507,-1.075824,200,OK
52.056376,-2.283592,WR13 6LN,Malvern Hills,West Midlands,52.056376,-2.283592,200,OK
51.877492,-2.368941,GL2 8BQ,Forest of Dean,South West,51.877492,-2.368941,200,OK
51.374435,-0.406278,KT12 1FH,Elmbridge,South East,51.374435,-0.406278,200,OK
55.898221,-4.304683,G20 0NU,Glasgow City,,55.898221,-4.304683,200,OK
53.328187,-2.660872,WA7 6RB,Halton,North West,53.328187,-2.660872,200,OK
53.585468,-1.454394,S71 3HP,Barnsley,Yorkshire and The Humber,53.585468,-1.454394,200,OK
51.807857,1.153899,CO15 4ES,Tendring,East of England,51.807857,1.153899,200,OK
50.79947,-4.463303,EX22 7EG,Torridge,South West,50.79947,-4.463303,200,OK
51.851368,-2.238906,GL1 4QJ,Gloucester,South West,51.851368,-2.238906,200,OK
53.868673,-2.387844,BB7 1PJ,Ribble Valley,North West,53.868673,-2.387844,200,OK
54.123265,-1.19618,YO61 3JT,North Yorkshire,Yorkshire and The Humber,54.123467,-1.195426,200,OK
51.532518,-0.027568,E3 2HY,Tower Hamlets,London,51.532518,-0.027568,200,OK
50.558507,-4.152723,PL19 0FJ,West Devon,South West,50.558233,-4.152964,200,OK
53.4978,-2.381494,M28 2PX,Salford,North West,53.4978,-2.381494,200,OK
53.579182,-2.431388,BL1 1QZ,Bolton,North West,53.579182,-2.431388,200,OK
53.406733,-3.045405,CH41 1FD,Wirral,North West,53.406583,-3.046047,200,OK
51.642912,-3.331459,CF45 4PD,Rhondda Cynon Taf,,51.642912,-3.331459,200,OK
53.243265,-0.457842,LN3 4LD,West Lindsey,East Midlands,53.243265,-0.457842,200,OK
53.090898,-1.186663,NG15 9HE,Gedling,East Midlands,53.090898,-1.186663,200,OK
53.4587,-2.600185,WA12 0JB,St. Helens,North West,53.4587,-2.600185,200,OK
53.104542,-2.007024,ST13 5BE,Staffordshire Moorlands,West Midlands,53.104542,-2.007024,200,OK
50.197107,-5.142236,TR3 7EB,Cornwall,South West,50.197129,-5.142433,200,OK
56.02455,-2.768393,EH39 5AH,East Lothian,,56.02455,-2.768393,200,OK
54.033895,-1.215966,YO30 2DB,North Yorkshire,Yorkshire and The Humber,54.033912,-1.215767,200,OK
50.728869,-2.937164,DT7 3AL,Dorset,South West,50.728869,-2.937164,200,OK
53.593946,-2.296253,BL9 0GD,Bury,North West,53.593946,-2.296253,200,OK
50.979376,-0.748154,GU29 9BU,Chichester,South East,50.979376,-0.748154,200,OK
52.643318,-1.103712,LE5 0EF,Leicester,East Midlands,52.643318,-1.103712,200,OK
54.284499,-0.400866,YO11 1DU,North Yorkshire,Yorkshire and The Humber,54.284725,-0.400981,200,OK
52.455125,-2.643393,,,,,,200,OK
57.720569,-4.147146,IV18 0NP,Highland,,57.720569,-4.147146,200,OK
52.050107,-0.274012,SG18 9RE,Central Bedfordshire,East of England,52.050107,-0.274012,200,OK
50.786383,-2.985738,EX13 5EH,East Devon,South West,50.786383,-2.985738,200,OK
51.450596,0.05102,SE9 5AL,Greenwich,London,51.450596,0.05102,200,OK
51.141042,0.25865,TN4 9RT,Tunbridge Wells,South East,51.141282,0.258804,200,OK
51.429094,-2.632843,BS3 2UN,"Bristol, City of",South West,51.429873,-2.633072,200,OK
55.907455,-3.203041,EH10 6UE,City of Edinburgh,,55.907455,-3.203041,200,OK
54.700649,-1.653273,DL16 7NU,County Durham,North East,54.700649,-1.653273,200,OK
51.428275,-2.697847,,,,,,200,OK
53.407526,-3.057459,CH41 1EB,Wirral,North West,53.408386,-3.057827,200,OK
53.824448,-3.046178,,,,,,200,OK
50.994526,-3.983904,,,,,,200,OK
50.133256,-5.520262,TR18 3BD,Cornwall,South West,50.133256,-5.520262,200,OK
51.426478,-0.382978,TW12 3YW,Richmond upon Thames,London,51.426478,-0.382978,200,OK
51.915275,-0.472478,LU3 3FA,Luton,East of England,51.915275,-0.472478,200,OK
51.880737,0.836501,CO3 0RP,Colchester,East of England,51.88076,0.836299,200,OK
52.327842,-2.294468,DY13 0ND,Wyre Forest,West Midlands,52.327842,-2.294468,200,OK
53.82424,-1.772656,BD18 2DQ,Bradford,Yorkshire and The Humber,53.82424,-1.772656,200,OK
53.541934,-2.1103,OL1 1QX,Oldham,North West,53.54195,-2.110177,200,OK
51.41019,0.062846,BR7 5HH,Bromley,London,51.41019,0.062846,200,OK
52.068855,1.131364,IP1 4ET,Ipswich,East of England,52.068855,1.131364,200,OK
52.223364,0.258003,CB25 9DQ,East Cambridgeshire,East of England,52.223494,0.25779,200,OK
52.545271,-4.063072,LL35 0RY,Gwynedd,,52.545271,-4.063072,200,OK
51.765948,-0.868527,,,,,,200,OK
51.493123,-2.683817,BS11 9PH,"Bristol, City of",South West,51.493123,-2.683817,200,OK
51.806161,-1.131163,OX33 1BE,Cherwell,South East,51.806151,-1.130974,200,OK
50.374267,-4.200458,PL11 2ER,Cornwall,South West,50.374267,-4.200458,200,OK
52.035423,-0.774465,MK9 1AW,Milton Keynes,South East,52.035328,-0.77468,200,OK
53.808597,-1.5368,LS7 2BB,Leeds,Yorkshire and The Humber,53.808432,-1.536073,200,OK
52.705761,-2.75177,SY1 1TT,Shropshire,West Midlands,52.705761,-2.75177,200,OK
50.750977,-1.926238,BH12 5AD,"Bournemouth, Christchurch and Poole",South West,50.751057,-1.926924,200,OK
52.94344,-1.27345,NG9 8GX,Broxtowe,East Midlands,52.94344,-1.27345,200,OK
51.583174,-2.978482,NP19 0NZ,Newport,,51.583382,-2.97855,200,OK
51.63126,0.334943,CM13 1AH,Brentwood,East of England,51.63126,0.334943,200,OK
52.269956,-1.604109,CV34 6NY,Warwick,West Midlands,52.269956,-1.604109,200,OK
55.846044,-4.191321,G31 4RB,Glasgow City,,55.846044,-4.191321,200,OK
51.440572,-0.008668,SE6 1BU,Lewisham,London,51.440572,-0.008668,200,OK
53.478798,-2.178678,M11 2HH,Manchester,North West,53.478798,-2.178678,200,OK
57.142382,-2.137117,AB15 4BD,Aberdeen City,,57.142382,-2.137117,200,OK
52.490269,1.238866,NR15 2WA,South Norfolk,East of England,52.490269,1.238866,200,OK
54.577836,-1.147068,TS6 7EZ,Redcar and Cleveland,North East,54.577836,-1.147068,200,OK
50.910532,-3.480684,EX16 6ER,Mid Devon,South West,50.910532,-3.480684,200,OK
51.779302,-3.250888,NP22 3HT,Blaenau Gwent,,51.779074,-3.251215,200,OK
52.576406,1.117138,NR18 0QT,South Norfolk,East of England,52.576437,1.117672,200,OK
51.401648,-0.256176,KT3 3PX,Kingston upon Thames,London,51.401561,-0.2564,200,OK
55.882859,-4.272416,G20 7RS,Glasgow City,,55.882859,-4.272416,200,OK
55.874998,-3.614448,EH47 7QY,West Lothian,,55.874998,-3.614448,200,OK
52.403465,-1.92381,B38 9AB,Birmingham,West Midlands,52.403465,-1.92381,200,OK
55.418351,-5.642656,PA28 6PG,Argyll and Bute,,55.418351,-5.642656,200,OK
52.393963,-0.716237,NN15 7ND,North Northamptonshire,East Midlands,52.393963,-0.716237,200,OK
55.74319,-2.073912,TD15 2YW,Northumberland,North East,55.74319,-2.073912,200,OK
51.533577,-0.726064,SL6 7PG,Windsor and Maidenhead,South East,51.533577,-0.726064,200,OK
51.210916,-0.805824,GU9 7XP,Waverley,South East,51.210648,-0.806003,200,OK
52.517617,-1.781235,,,,,,200,OK
51.964818,-0.211291,SG6 2TB,North Hertfordshire,East of England,51.964818,-0.211291,200,OK
51.37402,-0.479956,KT15 2QD,Runnymede,South East,51.37402,-0.479956,200,OK
53.798217,-0.990657,YO8 6EF,North Yorkshire,Yorkshire and The Humber,53.798217,-0.990657,200,OK
51.55571,0.033027,E7 0JU,Redbridge,London,51.555037,0.032954,200,OK
51.648639,-3.943865,SA5 9DW,Swansea,,51.648639,-3.943865,200,OK
51.520512,-0.047374,E1 4GH,Tower Hamlets,London,51.520512,-0.047374,200,OK
52.857841,-2.708446,SY4 5HS,Shropshire,West Midlands,52.857841,-2.708446,200,OK
51.604308,-0.062236,N17 0PH,Haringey,London,51.604308,-0.062236,200,OK
51.746084,0.755699,CM9 8AY,Maldon,East of England,51.746084,0.755699,200,OK
53.576807,-0.646189,DN16 1PB,North Lincolnshire,Yorkshire and The Humber,53.576807,-0.646189,200,OK
51.42525,0.106966,DA14 4HJ,Bexley,London,51.42525,0.106966,200,OK
52.211104,1.053024,IP14 5DD,Mid Suffolk,East of England,52.211104,1.053024,200,OK
57.69107,-4.156725,IV18 0HH,Highland,,57.690792,-4.157262,200,OK
52.385119,-1.497132,CV3 5NT,Coventry,West Midlands,52.385119,-1.497132,200,OK
51.23153,-0.563154,GU1 3TE,Guildford,South East,51.23153,-0.563154,200,OK
50.915445,0.422164,,,,,,200,OK
53.945781,-1.078378,YO10 4DZ,York,Yorkshire and The Humber,53.945529,-1.078383,200,OK
52.676465,-2.45357,TF3 4NL,Telford and Wrekin,West Midlands,52.676465,-2.45357,200,OK
56.492182,-3.015843,DD3 9JZ,Dundee City,,56.492173,-3.015745,200,OK
50.890565,0.187058,BN27 4AN,Wealden,South East,50.890565,0.187058,200,OK
52.917198,-1.132394,NG2 7DY,Rushcliffe,East Midlands,52.917198,-1.132394,200,OK
51.502106,-3.188533,CF14 3QD,Cardiff,,51.502139,-3.187929,200,OK
50.827267,-0.16857,BN3 2FQ,Brighton and Hove,South East,50.82723,-0.168273,200,OK
51.505341,-2.481852,BS16 7FQ,South Gloucestershire,South West,51.505341,-2.481852,200,OK
51.110882,-0.857703,GU35 0TT,East Hampshire,South East,51.110882,-0.857703,200,OK
51.649036,-3.039349,NP44 4SY,Torfaen,,51.649018,-3.039305,200,OK
50.965594,0.594877,TN31 6JF,Rother,South East,50.965594,0.594877,200,OK
50.780565,-2.572443,DT2 0AQ,Dorset,South West,50.78043,-2.572385,200,OK
53.566938,-2.416647,BL3 2RY,Bolton,North West,53.566938,-2.416647,200,OK
53.606223,-1.767011,HD4 6UP,Kirklees,Yorkshire and The Humber,53.606223,-1.767011,200,OK
53.453975,-2.929584,L9 6BT,Liverpool,North West,53.453975,-2.929584,200,OK
50.864348,0.258153,BN27 1AR,Wealden,South East,50.864375,0.258126,200,OK
51.722575,-0.940774,OX9 3UL,South Oxfordshire,South East,51.722575,-0.940774,200,OK
51.316326,-0.626407,GU21 2TA,Woking,South East,51.316326,-0.626407,200,OK
54.1322,-1.150477,YO61 4TP,North Yorkshire,Yorkshire and The Humber,54.13219,-1.150354,200,OK
51.665568,-0.043864,EN3 5QH,Enfield,London,51.665568,-0.043864,200,OK
50.359886,-4.091727,PL9 7AU,Plymouth,South West,50.359886,-4.091727,200,OK
53.338641,-3.104295,CH61 6XR,Wirral,North West,53.338641,-3.104295,200,OK
53.383419,-3.03882,CH43 5RG,Wirral,North West,53.383646,-3.03854,200,OK
53.705296,-2.851145,PR4 6RY,West Lancashire,North West,53.705296,-2.851145,200,OK
50.874799,-1.596915,SO43 7DZ,New Forest,South East,50.874799,-1.596915,200,OK
55.040254,-1.474918,NE25 8NL,North Tyneside,North East,55.040254,-1.474918,200,OK
53.41256,-1.419102,S9 1BX,Sheffield,Yorkshire and The Humber,53.412454,-1.419329,200,OK
53.594573,-2.394196,BL2 4BA,Bolton,North West,53.594573,-2.394196,200,OK
51.797962,1.170673,CO15 6HF,Tendring,East of England,51.798705,1.170901,200,OK
53.450304,-2.159616,SK5 6NH,Stockport,North West,53.450304,-2.159616,200,OK
53.799526,-1.541045,LS1 6AQ,Leeds,Yorkshire and The Humber,53.799562,-1.541444,200,OK
50.967687,-1.365373,SO50 9GE,Eastleigh,South East,50.967586,-1.364894,200,OK
52.658624,0.524678,PE33 9HZ,King's Lynn and West Norfolk,East of England,52.658624,0.524678,200,OK
52.901799,-2.145769,ST15 8AJ,Stafford,West Midlands,52.901808,-2.145798,200,OK
53.358711,-1.371377,S13 7JS,Sheffield,Yorkshire and The Humber,53.358711,-1.371377,200,OK
51.749902,-1.256551,OX1 1DP,Oxford,South East,51.749902,-1.256551,200,OK
54.008286,-1.529787,HG1 4HP,North Yorkshire,Yorkshire and The Humber,54.008286,-1.529787,200,OK
52.883025,0.572393,PE31 6SD,King's Lynn and West Norfolk,East of England,52.883025,0.572393,200,OK
55.960884,-3.176826,EH7 5YQ,City of Edinburgh,,55.960884,-3.176826,200,OK
57.206635,-2.306261,AB21 0RY,Aberdeenshire,,57.206635,-2.306261,200,OK
53.484747,-2.239733,M4 2AF,Manchester,North West,53.484747,-2.239733,200,OK
51.45685,-2.580967,BS2 0BQ,"Bristol, City of",South West,51.45685,-2.580967,200,OK
53.479172,-2.198027,M11 3UT,Manchester,North West,53.479172,-2.198027,200,OK
53.535953,-0.970851,DN7 6BF,Doncaster,Yorkshire and The Humber,53.535953,-0.970851,200,OK
53.230013,-0.54758,LN1 1BN,Lincoln,East Midlands,53.230013,-0.54758,200,OK
53.412907,-2.593898,WA2 9QZ,Warrington,North West,53.412907,-2.593898,200,OK
51.341489,-2.782754,BS40 5JA,North Somerset,South West,51.341489,-2.782754,200,OK
51.431318,-0.474344,TW15 3PQ,Spelthorne,South East,51.431318,-0.474344,200,OK
51.375762,0.067074,BR6 8JT,Bromley,London,51.375762,0.067074,200,OK
54.66198,-1.631863,DL14 8NT,County Durham,North East,54.661961,-1.631801,200,OK
53.05981,-2.997458,LL11 2RN,Wrexham,,53.05981,-2.997458,200,OK
51.475815,-0.184204,SW6 2RQ,Hammersmith and Fulham,London,51.475815,-0.184204,200,OK
54.427785,-6.976137,,,,,,200,OK
52.216874,-0.079295,CB23 5BN,South Cambridgeshire,East of England,52.216874,-0.079295,200,OK
52.52716,-1.520511,CV10 9EX,Nuneaton and Bedworth,West Midlands,52.52716,-1.520511,200,OK
53.259655,-2.130062,SK11 6PN,Cheshire East,North West,53.259645,-2.130509,200,OK
51.771996,-1.556189,OX18 3NG,West Oxfordshire,South East,51.771996,-1.556189,200,OK
53.854246,-1.758161,BD17 6RY,Bradford,Yorkshire and The Humber,53.854246,-1.758161,200,OK
53.349568,-3.023109,CH63 2PF,Wirral,North West,53.349568,-3.023109,200,OK
53.80121,-3.027865,FY4 4EF,Blackpool,North West,53.80121,-3.027865,200,OK
51.482934,-2.600668,BS6 7XT,"Bristol, City of",South West,51.482934,-2.600668,200,OK
51.349125,-2.969501,BS23 3AQ,North Somerset,South West,51.349125,-2.969501,200,OK
54.772952,-1.591611,DH1 4DZ,County Durham,North East,54.773293,-1.59151,200,OK
51.742648,-0.969518,OX9 3LN,South Oxfordshire,South East,51.742648,-0.969518,200,OK
51.667934,-0.408465,WD17 4PE,Watford,East of England,51.667874,-0.408242,200,OK
52.402535,-0.729365,NN16 8JZ,North Northamptonshire,East Midlands,52.402535,-0.729365,200,OK
55.875337,-4.182516,G33 1AR,Glasgow City,,55.87536,-4.182456,200,OK
54.212526,-2.803995,LA7 7JW,Westmorland and Furness,North West,54.212526,-2.803995,200,OK
50.851834,-1.094904,PO6 4AZ,Portsmouth,South East,50.851834,-1.094904,200,OK
51.753636,-2.863614,NP15 2HP,Monmouthshire,,51.753636,-2.863614,200,OK
54.269064,-7.743479,BT92 1FW,Fermanagh and Omagh,,54.269064,-7.743479,200,OK
51.668264,-4.02715,SA4 4GG,Swansea,,51.668264,-4.02715,200,OK
54.915613,-1.817705,NE17 7EF,Gateshead,North East,54.915613,-1.817705,200,OK
53.715635,-1.357873,WF10 5SX,Wakefield,Yorkshire and The Humber,53.715635,-1.357873,200,OK
55.841695,-3.195084,EH26 0RR,Midlothian,,55.841659,-3.195083,200,OK
51.407082,-0.080263,SE19 2DR,Croydon,London,51.407082,-0.080263,200,OK
51.512647,-3.122518,CF3 3NY,Cardiff,,51.512702,-3.122505,200,OK
53.487906,-2.632955,WN4 8PE,Wigan,North West,53.487906,-2.632955,200,OK
53.021246,-2.208861,ST5 0LE,Newcastle-under-Lyme,West Midlands,53.021308,-2.208995,200,OK
51.197554,-0.197224,RH2 8QH,Reigate and Banstead,South East,51.197862,-0.197355,200,OK
53.212691,-3.073005,CH5 4UF,Flintshire,,53.212691,-3.073005,200,OK
51.440041,0.368518,DA12 9ZY,Gravesham,South East,51.440041,0.368518,200,OK
51.521777,-0.186653,W2 6PH,Westminster,London,51.521777,-0.186653,200,OK
52.254628,0.394481,CB8 0AQ,West Suffolk,East of England,52.254628,0.394481,200,OK
53.772075,-1.53124,LS10 2DJ,Leeds,Yorkshire and The Humber,53.772075,-1.53124,200,OK
50.831686,-0.209338,BN41 1DA,Brighton and Hove,South East,50.832055,-0.209338,200,OK
52.172913,-2.18297,WR5 2RN,Wychavon,West Midlands,52.172913,-2.18297,200,OK
53.441065,-2.416393,M44 6RH,Salford,North West,53.441065,-2.416393,200,OK
55.900375,-4.238103,G22 7DS,Glasgow City,,55.900375,-4.238103,200,OK
51.355597,-1.144714,RG26 4JP,Basingstoke and Deane,South East,51.355596,-1.144585,200,OK
53.566033,-2.44593,BL3 4AH,Bolton,North West,53.566283,-2.446355,200,OK
54.861604,-1.710486,DH9 7QS,County Durham,North East,54.861826,-1.709503,200,OK
53.004789,-1.116199,NG5 7HA,Gedling,East Midlands,53.004789,-1.116199,200,OK
54.534632,-1.545569,DL1 2NY,Darlington,North East,54.534632,-1.545569,200,OK
52.650965,-2.020873,WS6 6WS,South Staffordshire,West Midlands,52.650965,-2.020873,200,OK
52.061613,-2.74569,HR4 0QU,"Herefordshire, County of",West Midlands,52.061613,-2.74569,200,OK
56.106403,-3.946293,FK8 2BW,Stirling,,56.106403,-3.946293,200,OK
52.18419,-2.029558,WR7 4BX,Wychavon,West Midlands,52.18419,-2.029558,200,OK
51.963643,1.346364,IP11 7QZ,East Suffolk,East of England,51.963643,1.346364,200,OK
53.055018,-3.073902,LL11 3UF,Wrexham,,53.054936,-3.07375,200,OK
53.685213,-1.632534,WF12 9PH,Kirklees,Yorkshire and The Humber,53.685213,-1.632534,200,OK
54.080077,-0.202412,YO15 3HH,East Riding of Yorkshire,Yorkshire and The Humber,54.080358,-0.201956,200,OK
52.26333,-1.940423,B96 6DL,Redditch,West Midlands,52.26333,-1.940423,200,OK
54.912744,-1.604892,NE11 0ET,Gateshead,North East,54.912744,-1.604892,200,OK
50.866483,-1.574883,SO43 7DH,New Forest,South East,50.866647,-1.57513,200,OK
50.987495,-1.385234,SO53 2FQ,Eastleigh,South East,50.987495,-1.385234,200,OK
51.673827,-3.807054,SA10 7EP,Neath Port Talbot,,51.673827,-3.807054,200,OK
51.81389,-0.047978,SG12 0AZ,East Hertfordshire,East of England,51.81389,-0.047978,200,OK
50.310019,-3.87698,TQ7 4HG,South Hams,South West,50.310019,-3.87698,200,OK
55.876394,-4.287308,G12 8RL,Glasgow City,,55.876394,-4.287308,200,OK
51.470038,-2.611584,BS6 6TA,"Bristol, City of",South West,51.470038,-2.611584,200,OK
55.918709,-4.142639,G66 5LR,East Dunbartonshire,,55.918709,-4.142639,200,OK
50.832892,-1.069411,PO3 5FY,Portsmouth,South East,50.832892,-1.069411,200,OK
51.502951,-0.467394,UB7 7GE,Hillingdon,London,51.502951,-0.467394,200,OK
51.619542,0.655934,SS5 5NL,Rochford,East of England,51.619548,0.655961,200,OK
52.89691,-2.508358,TF9 1NL,Shropshire,West Midlands,52.89691,-2.508358,200,OK
53.784888,-1.775934,BD7 3BJ,Bradford,Yorkshire and The Humber,53.784888,-1.775934,200,OK
53.696935,-1.63211,WF13 2EG,Kirklees,Yorkshire and The Humber,53.69697,-1.631777,200,OK
51.245915,-0.002516,RH8 9ED,Tandridge,South East,51.245915,-0.002516,200,OK
53.790523,-0.190663,HU11 4PN,East Riding of Yorkshire,Yorkshire and The Humber,53.790523,-0.190663,200,OK
53.487206,-2.630503,WN4 9DE,Wigan,North West,53.487206,-2.630503,200,OK
51.581483,-3.246819,CF83 2TL,Caerphilly,,51.581395,-3.246841,200,OK
53.765303,-1.50146,LS88 8AA,Leeds,Yorkshire and The Humber,53.765303,-1.50146,200,OK
53.810603,-1.457733,LS15 7PL,Leeds,Yorkshire and The Humber,53.810603,-1.457733,200,OK
50.877662,0.020759,BN7 2BF,Lewes,South East,50.877539,0.020327,200,OK
52.144236,1.148714,IP6 9RS,Mid Suffolk,East of England,52.144228,1.14902,200,OK
53.500581,-2.879767,L33 4YS,Knowsley,North West,53.500581,-2.879767,200,OK
56.007374,-3.732192,FK3 8PA,Falkirk,,56.007374,-3.732192,200,OK
51.321016,-2.806341,BS25 1QD,Somerset,South West,51.321016,-2.806341,200,OK
52.957637,-1.150057,NG1 4AH,Nottingham,East Midlands,52.957637,-1.150057,200,OK
55.87017,-4.267966,G4 9AX,Glasgow City,,55.870547,-4.267493,200,OK
51.565852,-1.777632,SN1 2AG,Swindon,South West,51.565852,-1.777632,200,OK
51.567964,0.105074,IG3 8SD,Redbridge,London,51.567964,0.105074,200,OK
54.599562,-5.926601,BT1 4DR,Belfast,,54.59953,-5.926804,200,OK
53.550434,-2.006542,OL3 6BS,Oldham,North West,53.550434,-2.006542,200,OK
51.458589,-3.19696,CF11 8QF,Cardiff,,51.458589,-3.19696,200,OK
51.578719,-1.768608,SN2 8EL,Swindon,South West,51.578711,-1.76861,200,OK
51.136036,-3.009505,TA6 3SN,Somerset,South West,51.136036,-3.009505,200,OK
51.444347,-0.951927,RG1 5JS,Reading,South East,51.444347,-0.951927,200,OK
51.472225,-0.1645,SW11 4BT,Wandsworth,London,51.472283,-0.164127,200,OK
53.235447,-0.538734,LN1 3AN,Lincoln,East Midlands,53.235393,-0.538721,200,OK
51.2158,-0.549619,,,,,,200,OK
51.51383,-0.13974,W1F 7BH,Westminster,London,51.513739,-0.139657,200,OK
53.19852,-2.50291,CW7 3HT,Cheshire West and Chester,North West,53.19852,-2.50291,200,OK
53.445994,-2.386028,M41 6LH,Trafford,North West,53.445994,-2.386028,200,OK
52.611871,-2.112063,WV10 9DQ,Wolverhampton,West Midlands,52.611923,-2.112101,200,OK
51.539267,-0.320137,,,,,,200,OK
53.005295,-1.367684,DE75 7SW,Amber Valley,East Midlands,53.005283,-1.366999,200,OK
50.728316,-1.824546,BH5 2AH,"Bournemouth, Christchurch and Poole",South West,50.728316,-1.824546,200,OK
56.444864,-2.880102,DD6 9NW,Fife,,56.444864,-2.880102,200,OK
50.756886,-1.818967,BH8 0DU,"Bournemouth, Christchurch and Poole",South West,50.756921,-1.818973,200,OK
51.438802,-0.125423,SW2 3AY,Lambeth,London,51.438802,-0.125423,200,OK
53.832951,-2.998784,FY3 0ER,Wyre,North West,53.833368,-2.998292,200,OK
50.992715,-0.098354,RH16 4WS,Mid Sussex,South East,50.992715,-0.098354,200,OK
53.590975,-2.21538,OL10 1DQ,Rochdale,North West,53.590975,-2.21538,200,OK
51.807808,1.141983,CO16 8YP,Tendring,East of England,51.807808,1.141983,200,OK
51.235146,1.401172,CT14 6QL,Dover,South East,51.235146,1.401172,200,OK
53.431103,-2.434718,M44 5JA,Salford,North West,53.431103,-2.434718,200,OK
52.031707,-1.153655,NN13 6JQ,West Northamptonshire,East Midlands,52.031707,-1.153655,200,OK
54.092128,-0.186064,YO16 6QT,East Riding of Yorkshire,Yorkshire and The Humber,54.092112,-0.186157,200,OK
50.800338,-2.934592,EX13 5XE,East Devon,South West,50.800338,-2.934592,200,OK
52.390985,0.00146,PE28 3HF,Huntingdonshire,East of England,52.390621,0.000585,200,OK
54.96736,-1.705431,NE21 5RY,Gateshead,North East,54.96736,-1.705431,200,OK
54.255601,-5.946205,BT31 9BY,"Newry, Mourne and Down",,54.255601,-5.946205,200,OK
51.769417,-1.583604,OX18 1JE,West Oxfordshire,South East,51.769417,-1.583604,200,OK
51.597632,-0.10535,N22 5GQ,Haringey,London,51.597632,-0.10535,200,OK
54.872811,-1.576204,DH3 4DA,County Durham,North East,54.872811,-1.576204,200,OK
51.922897,-0.182472,SG1 4JN,Stevenage,East of England,51.922897,-0.182472,200,OK
54.374743,-6.368459,BT63 6JF,"Armagh City, Banbridge and Craigavon",,54.374743,-6.368459,200,OK
52.083968,-4.418273,SA44 5QH,Ceredigion,,52.083968,-4.418273,200,OK
54.200663,-1.400843,YO7 3EF,North Yorkshire,Yorkshire and The Humber,54.200663,-1.400843,200,OK
51.531045,-0.235982,NW10 6AS,Hammersmith and Fulham,London,51.531045,-0.235982,200,OK
52.811038,-1.630964,DE14 1PX,East Staffordshire,West Midlands,52.811253,-1.630809,200,OK
57.239917,-2.454489,AB51 5LW,Aberdeenshire,,57.239917,-2.454489,200,OK
51.593004,-0.55961,SL9 8LN,Buckinghamshire,South East,51.593004,-0.55961,200,OK
54.982807,-1.564297,NE6 2YD,Newcastle upon Tyne,North East,54.982518,-1.564376,200,OK
53.264799,-3.926274,LL34 6EB,Conwy,,53.264806,-3.926379,200,OK
51.580759,-0.717139,SL8 5QZ,Buckinghamshire,South East,51.580759,-0.717139,200,OK
51.520668,-0.159382,W1U 6JS,Westminster,London,51.52066,-0.15944,200,OK
52.820837,1.388711,NR11 6WJ,North Norfolk,East of England,52.820778,1.38887,200,OK
51.675865,-3.227672,CF81 8JY,Caerphilly,,51.675865,-3.227672,200,OK
52.580652,-1.969653,WS1 2LD,Walsall,West Midlands,52.580652,-1.969653,200,OK
50.853896,-1.008886,PO9 3JS,Havant,South East,50.853896,-1.008886,200,OK
51.49276,-0.265168,W4 5TF,Hounslow,London,51.492748,-0.26501,200,OK
52.554214,-1.308316,LE9 7SE,Blaby,East Midlands,52.554214,-1.308316,200,OK
50.437832,-3.56795,TQ3 2RY,Torbay,South West,50.437755,-3.56795,200,OK
52.997333,-2.188467,ST4 4BU,Stoke-on-Trent,West Midlands,52.997333,-2.188467,200,OK
52.583713,-1.981685,WS1 1RY,Walsall,West Midlands,52.583729,-1.981665,200,OK
50.931849,-1.442404,SO16 6BX,Southampton,South East,50.931716,-1.442539,200,OK
52.67988,-1.120477,LE4 4HY,Charnwood,East Midlands,52.67988,-1.120477,200,OK
53.594388,-1.725693,HD4 6YA,Kirklees,Yorkshire and The Humber,53.594388,-1.725693,200,OK
51.363651,0.565342,ME7 3NW,Medway,South East,51.363651,0.565342,200,OK
50.393417,-4.071648,PL7 4RH,Plymouth,South West,50.393417,-4.071648,200,OK
51.253436,-1.17173,RG23 7GD,Basingstoke and Deane,South East,51.252812,-1.172525,200,OK
53.533318,-2.716899,WN5 8UN,West Lancashire,North West,53.533318,-2.716899,200,OK
52.263716,-2.19955,WR9 0AS,Wychavon,West Midlands,52.263716,-2.19955,200,OK
53.61664,-1.807497,HD4 7LB,Kirklees,Yorkshire and The Humber,53.61664,-1.807497,200,OK
54.555352,-1.239815,TS5 6SB,Middlesbrough,North East,54.555352,-1.239815,200,OK
51.687932,-4.011348,SA4 9DG,Swansea,,51.687937,-4.011412,200,OK
51.468795,0.17486,DA7 6SB,Bexley,London,51.468795,0.17486,200,OK
54.805696,-1.418782,DH6 2UW,County Durham,North East,54.805696,-1.418782,200,OK
53.278671,-0.921364,DN22 0PX,Bassetlaw,East Midlands,53.278648,-0.921439,200,OK
52.709657,-2.02623,WS11 4QU,Cannock Chase,West Midlands,52.709675,-2.026215,200,OK
50.909755,-0.405188,RH20 4TD,Horsham,South East,50.910025,-0.405637,200,OK
52.323638,-2.073155,B60 3NA,Bromsgrove,West Midlands,52.323638,-2.073155,200,OK
50.860849,0.264891,BN27 2LD,Wealden,South East,50.860849,0.264891,200,OK
52.48645,-1.157695,LE17 5PE,Harborough,East Midlands,52.48645,-1.157695,200,OK
51.479751,0.030814,SE7 7TU,Greenwich,London,51.479751,0.030814,200,OK
51.658458,-0.282191,WD6 4AS,Hertsmere,East of England,51.658458,-0.282191,200,OK
51.54751,-0.166203,NW3 4LY,Camden,London,51.547512,-0.166177,200,OK
