lat,lon,postcode,admin_district,region,latitude,longitude,estado_api,descripcion_estado
51.497933,-0.266622,W4 5HY,Ealing,London,51.497679,-0.266488,200,OK
53.824318,-2.232922,BB9 5SN,Pendle,North West,53.824318,-2.232922,200,OK
54.647324,-5.632089,BT19 6UW,Ards and North Down,,54.647324,-5.632089,200,OK
51.548909,-0.146909,NW5 3BA,Camden,London,51.548909,-0.146909,200,OK
50.876626,0.594735,TN34 2UA,Hastings,South East,50.876626,0.594735,200,OK
53.42297,-2.943609,L6 4AP,Liverpool,North West,53.423013,-2.94364,200,OK
53.009326,-2.208609,ST4 6BH,Stoke-on-Trent,West Midlands,53.009093,-2.208742,200,OK
51.544271,-0.090575,N1 2SG,Islington,London,51.544271,-0.090575,200,OK
50.450747,-4.465847,PL14 4FB,Cornwall,South West,50.450747,-4.465847,200,OK
51.560639,0.456848,SS16 5HB,Basildon,East of England,51.56069,0.456115,200,OK
51.558286,-1.785026,SN1 5QU,Swindon,South West,51.558295,-1.785285,200,OK
51.41597,-0.831336,RG40 1TT,Wokingham,South East,51.41597,-0.831336,200,OK
55.907203,-4.468147,PA8 6DN,Renfrewshire,,55.907203,-4.468147,200,OK
56.478548,-2.954185,DD4 7BP,Dundee City,,56.478548,-2.954185,200,OK
50.843033,-1.139303,PO16 9DZ,Fareham,South East,50.843033,-1.139303,200,OK
53.505167,-2.105666,OL7 9PQ,Tameside,North West,53.505167,-2.105666,200,OK
51.859984,-2.187998,GL3 3LS,Gloucester,South West,51.859984,-2.187998,200,OK
53.378873,-3.044723,CH43 5SX,Wirral,North West,53.378566,-3.044851,200,OK
51.849885,-0.300509,SG4 8QS,North Hertfordshire,East of England,51.849885,-0.300509,200,OK
53.532348,-2.28623,M25 3HQ,Bury,North West,53.532366,-2.286185,200,OK
53.059062,-2.388332,CW2 5SQ,Cheshire East,North West,53.059062,-2.388332,200,OK
51.540196,0.729047,SS1 2QA,Southend-on-Sea,East of England,51.540196,0.729047,200,OK
54.096363,-0.216786,YO16 7PP,East Riding of Yorkshire,Yorkshire and The Humber,54.096363,-0.216786,200,OK
51.766819,-3.1595,NP13 3LD,Blaenau Gwent,,51.766855,-3.159457,200,OK
53.816372,-2.990567,FY3 0EF,Fylde,North West,53.816372,-2.990567,200,OK
51.396457,-0.195997,,,,,,200,OK
53.39033,-0.18532,,,,,,200,OK
51.817204,0.596516,CM8 1SL,Braintree,East of England,51.817431,0.596454,200,OK
53.452763,-2.181355,M18 7GR,Manchester,North West,53.45286,-2.181519,200,OK
52.402823,1.167886,IP21 4UH,South Norfolk,East of England,52.402823,1.167886,200,OK
50.998138,-0.100326,RH16 3JJ,Mid Sussex,South East,50.998238,-0.100024,200,OK
51.902744,-0.466507,LU4 9LL,Luton,East of England,51.903389,-0.466282,200,OK
50.502451,-3.575984,TQ12 5ER,Teignbridge,South West,50.502451,-3.575984,200,OK
53.322984,-1.911956,SK23 0LX,High Peak,East Midlands,53.322984,-1.911956,200,OK
52.961966,-1.213902,NG8 3JG,Nottingham,East Midlands,52.962036,-1.213303,200,OK
51.767338,-3.354407,CF48 3NN,Merthyr Tydfil,,51.767338,-3.354407,200,OK
53.665305,-2.288023,,,,,,200,OK
51.448026,0.211665,DA1 2BD,Dartford,South East,51.448026,0.211665,200,OK
50.602202,-2.465471,DT4 9QX,Dorset,South West,50.602187,-2.464849,200,OK
55.942389,-4.158151,G66 1PS,East Dunbartonshire,,55.942389,-4.158151,200,OK
51.277203,0.245507,,,,,,200,OK
51.502897,-2.509185,BS16 6JA,South Gloucestershire,South West,51.502897,-2.509185,200,OK
51.874006,-4.705641,SA66 7UP,Pembrokeshire,,51.874006,-4.705641,200,OK
51.590357,0.60953,SS6 8AD,Rochford,East of England,51.590357,0.60953,200,OK
51.564822,-0.108543,N4 3FP,Islington,London,51.565006,-0.108048,200,OK
52.930104,-1.112499,NG2 5JY,Rushcliffe,East Midlands,52.930104,-1.112499,200,OK
53.807008,-1.716488,BD2 3JG,Bradford,Yorkshire and The Humber,53.807008,-1.716488,200,OK
51.712969,-3.345107,CF48 4JT,Merthyr Tydfil,,51.712969,-3.345107,200,OK
50.417288,-4.179407,PL5 2RH,Plymouth,South West,50.417288,-4.179407,200,OK
51.291252,-0.847899,GU51 1JG,Hart,South East,51.291252,-0.847899,200,OK
53.369844,-2.3011,WA15 8TR,Trafford,North West,53.369844,-2.3011,200,OK
53.52903,-2.08444,OL4 5LY,Oldham,North West,53.529371,-2.084591,200,OK
52.773992,-1.196198,LE11 1HB,Charnwood,East Midlands,52.773521,-1.196962,200,OK
51.149143,-1.581515,SO20 8DX,Test Valley,South East,51.149143,-1.581515,200,OK
53.620507,-1.413002,WF4 2QA,Wakefield,Yorkshire and The Humber,53.620507,-1.413002,200,OK
54.434618,-2.593852,CA10 3SF,Westmorland and Furness,North West,54.434618,-2.593852,200,OK
51.468159,-1.031421,RG31 6JE,Reading,South East,51.468123,-1.031422,200,OK
51.789309,1.15665,CO15 1UH,Tendring,East of England,51.789309,1.15665,200,OK
51.520462,-0.090201,EC1Y 4AG,City of London,London,51.520686,-0.090178,200,OK
51.906974,-0.513831,LU5 5LR,Central Bedfordshire,East of England,51.906974,-0.513831,200,OK
51.715392,-3.958323,SA5 7NH,Swansea,,51.715392,-3.958323,200,OK
57.546013,-2.960958,AB55 5BX,Moray,,57.546013,-2.960925,200,OK
51.557798,-0.100712,N5 1BZ,Islington,London,51.557798,-0.100712,200,OK
53.682288,-0.436827,DN18 5FP,North Lincolnshire,Yorkshire and The Humber,53.682288,-0.436827,200,OK
50.361151,-4.086904,PL9 9BA,Plymouth,South West,50.361151,-4.086904,200,OK
52.540245,-2.081339,WV14 8HX,Dudley,West Midlands,52.540245,-2.081339,200,OK
53.343532,-3.012,CH63 3BN,Wirral,North West,53.343532,-3.012,200,OK
53.074943,-1.157111,NG15 9HN,Gedling,East Midlands,53.07561,-1.157319,200,OK
50.938646,-1.44201,SO16 5GG,Southampton,South East,50.938646,-1.44201,200,OK
54.325963,-5.70442,BT30 6RR,"Newry, Mourne and Down",,54.325963,-5.70442,200,OK
51.480447,-2.582217,BS7 9JT,"Bristol, City of",South West,51.480447,-2.582217,200,OK
51.484076,-0.03725,SE8 5NZ,Lewisham,London,51.484076,-0.03725,200,OK
50.429533,-3.591639,TQ3 3UA,Torbay,South West,50.429533,-3.591639,200,OK
51.452157,-3.353447,CF5 6TQ,Vale of Glamorgan,,51.452157,-3.353447,200,OK
51.778428,-0.298136,AL4 9EG,St Albans,East of England,51.778428,-0.298136,200,OK
50.758543,-1.93021,BH11 8PH,"Bournemouth, Christchurch and Poole",South West,50.758543,-1.93021,200,OK
53.796596,-1.543936,LS1 5AT,Leeds,Yorkshire and The Humber,53.796596,-1.543936,200,OK
53.442452,-2.263735,M21 0XT,Manchester,North West,53.442443,-2.26375,200,OK
51.523628,-0.790269,SL6 3QP,Windsor and Maidenhead,South East,51.523628,-0.790269,200,OK
54.984307,-3.270675,DG12 6BW,Dumfries and Galloway,,54.984307,-3.270675,200,OK
53.702383,-1.641273,WF17 7AD,Kirklees,Yorkshire and The Humber,53.702383,-1.641273,200,OK
57.484428,-4.233281,IV3 8BL,Highland,,57.484395,-4.233646,200,OK
53.731442,-1.650363,WF17 0PQ,Kirklees,Yorkshire and The Humber,53.731442,-1.650363,200,OK
53.368075,-3.032615,CH42 8NW,Wirral,North West,53.368075,-3.032615,200,OK
51.542375,-0.206932,NW6 7TP,Brent,London,51.542552,-0.2073,200,OK
51.245852,-0.780535,GU11 3NU,Rushmoor,South East,51.245852,-0.780535,200,OK
51.140483,1.29238,CT16 2BF,Dover,South East,51.140483,1.29238,200,OK
53.278126,-3.235226,CH8 7NS,Flintshire,,53.278134,-3.235272,200,OK
51.067604,-1.774816,SP1 1NP,Wiltshire,South West,51.067604,-1.774816,200,OK
54.617665,-1.643505,DL4 2QB,Darlington,North East,54.617665,-1.643505,200,OK
53.045155,-0.839815,NG23 5PU,Newark and Sherwood,East Midlands,53.045155,-0.839815,200,OK
53.390175,-3.17943,CH29 9FG,Wirral,North West,53.390175,-3.17943,200,OK
51.754506,-0.239328,AL10 9HZ,Welwyn Hatfield,East of England,51.754873,-0.238812,200,OK
54.532325,-1.525682,DL1 2RL,Darlington,North East,54.532648,-1.525462,200,OK
53.163399,-1.459099,S45 0BH,North East Derbyshire,East Midlands,53.163399,-1.459099,200,OK
53.58974,-2.334221,BL8 2HN,Bury,North West,53.58974,-2.334221,200,OK
56.521837,-5.31712,PA37 1SG,Argyll and Bute,,56.521837,-5.31712,200,OK
51.082925,-0.794203,GU30 7GA,East Hampshire,South East,51.082925,-0.794203,200,OK
51.874472,-0.511122,LU6 3LS,Central Bedfordshire,East of England,51.874472,-0.511122,200,OK
51.461289,-2.505901,BS15 0DB,South Gloucestershire,South West,51.461289,-2.505901,200,OK
52.73044,-1.370852,LE67 3FS,North West Leicestershire,East Midlands,52.73044,-1.370852,200,OK
51.507227,-0.747404,SL6 3DS,Windsor and Maidenhead,South East,51.507227,-0.747404,200,OK
51.672406,-1.857933,GL7 5BD,Cotswold,South West,51.672406,-1.857933,200,OK
52.611373,-0.248903,PE4 7GF,Peterborough,East of England,52.611363,-0.248874,200,OK
56.095,-3.92043,FK7 0EL,Stirling,,56.095,-3.92043,200,OK
55.751507,-4.629067,KA15 2EZ,North Ayrshire,,55.751507,-4.629067,200,OK
53.872227,-2.397854,BB7 2FB,Ribble Valley,North West,53.872227,-2.397854,200,OK
51.170342,0.626372,TN27 9TX,Maidstone,South East,51.170342,0.626372,200,OK
51.57103,0.087523,IG2 7DX,Redbridge,London,51.57103,0.087523,200,OK
52.897795,-1.911272,ST14 5DW,East Staffordshire,West Midlands,52.897795,-1.911272,200,OK
53.754488,-0.733988,HU15 2XA,East Riding of Yorkshire,Yorkshire and The Humber,53.754488,-0.733988,200,OK
53.511375,-2.354262,M27 9LL,Salford,North West,53.511375,-2.354262,200,OK
51.74101,-3.149344,NP13 1SR,Blaenau Gwent,,51.74101,-3.149344,200,OK
51.022948,0.269289,TN20 6UD,Wealden,South East,51.022948,0.269289,200,OK
51.565456,-0.096555,N4 2FF,Hackney,London,51.565456,-0.096555,200,OK
52.5358,-2.117848,DY3 1TH,Dudley,West Midlands,52.5358,-2.117848,200,OK
53.224279,-0.544402,LN5 7PA,Lincoln,East Midlands,53.224279,-0.544402,200,OK
50.964599,0.129562,TN22 5NP,Wealden,South East,50.96459,0.129547,200,OK
51.439442,0.353608,DA11 9NT,Gravesham,South East,51.439442,0.353608,200,OK
52.964436,-1.202646,NG8 3FJ,Nottingham,East Midlands,52.964436,-1.202646,200,OK
53.442066,-1.316372,S65 3EJ,Rotherham,Yorkshire and The Humber,53.442523,-1.316094,200,OK
53.426388,-1.351508,S60 2PU,Rotherham,Yorkshire and The Humber,53.426388,-1.351508,200,OK
51.71932,0.459984,CM2 9BJ,Chelmsford,East of England,51.71932,0.459984,200,OK
51.800516,-3.173901,NP23 4DH,Blaenau Gwent,,51.800516,-3.173901,200,OK
50.79795,-1.984908,BH21 1AA,Dorset,South West,50.79795,-1.984908,200,OK
52.674114,1.071128,NR20 3JS,Breckland,East of England,52.674114,1.071128,200,OK
51.345062,-2.670608,BS40 8BH,North Somerset,South West,51.345062,-2.670608,200,OK
56.963407,-2.226181,AB39 2LT,Aberdeenshire,,56.963407,-2.226181,200,OK
52.341241,1.671152,IP18 6QH,East Suffolk,East of England,52.341241,1.671152,200,OK
53.549935,-2.773401,WN8 6HA,West Lancashire,North West,53.549935,-2.773401,200,OK
51.358896,-0.882741,RG40 4LJ,Wokingham,South East,51.358896,-0.882741,200,OK
51.482237,-0.337124,TW7 5FG,Hounslow,London,51.482237,-0.337124,200,OK
51.918154,-0.689618,LU7 2XQ,Central Bedfordshire,East of England,51.918154,-0.689618,200,OK
51.461226,-3.184318,CF11 7EN,Cardiff,,51.461226,-3.184318,200,OK
51.9318,-1.614391,OX7 6TN,West Oxfordshire,South East,51.9318,-1.614391,200,OK
51.480563,0.026501,SE7 7JX,Greenwich,London,51.480528,0.026525,200,OK
53.711742,-1.892423,HX2 7HL,Calderdale,Yorkshire and The Humber,53.711742,-1.892423,200,OK
53.710495,-0.863777,DN14 6JR,East Riding of Yorkshire,Yorkshire and The Humber,53.710495,-0.863777,200,OK
52.655436,-0.477264,PE9 1EX,South Kesteven,East Midlands,52.65522,-0.477172,200,OK
51.797803,-0.402417,AL3 7HS,St Albans,East of England,51.797803,-0.402417,200,OK
55.950698,-3.205311,EH2 4AH,City of Edinburgh,,55.950795,-3.205458,200,OK
52.38342,-2.243034,DY10 1NZ,Wyre Forest,West Midlands,52.383861,-2.242831,200,OK
51.601448,-2.51228,BS35 2PX,South Gloucestershire,South West,51.601448,-2.51228,200,OK
50.908156,-1.345715,SO19 8BL,Southampton,South East,50.907852,-1.345994,200,OK
52.483325,-1.936064,B16 0EP,Birmingham,West Midlands,52.483325,-1.936064,200,OK
53.805072,-2.316663,BB12 8NS,Burnley,North West,53.805072,-2.316663,200,OK
53.955509,-1.074125,YO10 4UU,York,Yorkshire and The Humber,53.955563,-1.074133,200,OK
51.747556,-3.384481,CF48 1AY,Merthyr Tydfil,,51.747556,-3.384481,200,OK
51.552514,-0.361608,UB5 4EE,Ealing,London,51.552629,-0.362123,200,OK
54.477165,-6.3347,BT67 9BT,"Armagh City, Banbridge and Craigavon",,54.477165,-6.3347,200,OK
51.304951,0.881252,ME13 8UL,Swale,South East,51.305311,0.880514,200,OK
54.225401,-7.344334,BT92 6JU,Fermanagh and Omagh,,54.225401,-7.344334,200,OK
52.478406,-1.89589,B2 4BB,Birmingham,West Midlands,52.478406,-1.89589,200,OK
50.351761,-3.581952,TQ6 9QH,South Hams,South West,50.351761,-3.581952,200,OK
53.037576,-1.091413,NG14 6LS,Gedling,East Midlands,53.037576,-1.091413,200,OK
52.692118,-2.455374,TF2 6BN,Telford and Wrekin,West Midlands,52.692118,-2.455374,200,OK
50.938863,0.762136,TN31 7TW,Rother,South East,50.938863,0.762136,200,OK
51.505569,-0.057826,E1W 2AB,Tower Hamlets,London,51.505569,-0.057826,200,OK
51.767652,0.094134,CM20 9SA,Harlow,East of England,51.767652,0.094134,200,OK
52.193405,-2.175125,WR4 0NJ,Worcester,West Midlands,52.193399,-2.17512,200,OK
51.63592,0.42623,CM12 0RX,Basildon,East of England,51.635923,0.426505,200,OK
51.593404,-0.406827,HA5 2PH,Hillingdon,London,51.593404,-0.406827,200,OK
51.494312,-0.141716,SW1V 1EQ,Westminster,London,51.494207,-0.141346,200,OK
52.220677,0.174121,CB5 8ZB,South Cambridgeshire,East of England,52.220677,0.174121,200,OK
53.341825,-1.476731,S8 8QH,Sheffield,Yorkshire and The Humber,53.341825,-1.476731,200,OK
53.812125,-1.589931,LS4 2SU,Leeds,Yorkshire and The Humber,53.812125,-1.589931,200,OK
52.905737,-1.55121,DE3 0TB,Derby,East Midlands,52.905737,-1.55121,200,OK
53.640548,-2.730651,,,,,,200,OK
54.902649,-6.58246,BT46 5XQ,Mid Ulster,,54.902649,-6.58246,200,OK
55.859743,-4.173476,G32 6RQ,Glasgow City,,55.859743,-4.173476,200,OK
53.394934,-2.932161,L15 3HZ,Liverpool,North West,53.394934,-2.932161,200,OK
51.295353,-0.911879,RG27 8ET,Hart,South East,51.295353,-0.911879,200,OK
53.439819,-0.195164,LN8 6EG,West Lindsey,East Midlands,53.439827,-0.195133,200,OK
51.34387,-2.97685,BS23 1WN,North Somerset,South West,51.34387,-2.97685,200,OK
51.882132,-4.429,SA33 5RS,Carmarthenshire,,51.882132,-4.429,200,OK
52.388636,-0.743429,NN15 7RQ,North Northamptonshire,East Midlands,52.388636,-0.743429,200,OK
52.991637,-2.202505,ST4 5QD,Stoke-on-Trent,West Midlands,52.991637,-2.202505,200,OK
55.182988,-1.573612,NE63 9XH,Northumberland,North East,55.183195,-1.573688,200,OK
53.361574,-2.267428,M90 3BB,Manchester,North West,53.361591,-2.267969,200,OK
52.221141,-0.673033,NN29 7JH,North Northamptonshire,East Midlands,52.221162,-0.672928,200,OK
53.738681,-1.831061,HX3 7EB,Calderdale,Yorkshire and The Humber,53.738681,-1.831061,200,OK
54.486444,-5.528394,BT22 2WE,Ards and North Down,,54.486444,-5.528394,200,OK
51.764136,-1.583681,OX18 3YJ,West Oxfordshire,South East,51.764136,-1.583681,200,OK
51.750524,-1.285803,OX2 0FE,Oxford,South East,51.750671,-1.284801,200,OK
56.088018,-4.000649,FK7 9QU,Stirling,,56.088018,-4.000649,200,OK
52.565747,-2.116409,WV4 6RT,Wolverhampton,West Midlands,52.56572,-2.116409,200,OK
53.506415,-1.067279,DN4 6RH,Doncaster,Yorkshire and The Humber,53.506353,-1.067416,200,OK
51.618116,-1.238311,OX11 7YE,South Oxfordshire,South East,51.618116,-1.238311,200,OK
54.358514,-1.436906,,,,,,200,OK
52.058235,-0.8441,MK11 1DD,Milton Keynes,South East,52.058235,-0.8441,200,OK
51.582426,-0.202166,NW11 0HH,Barnet,London,51.582106,-0.201818,200,OK
55.8626,-4.026069,ML5 3EH,North Lanarkshire,,55.8626,-4.026069,200,OK
53.161955,-2.221778,CW12 4GA,Cheshire East,North West,53.161954,-2.221777,200,OK
51.457425,-0.328152,TW1 1JB,Richmond upon Thames,London,51.457425,-0.328152,200,OK
54.146199,-6.311208,BT34 2FL,"Newry, Mourne and Down",,54.146199,-6.311208,200,OK
53.269384,-2.54487,CW8 4JH,Cheshire West and Chester,North West,53.269384,-2.54487,200,OK
53.36103,-3.029259,CH63 5NT,Wirral,North West,53.360706,-3.029267,200,OK
54.281879,-0.410722,YO12 7BQ,North Yorkshire,Yorkshire and The Humber,54.281879,-0.410722,200,OK
57.722497,-3.280139,IV31 6NT,Moray,,57.722497,-3.280139,200,OK
53.260652,-1.404896,S43 1RD,Chesterfield,East Midlands,53.260849,-1.404712,200,OK
51.531757,-3.190747,CF14 5DB,Cardiff,,51.532029,-3.190466,200,OK
50.657249,-3.300612,EX9 7HZ,East Devon,South West,50.657249,-3.300612,200,OK
53.359863,-2.380438,WA14 3SB,Cheshire East,North West,53.359863,-2.380438,200,OK
52.052694,-2.704766,HR1 2SW,"Herefordshire, County of",West Midlands,52.052694,-2.704766,200,OK
51.433544,0.101837,DA15 7BH,Bexley,London,51.433706,0.10183,200,OK
55.893946,-4.618558,,,,,,200,OK
53.515959,-2.714328,WN5 7EN,Wigan,North West,53.515959,-2.714328,200,OK
54.660144,-1.561228,DL17 0RT,County Durham,North East,54.660144,-1.561228,200,OK
53.985751,-1.119191,YO30 5US,York,Yorkshire and The Humber,53.985751,-1.119191,200,OK
53.08183,-0.961657,NG25 0AT,Newark and Sherwood,East Midlands,53.08183,-0.961657,200,OK
55.015753,-1.65813,NE3 2YT,Newcastle upon Tyne,North East,55.015753,-1.65813,200,OK
53.184279,-2.636854,CW6 9DX,Cheshire West and Chester,North West,53.184279,-2.636854,200,OK
51.753992,-1.25773,OX1 3AJ,Oxford,South East,51.753998,-1.257784,200,OK
53.830892,-3.049965,FY1 2ND,Blackpool,North West,53.831099,-3.050355,200,OK
53.779036,-1.525441,LS10 2PR,Leeds,Yorkshire and The Humber,53.779036,-1.525441,200,OK
52.401747,-0.734399,NN16 8FE,North Northamptonshire,East Midlands,52.401746,-0.734252,200,OK
55.950025,-4.92795,PA23 7BF,Argyll and Bute,,55.950025,-4.92795,200,OK
54.577212,-5.958036,BT12 6RD,Belfast,,54.57753,-5.958252,200,OK
55.794911,-4.005737,ML1 3LG,North Lanarkshire,,55.794911,-4.005737,200,OK
54.566511,-5.912786,BT8 7AZ,Belfast,,54.566511,-5.912786,200,OK
51.493785,-0.131192,SW1P 4BL,Westminster,London,51.493785,-0.131192,200,OK
55.955974,-3.223847,EH4 2HW,City of Edinburgh,,55.955974,-3.223847,200,OK
53.798568,-2.726318,PR2 3DZ,Preston,North West,53.798568,-2.726318,200,OK
51.366175,-1.410876,RG20 0BA,Basingstoke and Deane,South East,51.365949,-1.410649,200,OK
50.932493,-1.428479,SO16 6QT,Southampton,South East,50.932493,-1.428479,200,OK
50.409212,-4.215504,PL12 6JS,Cornwall,South West,50.409212,-4.215504,200,OK
51.614747,-1.797989,SN26 8BY,Swindon,South West,51.614747,-1.797989,200,OK
51.330863,-0.766623,GU15 9AU,Surrey Heath,South East,51.330863,-0.766623,200,OK
55.968765,-3.182401,EH6 5BA,City of Edinburgh,,55.968765,-3.182401,200,OK
53.453486,-2.754074,WA10 4HS,St. Helens,North West,53.453486,-2.754074,200,OK
51.304914,-0.340916,KT22 7LH,Mole Valley,South East,51.304914,-0.340916,200,OK
51.485406,-0.09338,SE17 2NJ,Southwark,London,51.485128,-0.093323,200,OK
51.53846,-3.175133,CF14 0SW,Cardiff,,51.53846,-3.175133,200,OK
51.617924,-3.178341,NP11 7HF,Caerphilly,,51.617924,-3.178341,200,OK
50.86725,-1.041188,PO7 5XT,Havant,South East,50.86725,-1.041188,200,OK
53.761034,-2.495776,BB1 8JR,Blackburn with Darwen,North West,53.761034,-2.495776,200,OK
50.684626,-1.52849,PO40 9EB,Isle of Wight,South East,50.684626,-1.52849,200,OK
53.352133,-3.018528,CH63 2LH,Wirral,North West,53.351879,-3.018808,200,OK
51.768481,-0.58935,HP4 3RD,Dacorum,East of England,51.768481,-0.58935,200,OK
53.64751,-1.783636,HD1 1LY,Kirklees,Yorkshire and The Humber,53.647546,-1.783666,200,OK
53.45361,-2.955357,L9 2AP,Liverpool,North West,53.45361,-2.955357,200,OK
55.934195,-4.039363,G68 9EF,North Lanarkshire,,55.934195,-4.039363,200,OK
51.555629,-0.105001,N5 1TS,Islington,London,51.555629,-0.105001,200,OK
51.705164,-3.902753,SA6 5ST,Swansea,,51.705301,-3.902935,200,OK
52.371485,-3.844422,SY23 3JN,Ceredigion,,52.371485,-3.844422,200,OK
53.79394,-1.744933,BD1 5HT,Bradford,Yorkshire and The Humber,53.794066,-1.744826,200,OK
51.473016,-0.126397,SW4 6RS,Lambeth,London,51.473016,-0.126397,200,OK
51.079228,-0.804649,GU30 7NS,East Hampshire,South East,51.079228,-0.804649,200,OK
50.715579,-3.526008,EX2 4DR,Exeter,South West,50.715579,-3.526008,200,OK
51.556794,-1.753588,SN3 2NG,Swindon,South West,51.556794,-1.753588,200,OK
55.652318,-4.451601,KA3 6AW,East Ayrshire,,55.652407,-4.451543,200,OK
53.598845,-1.022358,DN7 5EH,Doncaster,Yorkshire and The Humber,53.598845,-1.022358,200,OK
53.929049,-1.403383,LS22 6GR,Leeds,Yorkshire and The Humber,53.929049,-1.403353,200,OK
51.316223,-2.207843,BA14 7AP,Wiltshire,South West,51.316259,-2.2079,200,OK
53.151206,-0.22576,LN10 6UD,East Lindsey,East Midlands,53.151206,-0.22576,200,OK
54.956367,-1.719409,NE21 5LG,Gateshead,North East,54.956367,-1.719409,200,OK
53.45755,-2.229626,M14 4PJ,Manchester,North West,53.45755,-2.229626,200,OK
53.621739,-2.210606,OL11 5SB,Rochdale,North West,53.621739,-2.210606,200,OK
53.646228,-2.096247,OL15 9BN,Rochdale,North West,53.646228,-2.096247,200,OK
54.65202,-1.671897,DL14 6EA,County Durham,North East,54.65202,-1.671897,200,OK
52.31101,-2.075196,B60 4DW,Bromsgrove,West Midlands,52.31101,-2.075196,200,OK
52.355471,0.036489,PE28 3RB,Huntingdonshire,East of England,52.355471,0.036489,200,OK
57.160937,-2.216475,AB15 8EG,Aberdeen City,,57.160937,-2.216475,200,OK
51.881958,-2.219325,GL2 0ET,Gloucester,South West,51.881984,-2.219441,200,OK
53.46348,-1.990352,SK14 8JA,Tameside,North West,53.46348,-1.990352,200,OK
57.134839,-2.142987,AB15 7YR,Aberdeen City,,57.134839,-2.142987,200,OK
55.862458,-4.256012,G2 1PS,Glasgow City,,55.862458,-4.256012,200,OK
53.375396,-3.031109,CH42 7JW,Wirral,North West,53.375403,-3.031335,200,OK
50.950343,-1.291984,SO50 7FH,Eastleigh,South East,50.950343,-1.291984,200,OK
50.739089,-1.655312,BH25 7AW,New Forest,South East,50.739089,-1.655312,200,OK
53.384558,-0.204286,LN8 6AQ,East Lindsey,East Midlands,53.384558,-0.204286,200,OK
52.825938,-1.314111,DE74 2BU,North West Leicestershire,East Midlands,52.825938,-1.314111,200,OK
52.162514,0.93389,IP14 3AR,Mid Suffolk,East of England,52.162099,0.934301,200,OK
53.768184,-1.545483,LS11 5TH,Leeds,Yorkshire and The Humber,53.768184,-1.545483,200,OK
53.007516,0.080309,PE22 0BG,Boston,East Midlands,53.007516,0.080309,200,OK
51.402495,-0.164964,CR4 4NS,Merton,London,51.402495,-0.164964,200,OK
53.756076,-1.495882,LS26 0PT,Leeds,Yorkshire and The Humber,53.756076,-1.495882,200,OK
53.481175,-2.242563,M2 4NG,Manchester,North West,53.481031,-2.242653,200,OK
52.46094,-1.955921,B17 9SS,Birmingham,West Midlands,52.46094,-1.955921,200,OK
51.330812,-2.965728,BS23 3RT,North Somerset,South West,51.330812,-2.965728,200,OK
50.889225,-1.047376,PO7 7LQ,Winchester,South East,50.889225,-1.047376,200,OK
51.606554,-0.115662,N22 8NW,Haringey,London,51.606554,-0.115662,200,OK
56.266674,-3.87881,FK15 9QA,Perth and Kinross,,56.266674,-3.87881,200,OK
52.203611,0.123748,CB2 3AP,Cambridge,East of England,52.203611,0.123748,200,OK
51.471424,-2.564682,BS5 6NT,"Bristol, City of",South West,51.471424,-2.564682,200,OK
51.501188,-0.06755,SE16 4TQ,Southwark,London,51.501188,-0.06755,200,OK
52.44855,-2.049982,B63 3AL,Dudley,West Midlands,52.448442,-2.049967,200,OK
53.480262,-2.959814,L30 6TU,Sefton,North West,53.480751,-2.959388,200,OK
52.043823,-1.14039,NN13 6QQ,West Northamptonshire,East Midlands,52.043823,-1.14039,200,OK
50.627511,-4.328961,PL15 9LH,Cornwall,South West,50.627511,-4.328961,200,OK
51.514537,-0.881528,RG9 3NS,South Oxfordshire,South East,51.514537,-0.881528,200,OK
51.314672,-2.140949,BA14 6EH,Wiltshire,South West,51.314672,-2.140949,200,OK
53.369836,-1.998397,SK22 4BN,High Peak,East Midlands,53.369836,-1.998397,200,OK
51.484042,0.102199,SE2 0XL,Greenwich,London,51.484042,0.102199,200,OK
53.281041,-2.915117,CH65 8HN,Cheshire West and Chester,North West,53.281041,-2.915117,200,OK
57.120302,-2.144879,AB10 7BB,Aberdeen City,,57.120293,-2.145011,200,OK
51.290005,-0.726634,GU16 6BQ,Surrey Heath,South East,51.290005,-0.726634,200,OK
55.931285,-3.121059,EH16 4TT,City of Edinburgh,,55.931285,-3.121059,200,OK
52.198728,0.428557,CB8 9SG,East Cambridgeshire,East of England,52.198728,0.428557,200,OK
52.635949,-1.124491,LE1 1TG,Leicester,East Midlands,52.636047,-1.124474,200,OK
51.227574,0.338913,TN11 0HT,Tonbridge and Malling,South East,51.227574,0.338913,200,OK
50.644772,-2.452271,DT3 6RD,Dorset,South West,50.644772,-2.452271,200,OK
53.593756,-2.180402,OL11 3EA,Rochdale,North West,53.593756,-2.180402,200,OK
55.56458,-4.639955,KA10 6UN,South Ayrshire,,55.564579,-4.640003,200,OK
51.503125,-3.191787,CF14 3ND,Cardiff,,51.503494,-3.191906,200,OK
53.396692,-2.263527,M22 8AT,Manchester,North West,53.396692,-2.263527,200,OK
54.446186,-6.689924,BT71 7SL,Mid Ulster,,54.446186,-6.689924,200,OK
54.576455,-1.245039,TS1 2XP,Middlesbrough,North East,54.575865,-1.244956,200,OK
52.576573,-1.968968,WS1 2NJ,Walsall,West Midlands,52.576573,-1.968968,200,OK
53.244928,-2.542266,CW8 1PX,Cheshire West and Chester,North West,53.244928,-2.542266,200,OK
53.35044,-1.987913,SK23 7QR,High Peak,East Midlands,53.350062,-1.987642,200,OK
50.652628,-4.628712,PL32 9XR,Cornwall,South West,50.652628,-4.628712,200,OK
55.867988,-4.230965,G21 2NN,Glasgow City,,55.867988,-4.230965,200,OK
53.502994,-1.344143,S63 7RX,Rotherham,Yorkshire and The Humber,53.503165,-1.344037,200,OK
51.536481,-0.193206,NW6 5TJ,Brent,London,51.536471,-0.193711,200,OK
51.268437,0.806589,ME13 0BN,Swale,South East,51.268437,0.806589,200,OK
53.700963,-2.284648,BB4 7LY,Rossendale,North West,53.700951,-2.284677,200,OK
55.588886,-4.497573,KA1 4NN,East Ayrshire,,55.588819,-4.498168,200,OK
52.181119,-2.264525,WR2 5TL,Malvern Hills,West Midlands,52.181119,-2.264525,200,OK
51.566104,0.63957,SS9 4SN,Southend-on-Sea,East of England,51.566104,0.63957,200,OK
51.355989,-0.214722,SM3 8RZ,Sutton,London,51.355989,-0.214722,200,OK
50.801069,0.068686,BN9 0NS,Lewes,South East,50.801069,0.068686,200,OK
51.110653,-3.01273,TA5 2FN,Somerset,South West,51.110559,-3.013185,200,OK
55.834333,-4.490661,PA5 9HA,Renfrewshire,,55.834333,-4.490661,200,OK
54.897512,-1.489061,NE38 8QU,Sunderland,North East,54.898195,-1.489239,200,OK
51.118747,-1.325044,SO21 3EE,Winchester,South East,51.118747,-1.325044,200,OK
51.213276,-0.79305,GU9 8AH,Waverley,South East,51.213138,-0.792964,200,OK
51.883684,0.191152,CM23 5QJ,Uttlesford,East of England,51.883684,0.191152,200,OK
54.99917,-1.716157,NE5 1HR,Newcastle upon Tyne,North East,54.999178,-1.715672,200,OK
53.300484,-1.468279,S18 1SF,North East Derbyshire,East Midlands,53.300493,-1.468294,200,OK
51.910008,-1.161643,OX26 3ZP,Cherwell,South East,51.910027,-1.161672,200,OK
52.546971,-1.931061,B43 6PN,Sandwell,West Midlands,52.546971,-1.931061,200,OK
52.980279,-3.377848,LL21 0BD,Denbighshire,,52.980279,-3.377848,200,OK
52.07269,-1.351233,OX16 1PX,Cherwell,South East,52.072672,-1.351218,200,OK
55.784516,-3.917169,ML2 7YL,North Lanarkshire,,55.784516,-3.917169,200,OK
50.847625,-1.789363,BH24 1JD,New Forest,South East,50.847625,-1.789363,200,OK
56.070525,-4.326818,G63 0QJ,Stirling,,56.070525,-4.326818,200,OK
51.512535,-0.156827,W1K 7BA,Westminster,London,51.512517,-0.156702,200,OK
51.266471,1.203842,,,,,,200,OK
52.263206,-2.168778,WR9 0RF,Wychavon,West Midlands,52.263206,-2.168778,200,OK
52.44359,-1.87898,B13 9PB,Birmingham,West Midlands,52.443635,-1.879421,200,OK
51.713277,-0.044815,EN8 0EX,Broxbourne,East of England,51.713277,-0.044815,200,OK
51.594518,-0.554004,SL9 8JP,Buckinghamshire,South East,51.594518,-0.554004,200,OK
55.897515,-4.38715,G81 1DJ,West Dunbartonshire,,55.897515,-4.38715,200,OK
51.279667,-1.072329,,,,,,200,OK
52.551879,-1.976772,B71 3NP,Sandwell,West Midlands,52.551879,-1.976772,200,OK
51.52112,0.61096,SS8 8LH,Castle Point,East of England,51.52112,0.61096,200,OK
51.307805,0.21542,TN15 6SH,Sevenoaks,South East,51.307805,0.21542,200,OK
53.547369,-2.103508,OL1 3QT,Oldham,North West,53.547369,-2.103508,200,OK
57.204528,-3.835205,PH22 1UJ,Highland,,57.204528,-3.835205,200,OK
50.830253,-0.422155,BN13 3YR,Worthing,South East,50.830245,-0.42213,200,OK
50.933992,0.247848,TN21 0HJ,Wealden,South East,50.933992,0.247848,200,OK
53.14461,-1.544913,DE4 3HR,Derbyshire Dales,East Midlands,53.14461,-1.544913,200,OK
53.345032,-3.007844,CH63 3HL,Wirral,North West,53.345181,-3.007217,200,OK
51.552086,-0.591798,SL2 4DE,Buckinghamshire,South East,51.552086,-0.591798,200,OK
51.506208,-0.147342,W1J 7LY,Westminster,London,51.506208,-0.147342,200,OK
53.487575,-0.346969,LN7 6HX,West Lindsey,East Midlands,53.487575,-0.346969,200,OK
51.99195,-1.077187,MK18 4AD,Cherwell,South East,51.99195,-1.077187,200,OK
52.028923,0.75901,CO10 0YH,Babergh,East of England,52.028923,0.75901,200,OK
53.981227,-1.112729,YO30 5TH,York,Yorkshire and The Humber,53.981227,-1.112729,200,OK
55.654722,-3.18927,EH45 8DD,Scottish Borders,,55.654722,-3.18927,200,OK
50.742343,-3.466485,EX1 3SX,Exeter,South West,50.742343,-3.466485,200,OK
54.94247,-1.902402,NE43 7PD,Northumberland,North East,54.94247,-1.902402,200,OK
52.392005,-0.990821,NN6 6BY,West Northamptonshire,East Midlands,52.392005,-0.990821,200,OK
52.295265,-0.615302,NN10 6EH,North Northamptonshire,East Midlands,52.295265,-0.615302,200,OK
53.458394,-2.24025,M14 4GN,Manchester,North West,53.458394,-2.24025,200,OK
52.28962,-0.850038,NN3 7UD,West Northamptonshire,East Midlands,52.289583,-0.849995,200,OK
53.648983,-1.782933,HD1 1EH,Kirklees,Yorkshire and The Humber,53.648983,-1.782933,200,OK
50.717103,-3.469706,EX2 7LJ,Exeter,South West,50.717103,-3.469706,200,OK
51.406943,-1.265647,RG18 3FY,West Berkshire,South East,51.406943,-1.265647,200,OK
50.732833,-0.782652,PO20 0HQ,Chichester,South East,50.732833,-0.782652,200,OK
53.396091,-2.23271,SK8 4DD,Stockport,North West,53.396091,-2.23271,200,OK
51.374777,-0.263303,KT4 7AG,Epsom and Ewell,South East,51.374777,-0.263303,200,OK
51.533335,-3.023548,,,,,,200,OK
51.517779,-0.074617,E1 7NE,Tower Hamlets,London,51.517703,-0.074291,200,OK
51.032181,-1.339579,SO21 2AZ,Winchester,South East,51.03138,-1.339462,200,OK
52.898473,-1.304692,DE72 3AF,Erewash,East Midlands,52.898473,-1.304692,200,OK
53.858017,-2.229158,BB9 6QY,Pendle,North West,53.858017,-2.229158,200,OK
58.595021,-3.516205,KW14 8AU,Highland,,58.595612,-3.515964,200,OK
51.453933,-0.963107,RG1 4QE,Reading,South East,51.453933,-0.963107,200,OK
58.511594,-3.48877,KW12 6WB,Highland,,58.511594,-3.48877,200,OK
51.467955,-0.06393,SE15 3SZ,Southwark,London,51.467885,-0.064048,200,OK
52.045035,-0.83547,MK11 4AA,Milton Keynes,South East,52.045035,-0.83547,200,OK
52.473714,-1.872753,B10 0SE,Birmingham,West Midlands,52.473714,-1.872753,200,OK
52.12516,-2.704814,HR1 3FD,"Herefordshire, County of",West Midlands,52.124655,-2.70501,200,OK
55.832333,-4.28542,G41 3UP,Glasgow City,,55.832333,-4.28542,200,OK
52.335562,-0.552312,NN9 6BZ,North Northamptonshire,East Midlands,52.335562,-0.552312,200,OK
53.999378,-1.549789,HG1 2LE,North Yorkshire,Yorkshire and The Humber,53.999079,-1.549258,200,OK
54.591167,-5.9656,BT12 6AN,Belfast,,54.591167,-5.9656,200,OK
53.3722,-1.320061,S26 3UT,Rotherham,Yorkshire and The Humber,53.372218,-1.320031,200,OK
51.250278,-2.432241,BA11 3RG,Somerset,South West,51.250278,-2.432241,200,OK
53.54935,-0.658536,DN17 2RQ,North Lincolnshire,Yorkshire and The Humber,53.54935,-0.658536,200,OK
52.418381,-1.846803,B28 0NE,Birmingham,West Midlands,52.418381,-1.846803,200,OK
52.628504,-1.340934,LE9 9LP,Hinckley and Bosworth,East Midlands,52.628504,-1.340934,200,OK
53.794638,-1.370846,LS25 2LJ,Leeds,Yorkshire and The Humber,53.794638,-1.370846,200,OK
54.691609,-1.620663,DL16 7BY,County Durham,North East,54.691609,-1.620663,200,OK
51.537192,0.682257,SS0 8EZ,Southend-on-Sea,East of England,51.537492,0.682923,200,OK
53.751378,-0.348429,HU3 1XL,"Kingston upon Hull, City of",Yorkshire and The Humber,53.751351,-0.3484,200,OK
52.924081,-1.390867,DE21 7DH,Derby,East Midlands,52.924107,-1.390852,200,OK
51.446564,-2.55682,,,,,,200,OK
51.581164,-0.198435,NW11 7TH,Barnet,London,51.581238,-0.198335,200,OK
53.791623,-1.528821,LS9 8EE,Leeds,Yorkshire and The Humber,53.791648,-1.52887,200,OK
53.439172,-2.237718,M20 1GJ,Manchester,North West,53.439172,-2.237718,200,OK
52.526473,-1.837422,B23 6QU,Birmingham,West Midlands,52.526491,-1.837452,200,OK
54.624001,-3.559041,CA14 5DN,Cumberland,North West,54.624001,-3.559041,200,OK
51.456933,-0.974035,RG1 1DX,Reading,South East,51.456933,-0.974035,200,OK
53.005559,0.052715,,,,,,200,OK
57.584127,-3.875512,IV12 4RL,Highland,,57.58354,-3.875097,200,OK
51.103123,-0.860637,GU35 9QT,East Hampshire,South East,51.103123,-0.860637,200,OK
51.220172,1.396401,CT14 9AF,Dover,South East,51.220172,1.396401,200,OK
51.282884,1.089582,CT1 1DJ,Canterbury,South East,51.282884,1.089582,200,OK
51.409255,0.308241,DA13 9NB,Dartford,South East,51.409255,0.308241,200,OK
53.289569,-2.533891,CW9 6QQ,Cheshire West and Chester,North West,53.289569,-2.533891,200,OK
52.221956,-0.13774,PE19 6TF,South Cambridgeshire,East of England,52.221956,-0.13774,200,OK
50.79737,-3.16175,,,,,,200,OK
51.072385,-4.045217,EX32 9DL,North Devon,South West,51.072017,-4.0457,200,OK
55.846967,-4.362833,G52 2PY,Glasgow City,,55.846967,-4.362833,200,OK
51.787237,-1.520548,OX29 0YA,West Oxfordshire,South East,51.787237,-1.520548,200,OK
50.816651,-0.116359,BN2 1FA,Brighton and Hove,South East,50.816651,-0.116359,200,OK
51.873647,-0.418271,LU1 3GE,Luton,East of England,51.873647,-0.418271,200,OK
52.529361,-2.427848,WV16 5HJ,Shropshire,West Midlands,52.529154,-2.427993,200,OK
54.413038,-6.460331,BT62 3QW,"Armagh City, Banbridge and Craigavon",,54.413038,-6.460331,200,OK
53.433176,-2.430735,M44 5DL,Salford,North West,53.433176,-2.430735,200,OK
53.67367,-1.348036,WF7 5DH,Wakefield,Yorkshire and The Humber,53.67367,-1.348036,200,OK
52.015588,-0.577489,MK43 0TY,Central Bedfordshire,East of England,52.015588,-0.577489,200,OK
53.400965,-0.82481,DN10 4RP,Bassetlaw,East Midlands,53.400965,-0.82481,200,OK
53.066914,-2.448321,CW2 5BL,Cheshire East,North West,53.066914,-2.448321,200,OK
51.624475,-0.394557,WD19 6JW,Three Rivers,East of England,51.624525,-0.394266,200,OK
51.54396,-3.367865,CF72 8HD,Rhondda Cynon Taf,,51.54396,-3.367865,200,OK
51.752815,-0.334898,AL1 3LQ,St Albans,East of England,51.752815,-0.334898,200,OK
52.950909,-1.501716,DE22 2LN,Derby,East Midlands,52.950909,-1.501716,200,OK
51.825516,-1.378599,OX29 8JZ,West Oxfordshire,South East,51.825322,-1.379298,200,OK
51.80639,-2.269384,GL2 4DR,Stroud,South West,51.80639,-2.269384,200,OK
50.992585,-1.795189,SP5 3NW,Wiltshire,South West,50.992567,-1.794904,200,OK
54.605149,-1.041148,TS10 3RL,Redcar and Cleveland,North East,54.605302,-1.041144,200,OK
51.039204,-0.027766,RH17 7AY,Mid Sussex,South East,51.039204,-0.027766,200,OK
51.294773,-0.745119,GU14 7BT,Rushmoor,South East,51.294773,-0.745119,200,OK
51.717051,-0.350616,AL2 2RP,St Albans,East of England,51.717051,-0.350616,200,OK
50.625127,-3.412376,EX8 1SD,East Devon,South West,50.625127,-3.412376,200,OK
52.186873,0.015833,CB23 7DS,South Cambridgeshire,East of England,52.186437,0.015594,200,OK
52.291404,-1.532769,CV32 4QS,Warwick,West Midlands,52.291404,-1.532769,200,OK
53.484776,-2.23957,M4 2AF,Manchester,North West,53.484747,-2.239733,200,OK
52.697811,-2.014207,WS11 6LU,Cannock Chase,West Midlands,52.697631,-2.014814,200,OK
51.373391,1.314393,CT7 9UG,Thanet,South East,51.373391,1.314393,200,OK
51.422757,-0.186461,SW19 8SG,Merton,London,51.422757,-0.186461,200,OK
51.517148,-0.148829,W1G 9YR,Westminster,London,51.517148,-0.148829,200,OK
56.487704,-2.89493,DD4 8UZ,Dundee City,,56.487704,-2.89493,200,OK
51.520224,-0.067984,E1 5HH,Tower Hamlets,London,51.520224,-0.067984,200,OK
55.449326,-2.727132,TD9 8SZ,Scottish Borders,,55.449326,-2.727132,200,OK
52.135557,-0.448458,MK40 3RZ,Bedford,East of England,52.135557,-0.448458,200,OK
51.051462,-2.015585,SP3 5NJ,Wiltshire,South West,51.051462,-2.015585,200,OK
57.70489,-3.436744,IV30 5RS,Moray,,57.705173,-3.436858,200,OK
54.618263,-6.208107,BT29 4HE,Antrim and Newtownabbey,,54.618263,-6.208107,200,OK
51.565708,0.672146,SS2 6UD,Southend-on-Sea,East of England,51.565708,0.672146,200,OK
52.294839,-0.688238,NN8 2RA,North Northamptonshire,East Midlands,52.294839,-0.688238,200,OK
53.636147,-1.767905,HD5 8LQ,Kirklees,Yorkshire and The Humber,53.636147,-1.767905,200,OK
56.491069,-2.941685,DD4 9HH,Dundee City,,56.491069,-2.941685,200,OK
53.522918,-2.246618,M8 4LF,Manchester,North West,53.522909,-2.246633,200,OK
51.757774,0.120947,CM18 6JN,Harlow,East of England,51.757774,0.120947,200,OK
52.353411,-0.348173,PE28 0YT,Huntingdonshire,East of England,52.353576,-0.347282,200,OK
57.560806,-2.997116,,,,,,200,OK
50.90117,-1.39085,SO14 5BW,Southampton,South East,50.901017,-1.390772,200,OK
51.376993,-0.280663,KT5 9PA,Kingston upon Thames,London,51.3774,-0.280883,200,OK
53.462225,-2.075044,SK14 4BH,Tameside,North West,53.462225,-2.075044,200,OK
51.281378,-2.467044,BA3 3GE,Bath and North East Somerset,South West,51.281405,-2.466958,200,OK
53.078454,-4.237743,LL54 7AH,Gwynedd,,53.078454,-4.237743,200,OK
54.123055,-1.186269,YO61 3QL,North Yorkshire,Yorkshire and The Humber,54.123055,-1.186269,200,OK
53.699026,-1.851651,HX3 9EE,Calderdale,Yorkshire and The Humber,53.699026,-1.851651,200,OK
51.561747,0.27078,RM14 1EH,Havering,London,51.561747,0.27078,200,OK
53.233503,-0.507337,LN2 5QJ,Lincoln,East Midlands,53.233503,-0.507337,200,OK
52.005001,-0.718166,MK1 9GU,Milton Keynes,South East,52.005001,-0.718166,200,OK
52.261234,-0.858127,NN3 2BB,West Northamptonshire,East Midlands,52.261234,-0.858127,200,OK
51.422652,-0.96334,RG2 8RG,Reading,South East,51.422652,-0.96334,200,OK
51.336278,-0.748192,GU15 3AA,Surrey Heath,South East,51.336278,-0.748192,200,OK
55.84684,-4.294052,G41 5PR,Glasgow City,,55.84684,-4.294052,200,OK
52.823204,-1.055969,LE12 6TL,Rushcliffe,East Midlands,52.823204,-1.055969,200,OK
50.898383,-1.406699,SO14 2AS,Southampton,South East,50.898383,-1.406699,200,OK
53.489304,-2.349933,M30 9QH,Salford,North West,53.489304,-2.349933,200,OK
53.29677,-3.078728,,,,,,200,OK
57.478734,-4.224493,IV1 1PP,Highland,,57.478753,-4.224577,200,OK
51.882238,-2.098802,GL51 3BZ,Cheltenham,South West,51.882229,-2.098947,200,OK
51.517287,-1.729373,SN4 0PA,Swindon,South West,51.517287,-1.729373,200,OK
57.656639,-3.405308,IV30 8XW,Moray,,57.656229,-3.404519,200,OK
51.003869,-0.938263,GU32 9BQ,East Hampshire,South East,51.003869,-0.938263,200,OK
50.764017,0.275215,BN20 7EB,Eastbourne,South East,50.764017,0.275215,200,OK
52.380332,-1.867208,B47 6HE,Bromsgrove,West Midlands,52.380332,-1.867208,200,OK
53.018197,-2.163589,ST1 3NH,Stoke-on-Trent,West Midlands,53.018197,-2.163589,200,OK
54.715891,-7.471233,BT78 4LW,Derry City and Strabane,,54.715891,-7.471233,200,OK
52.007763,0.905505,CO6 5AS,Babergh,East of England,52.007763,0.905505,200,OK
51.238488,-0.578215,GU1 4TL,Guildford,South East,51.238488,-0.578215,200,OK
53.282467,-2.94204,CH66 3RY,Cheshire West and Chester,North West,53.282467,-2.94204,200,OK
53.500919,-2.352109,M27 0DZ,Salford,North West,53.500919,-2.352109,200,OK
51.386494,-0.130105,CR0 3DX,Croydon,London,51.386494,-0.130105,200,OK
51.6272,-4.033415,SA2 7UZ,Swansea,,51.6272,-4.033415,200,OK
53.966052,-1.093007,YO30 6AB,York,Yorkshire and The Humber,53.96612,-1.092502,200,OK
51.582351,-0.227356,NW4 3LN,Barnet,London,51.582244,-0.227418,200,OK
55.972975,-4.582625,G82 4PH,West Dunbartonshire,,55.972975,-4.582625,200,OK
50.73585,-1.767886,BH23 1AR,"Bournemouth, Christchurch and Poole",South West,50.735652,-1.767716,200,OK
53.796844,-1.436762,LS15 8PU,Leeds,Yorkshire and The Humber,53.796844,-1.436762,200,OK
53.376385,-1.501697,S10 3DD,Sheffield,Yorkshire and The Humber,53.376385,-1.501697,200,OK
54.691739,-1.228969,TS26 0HS,Hartlepool,North East,54.691739,-1.228969,200,OK
50.998883,-1.468407,SO51 7UQ,Test Valley,South East,50.999025,-1.46792,200,OK
50.396759,-3.504531,TQ5 9TA,Torbay,South West,50.396759,-3.504531,200,OK
51.332601,-0.742436,GU15 2LA,Surrey Heath,South East,51.332601,-0.742436,200,OK
52.6319,1.342699,NR7 0JR,Broadland,East of England,52.632251,1.342643,200,OK
51.565065,-0.063891,N16 6AJ,Hackney,London,51.565065,-0.063891,200,OK
51.528028,-0.172291,NW8 7HA,Westminster,London,51.528028,-0.172291,200,OK
53.520909,-2.216291,M9 8BT,Manchester,North West,53.5209,-2.216306,200,OK
53.435955,-1.019672,DN10 6PE,Doncaster,Yorkshire and The Humber,53.435955,-1.019672,200,OK
52.337715,-0.656146,NN9 5LU,North Northamptonshire,East Midlands,52.337715,-0.656146,200,OK
55.906415,-3.280686,EH14 5BN,City of Edinburgh,,55.906415,-3.280686,200,OK
53.610321,-2.155293,OL11 1DR,Rochdale,North West,53.610337,-2.155336,200,OK
53.012467,-0.963651,NG14 7JH,Newark and Sherwood,East Midlands,53.012467,-0.963651,200,OK
53.755413,-1.784008,BD6 2QP,Bradford,Yorkshire and The Humber,53.755187,-1.783387,200,OK
54.02509,-2.795307,LA1 4NS,Lancaster,North West,54.02509,-2.795307,200,OK
53.00294,-2.177419,ST4 2RP,Stoke-on-Trent,West Midlands,53.00294,-2.177419,200,OK
51.366593,0.079059,BR6 9RH,Bromley,London,51.366593,0.079059,200,OK
55.82833,-3.820527,ML7 4JS,North Lanarkshire,,55.82833,-3.820527,200,OK
51.506166,-0.675374,SL6 0DN,Buckinghamshire,South East,51.506166,-0.675374,200,OK
52.903936,-1.382393,DE72 3LH,Erewash,East Midlands,52.903936,-1.382393,200,OK
53.32401,-1.347386,S20 8GJ,Sheffield,Yorkshire and The Humber,53.32401,-1.347386,200,OK
51.795363,-0.802537,HP21 9GT,Buckinghamshire,South East,51.794897,-0.80268,200,OK
51.755226,-1.201744,OX3 8NY,Oxford,South East,51.755226,-1.201744,200,OK
53.371317,-1.43334,S2 1WY,Sheffield,Yorkshire and The Humber,53.37175,-1.433635,200,OK
53.517969,-0.109833,DN37 0UJ,North East Lincolnshire,Yorkshire and The Humber,53.517969,-0.109833,200,OK
52.655473,-2.039265,WS6 7LL,South Staffordshire,West Midlands,52.655473,-2.039265,200,OK
53.039982,-2.997149,LL13 7DR,Wrexham,,53.040127,-2.996988,200,OK
51.846225,-1.35397,OX20 1UF,West Oxfordshire,South East,51.846403,-1.354168,200,OK
51.432674,-0.104525,SE27 0JW,Lambeth,London,51.432674,-0.104525,200,OK
50.782074,-2.997577,EX13 5AA,East Devon,South West,50.781849,-2.997452,200,OK
50.883228,-1.016139,PO7 8LQ,Havant,South East,50.883228,-1.016139,200,OK
52.623617,1.490376,NR13 4AD,Broadland,East of England,52.62366,1.490415,200,OK
51.506464,-0.504242,SL0 9AD,Buckinghamshire,South East,51.506464,-0.504242,200,OK
51.531192,0.110153,IG11 0AE,Barking and Dagenham,London,51.531169,0.109388,200,OK
50.890254,-1.045647,PO7 7PU,Havant,South East,50.890254,-1.045647,200,OK
51.32892,0.804094,ME9 9SY,Swale,South East,51.32892,0.804094,200,OK
50.978436,-3.228029,TA21 8LU,Somerset,South West,50.978503,-3.228028,200,OK
50.930941,-1.3988,SO17 1RP,Southampton,South East,50.930941,-1.3988,200,OK
51.615105,-0.426404,HA6 2AJ,Hillingdon,London,51.615105,-0.426404,200,OK
53.782396,-2.238957,BB11 2HZ,Burnley,North West,53.782396,-2.238957,200,OK
51.109139,-0.215508,RH11 8HT,Crawley,South East,51.109139,-0.215508,200,OK
51.513947,-0.203797,W11 2DX,Kensington and Chelsea,London,51.513868,-0.203945,200,OK
51.671166,-0.796495,HP14 4XN,Buckinghamshire,South East,51.671624,-0.796483,200,OK
54.845479,-4.943012,DG9 9DW,Dumfries and Galloway,,54.845479,-4.943012,200,OK
52.521251,1.15373,NR16 1DS,South Norfolk,East of England,52.521251,1.15373,200,OK
50.83689,-0.256007,BN43 6GL,Adur,South East,50.836777,-0.255699,200,OK
51.385525,-0.073623,CR0 6HF,Croydon,London,51.385473,-0.073711,200,OK
51.784771,0.139221,CM17 0EE,Harlow,East of England,51.784771,0.139221,200,OK
51.252975,-1.618874,SP11 9TG,Wiltshire,South West,51.252975,-1.618874,200,OK
52.878205,-1.487379,DE24 9SN,Derby,East Midlands,52.877726,-1.486816,200,OK
51.51087,-3.576909,CF31 1GW,Bridgend,,51.51087,-3.576909,200,OK
51.490912,-3.165138,CF24 3HP,Cardiff,,51.490912,-3.165138,200,OK
51.322096,-2.413556,BA2 8PL,Bath and North East Somerset,South West,51.322096,-2.413556,200,OK
51.79706,-4.967091,SA61 1SA,Pembrokeshire,,51.796987,-4.967684,200,OK
51.572002,-1.792363,SN2 1NX,Swindon,South West,51.572002,-1.792363,200,OK
50.809,-0.540905,BN17 5AB,Arun,South East,50.808991,-0.540882,200,OK
54.918884,-1.74304,NE39 1PN,Gateshead,North East,54.918884,-1.74304,200,OK
51.455154,-0.167776,SW11 6HD,Wandsworth,London,51.455168,-0.168038,200,OK
50.90661,-1.494276,SO40 9FQ,New Forest,South East,50.90661,-1.494276,200,OK
51.448608,-1.058837,RG31 4HQ,West Berkshire,South East,51.448774,-1.058316,200,OK
50.714319,-1.987441,BH15 1NB,"Bournemouth, Christchurch and Poole",South West,50.714319,-1.987441,200,OK
53.91078,-1.206619,,,,,,200,OK
51.613604,-2.522483,BS35 1EU,South Gloucestershire,South West,51.613597,-2.522454,200,OK
50.499847,-4.06395,PL20 6NQ,West Devon,South West,50.499847,-4.06395,200,OK
51.663575,-1.877425,SN6 6DW,Wiltshire,South West,51.663575,-1.877425,200,OK
52.815954,-0.159956,PE11 3RD,South Holland,East Midlands,52.815954,-0.159956,200,OK
51.549631,-3.069546,NP10 8TZ,Newport,,51.549631,-3.069546,200,OK
55.864664,-4.211484,G31 3DX,Glasgow City,,55.864416,-4.21179,200,OK
55.774401,-4.039139,ML3 0XB,South Lanarkshire,,55.774401,-4.039139,200,OK
51.630698,-3.945005,SA1 6FA,Swansea,,51.630698,-3.945005,200,OK
53.504023,-2.950324,L31 7BE,Sefton,North West,53.504023,-2.950324,200,OK
53.820603,-1.445578,LS14 5HD,Leeds,Yorkshire and The Humber,53.820603,-1.445578,200,OK
51.347292,-0.800532,GU47 9DG,Bracknell Forest,South East,51.347283,-0.800518,200,OK
53.469423,-2.918442,L10 1LF,Knowsley,North West,53.469423,-2.918442,200,OK
51.592752,-3.205334,CF83 8HJ,Caerphilly,,51.592731,-3.204756,200,OK
53.776714,-0.406575,HU16 4RT,East Riding of Yorkshire,Yorkshire and The Humber,53.776714,-0.406575,200,OK
50.803221,-0.514078,BN16 2LQ,Arun,South East,50.803221,-0.514078,200,OK
52.790137,-2.075939,ST17 0EU,Stafford,West Midlands,52.790137,-2.075939,200,OK
52.245188,0.712666,IP33 1BJ,West Suffolk,East of England,52.245324,0.712571,200,OK
50.992548,0.148585,TN22 4JL,Wealden,South East,50.992518,0.148582,200,OK
52.601393,-2.820251,,,,,,200,OK
50.736401,-2.033178,BH16 5LD,Dorset,South West,50.736401,-2.033178,200,OK
51.91502,-0.199962,SG1 3RE,Stevenage,East of England,51.91502,-0.199962,200,OK
54.572761,-1.295659,TS18 2LF,Stockton-on-Tees,North East,54.572761,-1.295659,200,OK
53.53164,-1.47939,S70 5JG,Barnsley,Yorkshire and The Humber,53.53164,-1.47939,200,OK
51.637846,0.416534,CM12 0UE,Basildon,East of England,51.637846,0.416534,200,OK
52.949259,0.850102,NR23 1PY,North Norfolk,East of England,52.949259,0.850102,200,OK
52.395042,-1.952694,B38 8LT,Birmingham,West Midlands,52.395042,-1.952694,200,OK
52.176369,0.121263,CB2 9FA,Cambridge,East of England,52.176369,0.121263,200,OK
51.006696,-2.201897,SP7 8FH,Dorset,South West,51.006696,-2.201897,200,OK
52.705368,-2.746259,SY3 7EX,Shropshire,West Midlands,52.705368,-2.746259,200,OK
51.724631,0.079328,CM16 6PN,Epping Forest,East of England,51.724927,0.079327,200,OK
53.576097,-0.625716,DN16 1DT,North Lincolnshire,Yorkshire and The Humber,53.575712,-0.625834,200,OK
53.728296,-1.405955,LS26 9DA,Leeds,Yorkshire and The Humber,53.728287,-1.405955,200,OK
53.611495,-2.15661,OL11 1EU,Rochdale,North West,53.611486,-2.156867,200,OK
52.539276,-0.230864,PE7 3BL,Huntingdonshire,East of England,52.539205,-0.230851,200,OK
54.840556,-3.048976,CA5 6PN,Cumberland,North West,54.840556,-3.048976,200,OK
57.702832,-2.86158,AB56 4LL,Moray,,57.703023,-2.861332,200,OK
55.201483,-1.614751,NE61 6PR,Northumberland,North East,55.201483,-1.614751,200,OK
50.607976,-2.467718,DT4 0FE,Dorset,South West,50.608217,-2.467463,200,OK
53.363451,-1.324273,S26 4UR,Rotherham,Yorkshire and The Humber,53.363469,-1.324273,200,OK
53.632625,-1.7158,HD8 0AG,Kirklees,Yorkshire and The Humber,53.632625,-1.7158,200,OK
53.780203,-1.789587,BD7 4HW,Bradford,Yorkshire and The Humber,53.780203,-1.789587,200,OK
51.505448,-0.208988,W11 3RZ,Kensington and Chelsea,London,51.505448,-0.208988,200,OK
53.886227,-1.092727,,,,,,200,OK
52.05546,-0.76028,MK14 6NU,Milton Keynes,South East,52.055399,-0.759458,200,OK
51.494267,-3.191008,CF10 3EX,Cardiff,,51.494588,-3.190492,200,OK
51.764308,-0.226194,AL10 1GL,Welwyn Hatfield,East of England,51.76427,-0.22623,200,OK
51.563097,0.481077,SS16 4DA,Basildon,East of England,51.563097,0.481077,200,OK
52.04301,-2.962731,HR2 0SQ,"Herefordshire, County of",West Midlands,52.04301,-2.962731,200,OK
53.368664,-2.118417,SK7 6JG,Stockport,North West,53.368664,-2.118417,200,OK
50.926807,-1.349072,SO18 3QT,Eastleigh,South East,50.926897,-1.348942,200,OK
53.327138,-0.932064,DN22 6QN,Bassetlaw,East Midlands,53.327176,-0.931973,200,OK
51.549039,-0.583714,SL2 4PT,Buckinghamshire,South East,51.548523,-0.583456,200,OK
51.460184,-0.294928,TW10 6DR,Richmond upon Thames,London,51.460184,-0.294928,200,OK
51.332593,-2.204845,BA14 8RL,Wiltshire,South West,51.332279,-2.204901,200,OK
51.468453,-3.523298,CF71 7ND,Vale of Glamorgan,,51.468453,-3.523298,200,OK
52.649799,-2.449436,TF3 1SR,Telford and Wrekin,West Midlands,52.649799,-2.449436,200,OK
52.607333,-4.056153,LL36 9NT,Gwynedd,,52.607333,-4.056153,200,OK
52.58695,-0.27131,PE3 7BL,Peterborough,East of England,52.58695,-0.27131,200,OK
51.880412,-0.413787,LU1 2HN,Luton,East of England,51.880412,-0.413787,200,OK
50.918262,-0.454439,RH20 9BA,Horsham,South East,50.918262,-0.454439,200,OK
51.377729,0.506218,ME1 2HP,Medway,South East,51.377729,0.506218,200,OK
52.003856,-3.256202,LD3 0LT,Powys,,52.003856,-3.256202,200,OK
52.452643,-2.129109,DY9 7PE,Dudley,West Midlands,52.452558,-2.129059,200,OK
53.737396,-0.377785,HU3 5DE,"Kingston upon Hull, City of",Yorkshire and The Humber,53.737726,-0.37759,200,OK
51.621939,-1.703892,SN6 7QQ,Swindon,South West,51.621939,-1.703892,200,OK
52.470364,-1.923996,B15 3AF,Birmingham,West Midlands,52.470378,-1.923991,200,OK
51.830646,-1.023223,HP18 9UD,Buckinghamshire,South East,51.830646,-1.023223,200,OK
53.524369,-2.386678,M28 3LX,Salford,North West,53.524369,-2.386678,200,OK
51.531002,-1.70108,SN4 0HD,Swindon,South West,51.531002,-1.70108,200,OK
51.586497,-0.020424,E17 4QH,Waltham Forest,London,51.586471,-0.020355,200,OK
56.267603,-2.875737,KY15 5LL,Fife,,56.267595,-2.875739,200,OK
50.39631,-4.16754,PL2 2SE,Plymouth,South West,50.39631,-4.16754,200,OK
53.703148,-2.471949,BB3 1SE,Blackburn with Darwen,North West,53.703139,-2.471964,200,OK
50.912338,-1.422453,SO15 3AY,Southampton,South East,50.912461,-1.421925,200,OK
51.442356,-0.028506,SE6 4PU,Lewisham,London,51.44174,-0.028809,200,OK
57.617709,-2.704049,AB45 2BB,Aberdeenshire,,57.617709,-2.704049,200,OK
51.351491,-1.975733,SN10 3SN,Wiltshire,South West,51.351491,-1.975733,200,OK
51.923531,-0.1903,SG1 4XP,Stevenage,East of England,51.923531,-0.1903,200,OK
51.499711,-2.705853,,,,,,200,OK
57.609587,-3.613636,IV36 1PD,Moray,,57.609661,-3.613489,200,OK
51.414186,0.077939,BR7 6TL,Bromley,London,51.414303,0.078419,200,OK
51.507625,-0.341114,W7 3UB,Ealing,London,51.507625,-0.341114,200,OK
51.432544,-0.082692,SE21 8NX,Southwark,London,51.432544,-0.082692,200,OK
51.428089,-2.869261,BS21 7YG,North Somerset,South West,51.428089,-2.869261,200,OK
51.721457,-3.209044,NP12 0SJ,Caerphilly,,51.721457,-3.209044,200,OK
51.432687,-3.185968,CF64 3LN,Vale of Glamorgan,,51.43267,-3.18591,200,OK
51.628997,-3.353908,CF37 3HA,Rhondda Cynon Taf,,51.628997,-3.353908,200,OK
53.388325,-3.083553,CH43 9WQ,Wirral,North West,53.388325,-3.083553,200,OK
53.721113,-2.4658,BB3 0SX,Blackburn with Darwen,North West,53.721051,-2.465512,200,OK
51.513337,-0.155238,W1K 6AF,Westminster,London,51.513337,-0.155238,200,OK
51.446042,0.100929,DA15 8NL,Bexley,London,51.446042,0.100929,200,OK
57.570092,-3.016513,AB55 6RN,Moray,,57.570032,-3.016394,200,OK
55.00838,-3.72654,DG2 8QZ,Dumfries and Galloway,,55.00838,-3.72654,200,OK
52.483935,-1.952747,B66 4TF,Sandwell,West Midlands,52.483935,-1.952747,200,OK
52.54142,-2.088365,WV14 9DD,Dudley,West Midlands,52.54142,-2.088365,200,OK
52.289458,1.356585,IP13 8HJ,Mid Suffolk,East of England,52.289458,1.356585,200,OK
51.650455,-0.148477,EN4 0DR,Enfield,London,51.650793,-0.148247,200,OK
51.519126,-0.086582,EC2M 2AF,Islington,London,51.519034,-0.086499,200,OK
53.430949,-1.269667,S66 3RS,Rotherham,Yorkshire and The Humber,53.431076,-1.269845,200,OK
51.664826,-0.085178,EN2 0LP,Enfield,London,51.664826,-0.085178,200,OK
55.937058,-3.831469,FK1 3EQ,Falkirk,,55.937058,-3.831469,200,OK
52.771705,0.184638,PE12 9SY,South Holland,East Midlands,52.771705,0.184638,200,OK
51.526191,0.190137,RM13 8SE,Havering,London,51.526104,0.190103,200,OK
52.241222,-3.153147,LD8 2SU,Powys,,52.241222,-3.153147,200,OK
52.9406,-1.13645,NG2 3EY,Nottingham,East Midlands,52.94067,-1.135776,200,OK
53.843328,-2.200764,BB9 8HY,Pendle,North West,53.843328,-2.200764,200,OK
54.329395,-2.723929,LA9 6BJ,Westmorland and Furness,North West,54.329395,-2.723929,200,OK
56.340674,-3.535136,PH2 9BT,Perth and Kinross,,56.340674,-3.535136,200,OK
51.693637,-0.379118,WD25 9RJ,Watford,East of England,51.693637,-0.379118,200,OK
51.600777,-0.148231,N10 1HD,Barnet,London,51.600779,-0.148163,200,OK
53.767959,-1.557562,LS11 7DB,Leeds,Yorkshire and The Humber,53.767959,-1.557562,200,OK
51.513995,-3.168667,CF23 6EY,Cardiff,,51.514275,-3.168544,200,OK
54.433281,-0.715711,YO22 5PN,North Yorkshire,Yorkshire and The Humber,54.433281,-0.715711,200,OK
53.705202,-1.767708,HD6 1XD,Calderdale,Yorkshire and The Humber,53.705202,-1.767708,200,OK
51.518617,-0.087396,EC2M 6AB,City of London,London,51.518562,-0.087845,200,OK
53.57637,-2.43595,BL1 4TX,Bolton,North West,53.57637,-2.43595,200,OK
53.747263,-0.324584,HU9 1BH,"Kingston upon Hull, City of",Yorkshire and The Humber,53.747902,-0.325096,200,OK
54.977601,-1.419459,NE34 0DL,South Tyneside,North East,54.977601,-1.419459,200,OK
51.727887,-2.15147,GL6 8BQ,Stroud,South West,51.727887,-2.15147,200,OK
53.266475,-0.651257,LN1 2QY,West Lindsey,East Midlands,53.266475,-0.651257,200,OK
51.723991,-3.836058,SA8 3BE,Neath Port Talbot,,51.723991,-3.836058,200,OK
51.255368,-0.590191,GU2 9PF,Guildford,South East,51.255359,-0.590205,200,OK
53.421413,-2.191784,SK4 4BT,Stockport,North West,53.421413,-2.191784,200,OK
51.317541,-2.545427,BS39 5AG,Bath and North East Somerset,South West,51.317541,-2.545427,200,OK
50.856431,-0.773087,PO19 6QJ,Chichester,South East,50.856422,-0.773101,200,OK
50.921126,-1.362449,SO18 4FD,Southampton,South East,50.921126,-1.362449,200,OK
52.06687,-2.919042,HR2 9JY,"Herefordshire, County of",West Midlands,52.066888,-2.91906,200,OK
53.602674,-2.146545,OL11 2ER,Rochdale,North West,53.602845,-2.146425,200,OK
51.702094,-0.034804,EN8 9LP,Broxbourne,East of England,51.701882,-0.035337,200,OK
52.526031,-1.452913,CV11 6YD,Nuneaton and Bedworth,West Midlands,52.526031,-1.452913,200,OK
56.413704,-3.467113,PH1 2QL,Perth and Kinross,,56.413704,-3.467113,200,OK
51.483702,0.164824,DA8 1PS,Bexley,London,51.483791,0.164382,200,OK
53.262086,-2.930918,CH66 2RW,Cheshire West and Chester,North West,53.262086,-2.930918,200,OK
52.350175,-2.061527,B61 0UH,Bromsgrove,West Midlands,52.350174,-2.061938,200,OK
52.021486,-0.679503,MK7 7RN,Milton Keynes,South East,52.021486,-0.679503,200,OK
53.58869,-2.453873,BL1 6DN,Bolton,North West,53.58869,-2.453873,200,OK
51.454559,-0.987444,RG1 7YW,Reading,South East,51.454559,-0.987444,200,OK
56.179542,-5.176293,PA32 8WD,Argyll and Bute,,56.179542,-5.176293,200,OK
51.083098,-1.979441,SP3 5DZ,Wiltshire,South West,51.083098,-1.979441,200,OK
51.983937,-2.723241,HR2 8AT,"Herefordshire, County of",West Midlands,51.983937,-2.723241,200,OK
51.318823,0.192428,TN14 5RW,Sevenoaks,South East,51.318823,0.192428,200,OK
55.684962,-4.519972,KA3 3HX,East Ayrshire,,55.684477,-4.521262,200,OK
53.404528,-0.75848,DN21 1WF,West Lindsey,East Midlands,53.404528,-0.75848,200,OK
51.609311,-0.256866,HA8 0RU,Barnet,London,51.609315,-0.256943,200,OK
51.994791,0.795313,CO8 5JY,Babergh,East of England,51.994791,0.795313,200,OK
51.070666,-0.329425,RH12 2BU,Horsham,South East,51.070666,-0.329425,200,OK
55.871824,-3.10469,EH19 3ET,Midlothian,,55.871824,-3.10469,200,OK
52.451142,-2.056086,B63 4AU,Dudley,West Midlands,52.451142,-2.056086,200,OK
52.173827,-2.241125,WR2 4XA,Worcester,West Midlands,52.173827,-2.241125,200,OK
51.411565,-0.065263,SE20 8EE,Bromley,London,51.411565,-0.065263,200,OK
52.277107,1.418336,IP17 2LP,East Suffolk,East of England,52.277107,1.418336,200,OK
55.943888,-3.181034,EH8 9HU,City of Edinburgh,,55.943879,-3.181034,200,OK
53.423951,-3.05719,CH45 6TE,Wirral,North West,53.423951,-3.05719,200,OK
51.582146,-0.546848,SL9 8BH,Buckinghamshire,South East,51.582146,-0.546848,200,OK
53.580025,-0.068152,DN31 3PS,North East Lincolnshire,Yorkshire and The Humber,53.579471,-0.0678,200,OK
53.894721,-1.986801,BD20 7HX,North Yorkshire,Yorkshire and The Humber,53.894721,-1.986801,200,OK
53.859507,-1.625092,LS16 7HD,Leeds,Yorkshire and The Humber,53.859507,-1.625092,200,OK
51.444846,0.332054,DA11 9HY,Gravesham,South East,51.444846,0.332054,200,OK
51.56915,-0.346206,HA2 0LA,Harrow,London,51.56915,-0.346206,200,OK
53.819901,-1.830281,BD16 1UU,Bradford,Yorkshire and The Humber,53.819846,-1.829476,200,OK
55.681835,-4.056253,ML10 6NZ,South Lanarkshire,,55.681835,-4.056253,200,OK
53.592558,-1.294003,WF9 2QS,Wakefield,Yorkshire and The Humber,53.592558,-1.294003,200,OK
52.269768,-1.905793,B80 7JT,Stratford-on-Avon,West Midlands,52.269768,-1.905793,200,OK
51.08328,1.186404,CT20 1PA,Folkestone and Hythe,South East,51.08328,1.186404,200,OK
52.215846,-0.391121,MK44 2JZ,Bedford,East of England,52.215859,-0.3911,200,OK
51.293796,-0.906908,RG27 8WW,Hart,South East,51.294083,-0.906901,200,OK
51.553019,-0.094882,N5 2BG,Islington,London,51.553019,-0.094882,200,OK
51.530631,0.736189,SS1 2YL,Southend-on-Sea,East of England,51.530631,0.736189,200,OK
54.613235,-5.94651,BT14 6FW,Belfast,,54.613235,-5.94651,200,OK
50.73148,-3.093819,,,,,,200,OK
51.347368,-0.730056,GU15 4EZ,Surrey Heath,South East,51.347368,-0.730056,200,OK
55.952394,-3.197196,EH2 2EN,City of Edinburgh,,55.952431,-3.197165,200,OK
53.390986,-1.424343,S9 3GD,Sheffield,Yorkshire and The Humber,53.391023,-1.424553,200,OK
51.473218,-0.013021,SE10 8TE,Greenwich,London,51.473218,-0.013021,200,OK
51.538598,-2.542083,BS32 0DW,South Gloucestershire,South West,51.538598,-2.542083,200,OK
54.070415,-1.593037,HG3 3JN,North Yorkshire,Yorkshire and The Humber,54.070415,-1.593037,200,OK
55.113629,-6.681204,BT51 3TL,Causeway Coast and Glens,,55.113629,-6.681204,200,OK
51.668883,-1.283643,OX14 5BU,Vale of White Horse,South East,51.668883,-1.283643,200,OK
50.921018,-1.430284,SO15 5RP,Southampton,South East,50.921018,-1.430284,200,OK
57.101882,-2.080499,AB12 3PN,Aberdeen City,,57.101882,-2.080516,200,OK
51.081168,-1.843731,,,,,,200,OK
51.815213,0.143535,CM21 0BX,East Hertfordshire,East of England,51.815213,0.143535,200,OK
53.914472,-2.183002,BB18 5DY,Pendle,North West,53.91467,-2.182881,200,OK
51.193947,-0.312774,RH5 4NZ,Mole Valley,South East,51.193947,-0.312774,200,OK
51.462795,-0.194837,SW18 1RD,Wandsworth,London,51.462539,-0.195643,200,OK
50.344446,-4.079243,PL9 0DG,South Hams,South West,50.344446,-4.079243,200,OK
51.63043,-1.877741,SN6 6HJ,Wiltshire,South West,51.63043,-1.877741,200,OK
54.530181,-1.545393,DL1 1JX,Darlington,North East,54.530181,-1.545393,200,OK
51.565301,-1.781083,SN1 2DN,Swindon,South West,51.565301,-1.781083,200,OK
51.548526,-0.06148,E8 1FD,Hackney,London,51.548605,-0.061489,200,OK
52.999982,-1.247141,NG16 1EX,Broxtowe,East Midlands,52.999982,-1.247141,200,OK
51.143524,1.295199,CT16 2BX,Dover,South East,51.143549,1.295232,200,OK
51.73721,-1.607113,OX18 2QE,West Oxfordshire,South East,51.73721,-1.607113,200,OK
53.520039,-2.284292,M25 9XF,Bury,North West,53.520039,-2.284292,200,OK
53.236999,-1.443281,S40 1DF,Chesterfield,East Midlands,53.236999,-1.443281,200,OK
54.969467,-2.084179,NE46 1HT,Northumberland,North East,54.969467,-2.084179,200,OK
51.521937,-0.116951,WC1N 3EA,Camden,London,51.521937,-0.116951,200,OK
53.433902,-1.3271,S65 2HQ,Rotherham,Yorkshire and The Humber,53.433902,-1.3271,200,OK
50.909792,-1.001126,PO8 9JU,East Hampshire,South East,50.909783,-1.001097,200,OK
52.106552,-1.985368,WR10 3LB,Wychavon,West Midlands,52.106552,-1.985368,200,OK
51.534215,-3.457252,CF72 9RX,Rhondda Cynon Taf,,51.534215,-3.457252,200,OK
57.330251,-2.487609,AB51 5EL,Aberdeenshire,,57.330952,-2.487502,200,OK
51.112701,-1.043475,GU34 5HL,East Hampshire,South East,51.112701,-1.043475,200,OK
51.752246,-0.310797,AL1 4SY,St Albans,East of England,51.752073,-0.311224,200,OK
55.890634,-4.376123,G13 4DQ,Glasgow City,,55.890634,-4.376123,200,OK
51.520964,-0.136368,W1T 4DD,Camden,London,51.520964,-0.136368,200,OK
51.509291,-0.122372,WC2N 6HT,Westminster,London,51.509091,-0.122237,200,OK
53.469708,-0.574843,DN21 4PX,North Lincolnshire,Yorkshire and The Humber,53.469708,-0.574843,200,OK
51.276308,-2.199724,BA13 4QT,Wiltshire,South West,51.276308,-2.199724,200,OK
52.701755,-0.960644,LE14 2TG,Melton,East Midlands,52.701755,-0.960644,200,OK
52.467626,-1.887903,B12 0XN,Birmingham,West Midlands,52.467626,-1.887903,200,OK
52.655157,-0.315813,PE6 9EA,Peterborough,East of England,52.655157,-0.315813,200,OK
52.909492,-1.691717,DE65 5AN,South Derbyshire,East Midlands,52.909527,-1.69139,200,OK
50.762239,-1.885216,BH10 6HX,"Bournemouth, Christchurch and Poole",South West,50.762239,-1.885216,200,OK
51.528118,-3.575559,CF31 1RD,Bridgend,,51.528174,-3.57471,200,OK
52.251809,-0.949882,NN5 6SR,West Northamptonshire,East Midlands,52.251809,-0.949882,200,OK
53.340767,-2.85504,L24 1WL,Liverpool,North West,53.340988,-2.855556,200,OK
51.458192,-0.213702,SW15 2BW,Wandsworth,London,51.458192,-0.213702,200,OK
55.729385,-3.956811,ML9 2NG,South Lanarkshire,,55.729385,-3.956811,200,OK
52.3975,-1.829563,B90 2RX,Solihull,West Midlands,52.3975,-1.829563,200,OK
54.936472,-1.693577,NE16 5RH,Gateshead,North East,54.936472,-1.693577,200,OK
51.308117,-0.080866,CR3 0YB,Tandridge,South East,51.308008,-0.080829,200,OK
52.647543,0.689432,PE37 7DU,Breckland,East of England,52.647543,0.689432,200,OK
51.517112,-0.138021,W1T 3QE,Westminster,London,51.517112,-0.138021,200,OK
51.546544,0.669695,SS9 1FG,Southend-on-Sea,East of England,51.546546,0.669839,200,OK
54.005041,-0.440179,YO25 6BW,East Riding of Yorkshire,Yorkshire and The Humber,54.005069,-0.440144,200,OK
53.440525,-2.313613,M32 9AU,Trafford,North West,53.440237,-2.31325,200,OK
52.942337,1.208602,NR26 8QY,North Norfolk,East of England,52.942337,1.208602,200,OK
57.348049,-6.071642,IV40 8NG,Highland,,57.348049,-6.071642,200,OK
51.854632,0.135316,CM23 4PT,East Hertfordshire,East of England,51.854632,0.135316,200,OK
57.134041,-2.093835,AB11 9AL,Aberdeen City,,57.134131,-2.09372,200,OK
51.596257,-0.344023,HA3 5TJ,Harrow,London,51.597111,-0.343782,200,OK
53.765877,-2.73724,PR2 1HJ,Preston,North West,53.76584,-2.737376,200,OK
52.650859,-0.47865,PE9 2HG,South Kesteven,East Midlands,52.650859,-0.47865,200,OK
53.759717,-2.355637,BB5 6HB,Hyndburn,North West,53.759717,-2.355637,200,OK
50.203575,-5.36681,TR27 5DX,Cornwall,South West,50.203575,-5.36681,200,OK
53.693831,-2.293853,BB4 6EB,Rossendale,North West,53.693831,-2.293853,200,OK
50.748242,-1.542305,SO41 8FL,New Forest,South East,50.748242,-1.542305,200,OK
51.377957,-1.596215,SN8 3LZ,Wiltshire,South West,51.377289,-1.59556,200,OK
54.564072,-0.965495,TS12 2NW,Redcar and Cleveland,North East,54.564081,-0.96551,200,OK
53.372465,-3.183254,CH48 4AB,Wirral,North West,53.372418,-3.183464,200,OK
50.615631,-1.317586,PO38 2HY,Isle of Wight,South East,50.615631,-1.317586,200,OK
51.630278,-0.306446,,,,,,200,OK
55.855161,-4.245619,G1 5LB,Glasgow City,,55.855161,-4.245619,200,OK
50.63285,-3.315789,EX9 6JA,East Devon,South West,50.63285,-3.315789,200,OK
52.510562,1.01071,NR17 2JH,Breckland,East of England,52.510562,1.01071,200,OK
52.220866,-1.861506,B49 6JZ,Stratford-on-Avon,West Midlands,52.220866,-1.861506,200,OK
51.636686,-0.136815,N14 4DF,Enfield,London,51.636686,-0.136815,200,OK
51.54853,-0.102007,N5 1QP,Islington,London,51.548819,-0.101505,200,OK
51.140882,-0.511189,GU6 8GQ,Waverley,South East,51.140984,-0.511472,200,OK
51.524897,-0.056369,E2 6BF,Tower Hamlets,London,51.524803,-0.056128,200,OK
51.685402,0.579558,,,,,,200,OK
53.498479,-1.433426,S74 9LU,Barnsley,Yorkshire and The Humber,53.498479,-1.433426,200,OK
51.90087,0.749145,CO6 1JN,Colchester,East of England,51.90087,0.749145,200,OK
53.486519,-2.063634,SK15 1NF,Tameside,North West,53.486519,-2.063634,200,OK
55.943838,-4.568336,G82 1QQ,West Dunbartonshire,,55.9441,-4.567824,200,OK
52.430561,1.542375,NR34 8NT,East Suffolk,East of England,52.430561,1.542375,200,OK
53.001099,-2.338326,CW3 9JJ,Newcastle-under-Lyme,West Midlands,53.001099,-2.338326,200,OK
52.50978,-0.41035,PE8 6TT,North Northamptonshire,East Midlands,52.50978,-0.41035,200,OK
51.580147,-0.020325,E17 8QA,Waltham Forest,London,51.580147,-0.020325,200,OK
51.457148,-2.575098,BS2 0AH,"Bristol, City of",South West,51.457148,-2.575098,200,OK
53.417515,-2.841263,L36 7XX,Knowsley,North West,53.417515,-2.841263,200,OK
52.460499,-1.8335,B25 8HH,Birmingham,West Midlands,52.460499,-1.8335,200,OK
57.449323,-2.776692,AB54 8EL,Aberdeenshire,,57.449323,-2.776692,200,OK
52.060223,1.217898,IP5 1AR,East Suffolk,East of England,52.060223,1.217898,200,OK
55.934653,-3.125207,EH16 4FL,City of Edinburgh,,55.934339,-3.125085,200,OK
51.612999,-0.124538,N11 2ST,Enfield,London,51.612999,-0.124538,200,OK
50.844611,-0.125219,BN1 7BP,Brighton and Hove,South East,50.844611,-0.125219,200,OK
53.867613,-1.916143,BD21 2QF,Bradford,Yorkshire and The Humber,53.867613,-1.916143,200,OK
53.015452,-1.742518,DE6 1DB,Derbyshire Dales,East Midlands,53.015452,-1.742518,200,OK
51.20175,-2.186934,BA12 8LH,Wiltshire,South West,51.20175,-2.186934,200,OK
52.92282,-1.52445,DE22 4NJ,Derby,East Midlands,52.92282,-1.52445,200,OK
50.899244,-1.343892,SO19 0ED,Southampton,South East,50.899244,-1.343892,200,OK
53.301391,-0.469585,LN2 3SA,West Lindsey,East Midlands,53.301391,-0.469585,200,OK
53.261164,-1.368206,S43 3TW,Chesterfield,East Midlands,53.261164,-1.368206,200,OK
53.870593,-1.940652,BD22 6PU,Bradford,Yorkshire and The Humber,53.870413,-1.940044,200,OK
51.503535,-0.366183,UB2 4QR,Ealing,London,51.503563,-0.366239,200,OK
51.820286,-0.98056,HP18 0HF,Buckinghamshire,South East,51.820286,-0.98056,200,OK
51.354084,0.088746,BR6 6NW,Bromley,London,51.354084,0.088746,200,OK
54.948602,-1.668989,NE16 4TB,Gateshead,North East,54.948461,-1.669755,200,OK
54.950272,-2.765479,CA8 2AT,Cumberland,North West,54.950272,-2.765479,200,OK
51.463177,-0.894127,RG5 4RR,Wokingham,South East,51.463177,-0.894127,200,OK
53.248631,-0.41961,,,,,,200,OK
51.564201,-0.125883,N19 4PD,Islington,London,51.564059,-0.125441,200,OK
52.651105,-0.478099,PE9 2DR,South Kesteven,East Midlands,52.651105,-0.478099,200,OK
54.928358,-1.435148,SR5 5HX,Sunderland,North East,54.928358,-1.435148,200,OK
53.512737,-2.207307,M9 4JB,Manchester,North West,53.512773,-2.207307,200,OK
51.560188,-0.274643,HA9 0JX,Brent,London,51.560532,-0.274818,200,OK
51.137811,0.227342,TN4 8SP,Tunbridge Wells,South East,51.137811,0.227342,200,OK
52.332816,-2.297025,DY13 0TJ,Wyre Forest,West Midlands,52.332816,-2.297025,200,OK
55.483918,-2.851574,TD7 4PE,Scottish Borders,,55.483918,-2.851574,200,OK
51.599173,0.176362,RM1 4BZ,Havering,London,51.599173,0.176362,200,OK
53.607628,-2.211323,OL11 5PD,Rochdale,North West,53.607628,-2.211323,200,OK
51.310458,-0.612234,GU21 8XF,Woking,South East,51.310458,-0.612234,200,OK
52.910757,-1.469285,DE23 8FG,Derby,East Midlands,52.910703,-1.469282,200,OK
51.494876,-0.177708,SW7 2EA,Kensington and Chelsea,London,51.494815,-0.177841,200,OK
51.395556,-0.299948,KT6 4GS,Kingston upon Thames,London,51.395556,-0.299948,200,OK
53.437401,-2.747632,WA9 5EH,St. Helens,North West,53.437401,-2.747632,200,OK
53.477262,-1.570639,S36 2SP,Sheffield,Yorkshire and The Humber,53.477288,-1.57064,200,OK
52.238798,-1.927994,B96 6NE,Wychavon,West Midlands,52.238798,-1.927994,200,OK
53.789423,-1.548597,LS11 9ED,Leeds,Yorkshire and The Humber,53.789423,-1.548597,200,OK
53.413353,-3.108758,CH46 3SB,Wirral,North West,53.413423,-3.107977,200,OK
53.636516,-3.004285,PR8 5DA,Sefton,North West,53.636516,-3.004285,200,OK
54.620606,-6.220792,BT29 4XZ,Antrim and Newtownabbey,,54.620606,-6.220792,200,OK
51.381114,-2.361844,BA1 1SG,Bath and North East Somerset,South West,51.381114,-2.361844,200,OK
54.617816,-1.296151,TS23 2TJ,Stockton-on-Tees,North East,54.617816,-1.296151,200,OK
51.02351,-0.352208,RH13 9HE,Horsham,South East,51.023633,-0.352306,200,OK
52.066284,-0.398229,MK45 3QH,Central Bedfordshire,East of England,52.066284,-0.398229,200,OK
51.270339,-0.462866,KT24 6JP,Guildford,South East,51.270339,-0.462866,200,OK
51.450864,0.261301,DA9 9AX,Dartford,South East,51.450864,0.261301,200,OK
55.109421,-1.672991,NE61 6HJ,Northumberland,North East,55.109421,-1.672991,200,OK
51.402947,-0.864949,RG41 4SZ,Wokingham,South East,51.403266,-0.865282,200,OK
57.292031,-3.419435,AB37 9HN,Moray,,57.292031,-3.419435,200,OK
51.589653,-0.151066,N10 3BT,Haringey,London,51.589653,-0.151066,200,OK
53.298586,-4.074632,LL58 8SF,Isle of Anglesey,,53.298586,-4.074632,200,OK
52.503168,-1.864099,B7 5LG,Birmingham,West Midlands,52.503168,-1.864099,200,OK
58.993723,-2.975856,KW15 1GG,Orkney Islands,,58.993723,-2.975856,200,OK
52.096631,-4.146661,SA48 7JY,Ceredigion,,52.096631,-4.146661,200,OK
53.123331,0.216466,PE24 4NW,East Lindsey,East Midlands,53.123331,0.216466,200,OK
51.286132,-0.744365,GU14 6QN,Rushmoor,South East,51.286132,-0.744365,200,OK
50.917638,-1.3447,SO18 5DH,Southampton,South East,50.917556,-1.344521,200,OK
51.520244,-0.147824,W1G 8PP,Westminster,London,51.519999,-0.147719,200,OK
51.476957,-0.642885,SL4 4NY,Windsor and Maidenhead,South East,51.476957,-0.642885,200,OK
52.470065,-1.203735,LE17 4FY,Harborough,East Midlands,52.470065,-1.203735,200,OK
51.595748,-2.980196,NP19 7GA,Newport,,51.595904,-2.979766,200,OK
53.87687,-2.377971,BB7 1QD,Ribble Valley,North West,53.87687,-2.377971,200,OK
51.960692,-1.235839,OX27 7QN,Cherwell,South East,51.960692,-1.235839,200,OK
51.581276,-0.080696,N15 5LP,Haringey,London,51.581276,-0.080696,200,OK
53.893037,-1.990122,BD20 7JF,North Yorkshire,Yorkshire and The Humber,53.893001,-1.990137,200,OK
56.591442,-3.33756,PH10 6AS,Perth and Kinross,,56.591442,-3.33756,200,OK
53.646863,-2.724013,PR7 5SY,Chorley,North West,53.646898,-2.72389,200,OK
54.286014,-5.588582,BT30 7SW,"Newry, Mourne and Down",,54.286014,-5.588582,200,OK
53.544468,-0.108487,DN33 1JZ,North East Lincolnshire,Yorkshire and The Humber,53.544468,-0.108487,200,OK
51.426734,0.36478,DA11 7NW,Gravesham,South East,51.426909,0.365465,200,OK
56.261016,-2.629148,KY10 3UW,Fife,,56.261016,-2.629148,200,OK
55.819896,-4.128598,G72 6ZN,South Lanarkshire,,55.820179,-4.128374,200,OK
51.230892,-2.323384,BA11 1DT,Somerset,South West,51.230785,-2.323182,200,OK
51.283043,-0.509991,GU23 6HD,Guildford,South East,51.283043,-0.509991,200,OK
55.886864,-4.159832,G33 6JU,North Lanarkshire,,55.886864,-4.159832,200,OK
51.497158,0.110929,SE2 9XP,Greenwich,London,51.497298,0.111208,200,OK
55.769736,-4.055874,ML3 8PE,South Lanarkshire,,55.769736,-4.055874,200,OK
52.625766,1.293621,NR1 3QL,Norwich,East of England,52.625766,1.293621,200,OK
51.524518,-0.167458,NW8 8SX,Westminster,London,51.524518,-0.167458,200,OK
53.523543,-0.823381,DN9 1BN,North Lincolnshire,Yorkshire and The Humber,53.523543,-0.823381,200,OK
57.504125,-1.773889,AB42 1DJ,Aberdeenshire,,57.504111,-1.773859,200,OK
53.49499,-2.522525,WN7 4BZ,Wigan,North West,53.49499,-2.522525,200,OK
53.553719,-2.646526,WN6 7BQ,Wigan,North West,53.553719,-2.646526,200,OK
51.138206,-0.159568,RH10 3YZ,Crawley,South East,51.13778,-0.159327,200,OK
53.37545,-2.326091,WA15 9JW,Trafford,North West,53.37545,-2.326091,200,OK
50.796142,-3.744065,EX17 5DA,Mid Devon,South West,50.796214,-3.744011,200,OK
54.065845,-2.861269,LA4 4QF,Lancaster,North West,54.065845,-2.861269,200,OK
53.476677,-2.244044,M2 3WQ,Manchester,North West,53.476469,-2.243906,200,OK
51.8167,-2.712961,NP25 3PB,Monmouthshire,,51.8167,-2.712961,200,OK
53.369929,-1.374985,S13 9HL,Sheffield,Yorkshire and The Humber,53.369929,-1.374985,200,OK
50.853711,0.496529,TN40 2RB,Rother,South East,50.853711,0.496529,200,OK
53.581483,-2.099619,OL2 7SS,Oldham,North West,53.581483,-2.099619,200,OK
53.087169,-1.388299,,,,,,200,OK
53.690417,-1.656884,WF13 3PR,Kirklees,Yorkshire and The Humber,53.690417,-1.656884,200,OK
50.501971,-4.065876,PL20 6NS,West Devon,South West,50.501971,-4.065876,200,OK
50.74891,-1.304463,PO31 8AP,Isle of Wight,South East,50.74891,-1.304463,200,OK
54.567551,-0.945887,TS12 2QZ,Redcar and Cleveland,North East,54.567082,-0.946641,200,OK
52.601795,-2.164349,WV6 9AT,Wolverhampton,West Midlands,52.601795,-2.164349,200,OK
51.917859,-0.825273,MK18 3LH,Buckinghamshire,South East,51.917937,-0.825933,200,OK
53.754804,-0.33616,HU2 0DJ,"Kingston upon Hull, City of",Yorkshire and The Humber,53.754553,-0.335533,200,OK
51.590598,0.046683,IG8 8FA,Redbridge,London,51.590598,0.046683,200,OK
53.342432,-1.412019,S12 3DX,Sheffield,Yorkshire and The Humber,53.342432,-1.412019,200,OK
51.522531,-3.213569,CF14 6DX,Cardiff,,51.522757,-3.21343,200,OK
50.728434,-1.825891,BH5 2JG,"Bournemouth, Christchurch and Poole",South West,50.728434,-1.825891,200,OK
51.859345,-4.319397,SA31 3EF,Carmarthenshire,,51.859345,-4.319397,200,OK
53.149425,-2.366704,CW11 1AW,Cheshire East,North West,53.149351,-2.367406,200,OK
50.830275,-0.165399,BN3 3XR,Brighton and Hove,South East,50.830275,-0.165399,200,OK
57.477843,-4.225089,IV1 1HY,Highland,,57.477843,-4.225089,200,OK
54.571911,-5.913267,BT6 0DN,Belfast,,54.571911,-5.913267,200,OK
53.39077,-2.98497,L3 4BP,Liverpool,North West,53.390815,-2.984971,200,OK
51.21884,-0.792775,GU9 7TG,Waverley,South East,51.21884,-0.792775,200,OK
51.475937,-2.133095,SN14 6YD,Wiltshire,South West,51.475937,-2.133095,200,OK
56.588861,-3.34631,PH10 6EA,Perth and Kinross,,56.588861,-3.34631,200,OK
52.361419,-2.002878,B45 8LL,Bromsgrove,West Midlands,52.361419,-2.002878,200,OK
52.42147,-1.530834,CV6 1JW,Coventry,West Midlands,52.421449,-1.530575,200,OK
51.585996,0.698139,SS4 1NQ,Rochford,East of England,51.585996,0.698139,200,OK
51.788793,-1.482778,OX28 6HT,West Oxfordshire,South East,51.788793,-1.482778,200,OK
54.978146,-1.681182,NE15 7DD,Newcastle upon Tyne,North East,54.978146,-1.681182,200,OK
51.482171,-0.13207,SW11 7US,Wandsworth,London,51.482642,-0.132199,200,OK
51.543162,0.056408,E12 6NJ,Newham,London,51.543337,0.057195,200,OK
51.174436,-1.77803,SP4 7EW,Wiltshire,South West,51.174436,-1.778044,200,OK
53.321727,-1.318416,S21 1AP,North East Derbyshire,East Midlands,53.321764,-1.318312,200,OK
54.230816,-0.72969,YO18 7AR,North Yorkshire,Yorkshire and The Humber,54.230816,-0.72969,200,OK
52.393561,0.245885,CB6 3GG,East Cambridgeshire,East of England,52.393561,0.245885,200,OK
51.495931,0.118638,SE2 9RD,Greenwich,London,51.495931,0.118638,200,OK
53.066493,-2.15146,ST6 8RW,Stoke-on-Trent,West Midlands,53.066493,-2.15146,200,OK
53.307992,-3.029484,CH63 4JL,Wirral,North West,53.307944,-3.029617,200,OK
53.790221,-2.269891,BB12 6QD,Burnley,North West,53.790221,-2.269891,200,OK
53.356927,-1.549793,S10 4PU,Sheffield,Yorkshire and The Humber,53.356927,-1.549793,200,OK
53.575945,-2.424332,BL2 1BA,Bolton,North West,53.575903,-2.425372,200,OK
52.475194,-1.928729,B16 8XQ,Birmingham,West Midlands,52.47488,-1.92895,200,OK
50.865136,-1.408045,SO45 5DS,New Forest,South East,50.86519,-1.40803,200,OK
51.356942,-0.151503,SM6 0EU,Sutton,London,51.356932,-0.152006,200,OK
52.856272,-1.687119,DE13 9DU,East Staffordshire,West Midlands,52.856532,-1.687058,200,OK
50.722622,-1.9106,BH13 6DN,"Bournemouth, Christchurch and Poole",South West,50.722622,-1.9106,200,OK
53.911099,-0.164794,HU18 1QT,East Riding of Yorkshire,Yorkshire and The Humber,53.911099,-0.164794,200,OK
50.559055,-3.499895,TQ14 8QY,Teignbridge,South West,50.559055,-3.499895,200,OK
54.602503,-5.927829,BT1 2LD,Belfast,,54.602503,-5.927829,200,OK
50.608462,-2.451654,DT4 8DL,Dorset,South West,50.608462,-2.451654,200,OK
52.926516,-1.105105,NG2 6QG,Rushcliffe,East Midlands,52.926516,-1.105105,200,OK
53.546538,-2.634569,WN1 1HP,Wigan,North West,53.546736,-2.634633,200,OK
51.332145,-0.783472,GU17 0LY,Hart,South East,51.332145,-0.783472,200,OK
52.981483,-3.373999,LL21 1AQ,Denbighshire,,52.981483,-3.373999,200,OK
51.402987,0.496786,ME2 3DA,Medway,South East,51.402987,0.496786,200,OK
52.459358,-2.239008,DY7 6BL,South Staffordshire,West Midlands,52.459444,-2.239062,200,OK
53.452558,-1.979045,SK13 6EF,High Peak,East Midlands,53.452558,-1.979045,200,OK
51.290851,1.077925,CT2 7AA,Canterbury,South East,51.290851,1.077925,200,OK
51.413702,-1.518526,RG17 0JN,West Berkshire,South East,51.413702,-1.518526,200,OK
54.566515,-1.249275,TS1 4PT,Middlesbrough,North East,54.566515,-1.249275,200,OK
52.51658,1.239357,NR15 1NB,South Norfolk,East of England,52.51658,1.239357,200,OK
53.400275,-2.958012,L8 7JX,Liverpool,North West,53.400408,-2.958331,200,OK
53.326797,-3.12028,CH60 9JX,Wirral,North West,53.326797,-3.12028,200,OK
55.048074,-1.744922,NE20 9NX,Northumberland,North East,55.048074,-1.744922,200,OK
53.896564,-1.451827,LS17 9HD,Leeds,Yorkshire and The Humber,53.896564,-1.451827,200,OK
52.715677,-2.219787,ST19 9PX,South Staffordshire,West Midlands,52.715677,-2.219787,200,OK
52.435778,-1.799776,B92 8BL,Solihull,West Midlands,52.435778,-1.799776,200,OK
52.502499,-1.985225,B66 1TG,Sandwell,West Midlands,52.502715,-1.985504,200,OK
51.454315,-0.184333,SW18 2NH,Wandsworth,London,51.454289,-0.184392,200,OK
50.84666,-1.052618,PO6 2AH,Portsmouth,South East,50.84666,-1.052618,200,OK
50.788584,0.325585,BN23 5TZ,Eastbourne,South East,50.788584,0.325585,200,OK
51.470014,-0.408868,TW4 6FD,Hounslow,London,51.470159,-0.408295,200,OK
53.95657,-1.039796,YO10 3BH,York,Yorkshire and The Humber,53.95657,-1.039796,200,OK
51.707127,-4.700907,SA69 9HN,Pembrokeshire,,51.707127,-4.700907,200,OK
51.125122,-2.986497,TA6 5BN,Somerset,South West,51.125122,-2.986497,200,OK
51.482678,0.137295,SE2 0DZ,Bexley,London,51.482678,0.137295,200,OK
53.8797,-1.712103,LS20 9DE,Leeds,Yorkshire and The Humber,53.8797,-1.712103,200,OK
51.121632,0.241912,TN4 8LF,Tunbridge Wells,South East,51.121632,0.241912,200,OK
50.82249,-0.386539,BN14 7HS,Worthing,South East,50.82249,-0.386539,200,OK
52.830832,-1.180039,LE12 6LD,Rushcliffe,East Midlands,52.830832,-1.180039,200,OK
53.964813,-0.975632,YO19 5SD,York,Yorkshire and The Humber,53.964813,-0.975595,200,OK
52.788466,-1.527471,DE11 7AE,South Derbyshire,East Midlands,52.788466,-1.527471,200,OK
51.458805,-0.164866,SW11 1BN,Wandsworth,London,51.458805,-0.164866,200,OK
52.308326,-1.959518,B97 6JB,Redditch,West Midlands,52.308326,-1.959518,200,OK
51.440443,-0.097268,SE21 8HX,Lambeth,London,51.440462,-0.097256,200,OK
51.560707,-0.500227,UB9 4HA,Buckinghamshire,South East,51.560811,-0.50057,200,OK
51.4242,-3.365148,CF62 3AD,Vale of Glamorgan,,51.4242,-3.365148,200,OK
51.739536,-3.134491,NP13 1JF,Blaenau Gwent,,51.739536,-3.134491,200,OK
51.513471,-0.068489,E1 8ZF,Tower Hamlets,London,51.513471,-0.068489,200,OK
53.567075,-0.063584,DN32 7JU,North East Lincolnshire,Yorkshire and The Humber,53.567075,-0.063584,200,OK
53.479856,-2.147206,M43 6PE,Tameside,North West,53.479838,-2.147145,200,OK
57.612892,-3.594399,IV36 1FQ,Moray,,57.612892,-3.594399,200,OK
53.711072,-1.699028,WF15 6NZ,Kirklees,Yorkshire and The Humber,53.711072,-1.699028,200,OK
50.79273,-0.636631,PO22 7QD,Arun,South East,50.79273,-0.636631,200,OK
52.615914,-2.004131,WS3 3LA,Walsall,West Midlands,52.615914,-2.004131,200,OK
51.341744,-2.798292,BS40 5EE,North Somerset,South West,51.34188,-2.798888,200,OK
55.895935,-4.294247,G20 0JP,Glasgow City,,55.895984,-4.294235,200,OK
51.552135,-0.04269,E5 0LN,Hackney,London,51.552135,-0.04269,200,OK
51.365112,-2.901416,BS22 7RH,North Somerset,South West,51.365112,-2.901416,200,OK
51.486694,-2.130462,SN15 5PY,Wiltshire,South West,51.486694,-2.130462,200,OK
53.580956,-1.533114,S75 5PL,Barnsley,Yorkshire and The Humber,53.580956,-1.533114,200,OK
53.520338,-1.474446,S70 5LX,Barnsley,Yorkshire and The Humber,53.520338,-1.474446,200,OK
57.482511,-4.461275,IV6 7WZ,Highland,,57.482586,-4.461097,200,OK
52.307106,0.027085,,,,,,200,OK
50.802774,0.284747,BN22 9HH,Eastbourne,South East,50.802774,0.284747,200,OK
50.798925,-0.987089,PO11 0FS,Havant,South East,50.798583,-0.987322,200,OK
50.482022,-4.558668,PL14 6NA,Cornwall,South West,50.482022,-4.558668,200,OK
52.764241,-2.3789,TF10 7HG,Telford and Wrekin,West Midlands,52.764241,-2.3789,200,OK
51.372174,-0.661857,,,,,,200,OK
51.357621,1.441909,CT10 1QS,Thanet,South East,51.357621,1.441909,200,OK
51.508955,-3.132514,CF3 4AJ,Cardiff,,51.50893,-3.132379,200,OK
52.4412,-0.471214,PE8 5SB,North Northamptonshire,East Midlands,52.4412,-0.471214,200,OK
50.81401,-1.064151,PO3 5BX,Portsmouth,South East,50.81401,-1.064151,200,OK
50.855309,-1.197595,PO15 5AX,Fareham,South East,50.855309,-1.197595,200,OK
53.406198,-2.226177,M20 5QG,Manchester,North West,53.406198,-2.226177,200,OK
52.308695,-0.731217,,,,,,200,OK
52.978286,-0.512448,NG32 3NX,North Kesteven,East Midlands,52.978286,-0.512448,200,OK
51.82701,-0.829742,HP19 9JW,Buckinghamshire,South East,51.827318,-0.830009,200,OK
53.42763,-2.793619,L34 2TU,Knowsley,North West,53.42763,-2.793619,200,OK
53.318883,-0.940526,DN22 6AS,Bassetlaw,East Midlands,53.318883,-0.940526,200,OK
52.591217,-1.967762,WS4 2EL,Walsall,West Midlands,52.591217,-1.967762,200,OK
51.801287,-0.7179,HP22 5JZ,Buckinghamshire,South East,51.801287,-0.7179,200,OK
55.129948,-1.512652,NE24 1ER,Northumberland,North East,55.129948,-1.512652,200,OK
50.815951,-0.391052,BN11 4QH,Worthing,South East,50.815951,-0.391052,200,OK
51.504353,-0.091134,SE1 1XW,Southwark,London,51.504399,-0.091049,200,OK
51.406987,-0.826763,RG40 2BL,Wokingham,South East,51.406987,-0.826763,200,OK
53.54977,-1.520417,S75 3TZ,Barnsley,Yorkshire and The Humber,53.54977,-1.520417,200,OK
51.458451,-0.206509,SW15 2RS,Wandsworth,London,51.458494,-0.206297,200,OK
51.134815,1.299111,CT17 0TB,Dover,South East,51.134815,1.299111,200,OK
54.537415,-6.013982,BT17 9DW,Lisburn and Castlereagh,,54.537415,-6.013982,200,OK
53.413744,-2.728426,WA9 4TG,St. Helens,North West,53.413744,-2.728426,200,OK
51.374975,0.119701,BR5 4FL,Bromley,London,51.374838,0.119278,200,OK
52.278353,-0.893174,NN2 8QU,West Northamptonshire,East Midlands,52.278353,-0.893174,200,OK
55.937127,-3.197253,EH9 1DH,City of Edinburgh,,55.937127,-3.197253,200,OK
55.786568,-4.422418,G78 3NQ,East Renfrewshire,,55.786568,-4.422418,200,OK
52.899745,0.889636,NR22 6BG,North Norfolk,East of England,52.899745,0.889636,200,OK
51.702419,-2.905631,NP15 1XQ,Monmouthshire,,51.702419,-2.905631,200,OK
51.430994,0.37651,DA12 5PA,Gravesham,South East,51.430821,0.376616,200,OK
50.456586,-4.452554,PL14 3WF,Cornwall,South West,50.456586,-4.452554,200,OK
51.825042,0.111593,,,,,,200,OK
51.566375,0.568801,SS7 3EH,Castle Point,East of England,51.566413,0.568717,200,OK
55.863562,-4.237631,G4 0RD,Glasgow City,,55.863178,-4.237993,200,OK
51.705939,0.244893,CM5 9AL,Epping Forest,East of England,51.706302,0.244982,200,OK
57.200947,-2.474317,,,,,,200,OK
52.341626,-2.270987,DY13 9BB,Wyre Forest,West Midlands,52.341626,-2.270987,200,OK
51.587639,-0.314701,HA3 8HA,Harrow,London,51.587639,-0.314701,200,OK
51.350638,-0.098707,CR2 6EX,Croydon,London,51.350645,-0.098549,200,OK
54.59697,-5.887396,BT5 5BA,Belfast,,54.59697,-5.887396,200,OK
55.04585,-2.050348,NE46 4HT,Northumberland,North East,55.04585,-2.050348,200,OK
56.39668,-3.426067,PH2 1SA,Perth and Kinross,,56.39668,-3.426067,200,OK
54.997222,-1.49691,NE28 0BB,North Tyneside,North East,54.997222,-1.49691,200,OK
51.039956,-4.212241,EX39 1BS,Torridge,South West,51.039956,-4.212241,200,OK
54.331464,-1.828398,DL8 5QY,North Yorkshire,Yorkshire and The Humber,54.331464,-1.828398,200,OK
55.706492,-2.465964,,,,,,200,OK
50.885982,0.398781,,,,,,200,OK
55.670455,-2.446625,TD10 6UW,Scottish Borders,,55.67049,-2.446187,200,OK
53.197347,-0.539267,LN4 2JX,North Kesteven,East Midlands,53.197347,-0.539267,200,OK
53.423239,-2.217329,M20 6ER,Manchester,North West,53.423239,-2.217329,200,OK
51.664098,-0.410682,WD17 3BZ,Watford,East of England,51.664098,-0.410682,200,OK
53.751858,-2.491315,BB2 6AY,Blackburn with Darwen,North West,53.751887,-2.492314,200,OK
51.525529,-0.079466,EC2A 3HH,Hackney,London,51.525529,-0.079466,200,OK
53.958772,-1.133156,YO26 5PF,York,Yorkshire and The Humber,53.958772,-1.133248,200,OK
51.54701,0.563343,SS7 5LJ,Castle Point,East of England,51.54701,0.563343,200,OK
55.821546,-4.0527,G71 6JR,North Lanarkshire,,55.821546,-4.0527,200,OK
51.268771,-1.077164,RG21 4HL,Basingstoke and Deane,South East,51.268771,-1.077164,200,OK
52.115376,-2.303799,WR14 2HD,Malvern Hills,West Midlands,52.115395,-2.303765,200,OK
51.796723,-3.995999,SA18 2DF,Carmarthenshire,,51.796723,-3.995999,200,OK
56.090422,-3.925908,FK7 0NH,Stirling,,56.090422,-3.925908,200,OK
56.404705,-5.477259,PA34 4PP,Argyll and Bute,,56.404705,-5.477259,200,OK
51.12415,-0.753334,GU26 6QN,Waverley,South East,51.12415,-0.753334,200,OK
53.681017,-1.650114,WF13 3RD,Kirklees,Yorkshire and The Humber,53.681313,-1.651069,200,OK
51.729499,-1.231113,OX4 4JJ,Oxford,South East,51.729852,-1.23144,200,OK
50.827184,0.156446,BN26 6SN,Wealden,South East,50.827166,0.156459,200,OK
52.335678,-1.722077,B94 6NA,Warwick,West Midlands,52.336214,-1.721551,200,OK
55.085802,-4.004001,DG7 3EB,Dumfries and Galloway,,55.085802,-4.004001,200,OK
51.448695,-0.358822,TW2 6JG,Richmond upon Thames,London,51.448695,-0.358822,200,OK
51.464147,-0.377112,TW4 5JJ,Hounslow,London,51.464147,-0.377112,200,OK
51.517092,-0.143542,W1G 0QB,Westminster,London,51.517092,-0.143542,200,OK
51.18197,-2.106879,BA12 0EE,Wiltshire,South West,51.18197,-2.106879,200,OK
51.321887,-0.572581,GU21 4RN,Woking,South East,51.321887,-0.572581,200,OK
52.629821,1.422941,NR13 5SE,Broadland,East of England,52.629821,1.422941,200,OK
53.775969,-2.38418,BB5 5PB,Hyndburn,North West,53.775969,-2.38418,200,OK
50.840695,-3.179074,,,,,,200,OK
53.171564,-3.186816,CH7 5DQ,Flintshire,,53.171564,-3.186816,200,OK
52.615835,-1.126509,LE2 6AD,Leicester,East Midlands,52.615835,-1.126509,200,OK
51.490321,0.12156,SE2 9RH,Bexley,London,51.490321,0.12156,200,OK
51.484415,-3.159269,CF24 0AR,Cardiff,,51.484138,-3.15917,200,OK
51.522172,-0.146377,W1B 1QU,Westminster,London,51.522172,-0.146377,200,OK
53.557678,-2.207572,M24 5NT,Rochdale,North West,53.557678,-2.207572,200,OK
52.575905,-1.080679,LE18 3SH,Oadby and Wigston,East Midlands,52.575905,-1.080679,200,OK
53.85171,-1.538483,LS17 7HN,Leeds,Yorkshire and The Humber,53.851727,-1.538362,200,OK
54.697501,-5.951035,,,,,,200,OK
54.297068,-7.831202,,,,,,200,OK
51.519212,0.444152,SS17 7DY,Thurrock,East of England,51.519212,0.444152,200,OK
55.522183,-4.067512,KA18 3RH,East Ayrshire,,55.522183,-4.067512,200,OK
51.512438,-0.148415,W1K 4LY,Westminster,London,51.512438,-0.148415,200,OK
50.926511,-1.511419,SO40 2TW,New Forest,South East,50.926511,-1.511419,200,OK
51.083248,-2.260279,BA12 6DX,Wiltshire,South West,51.083248,-2.260279,200,OK
53.814717,-1.477929,LS14 6RZ,Leeds,Yorkshire and The Humber,53.815031,-1.477743,200,OK
51.542869,0.288906,RM14 3PX,Havering,London,51.542941,0.28891,200,OK
51.229414,-2.321483,BA11 1JA,Somerset,South West,51.229414,-2.321483,200,OK
53.506057,-1.091123,DN4 7DW,Doncaster,Yorkshire and The Humber,53.506057,-1.091123,200,OK
53.377151,-1.53548,S10 5TX,Sheffield,Yorkshire and The Humber,53.376962,-1.535362,200,OK
50.816528,-0.376836,BN11 1XA,Worthing,South East,50.816717,-0.376872,200,OK
51.076914,-0.288612,RH12 4NP,Horsham,South East,51.076914,-0.288612,200,OK
52.502451,-1.89162,B6 5HH,Birmingham,West Midlands,52.502451,-1.89162,200,OK
51.517769,-0.297232,W5 2LG,Ealing,London,51.517769,-0.297232,200,OK
51.000799,-0.105976,RH16 3AS,Mid Sussex,South East,51.000799,-0.105976,200,OK
52.95038,-1.167809,NG7 1DY,Nottingham,East Midlands,52.950019,-1.167563,200,OK
52.514305,-3.313264,SY16 1AB,Powys,,52.514305,-3.313264,200,OK
53.473375,-3.020662,L22 3RB,Sefton,North West,53.473375,-3.020662,200,OK
51.871742,0.966289,CO7 9JQ,Colchester,East of England,51.8714,0.96631,200,OK
51.50735,-0.267965,W3 6BN,Ealing,London,51.50735,-0.267965,200,OK
56.845384,-2.279106,DD10 0RQ,Aberdeenshire,,56.845384,-2.279106,200,OK
53.611859,-0.968699,DN8 5AG,Doncaster,Yorkshire and The Humber,53.611859,-0.968699,200,OK
55.778362,-4.040877,ML3 6HP,South Lanarkshire,,55.778362,-4.040877,200,OK
51.635642,-0.34204,WD23 1ND,Hertsmere,East of England,51.635646,-0.342016,200,OK
51.424998,-0.17324,SW17 0SB,Wandsworth,London,51.424998,-0.17324,200,OK
51.753057,0.4931,CM1 6UA,Chelmsford,East of England,51.753057,0.4931,200,OK
52.310243,-0.598508,NN10 8ET,North Northamptonshire,East Midlands,52.310243,-0.598508,200,OK
50.738644,-1.983722,BH15 3HE,"Bournemouth, Christchurch and Poole",South West,50.738644,-1.983722,200,OK
57.589221,-2.841261,,,,,,200,OK
51.481708,0.002226,SE10 8XG,Greenwich,London,51.481708,0.002226,200,OK
51.541399,-2.580587,BS32 4TF,South Gloucestershire,South West,51.541453,-2.580432,200,OK
51.680525,-0.378342,WD25 9SB,Watford,East of England,51.68053,-0.378319,200,OK
53.919705,-2.187562,BB18 5EJ,Pendle,North West,53.919714,-2.187577,200,OK
53.412665,-2.972087,L3 8EA,Liverpool,North West,53.412665,-2.972087,200,OK
51.676702,-0.42116,WD17 4HS,Watford,East of England,51.676702,-0.42116,200,OK
54.660056,-5.907681,BT37 9RQ,Antrim and Newtownabbey,,54.660056,-5.907681,200,OK
52.767229,0.415861,PE30 2LW,King's Lynn and West Norfolk,East of England,52.767229,0.415861,200,OK
53.425123,-2.956539,L5 6RH,Liverpool,North West,53.425238,-2.956661,200,OK
50.906065,-1.361105,SO19 2QH,Southampton,South East,50.906065,-1.361105,200,OK
53.407962,-2.984299,L1 6JG,Liverpool,North West,53.407962,-2.984299,200,OK
57.880389,-4.031553,IV25 3SW,Highland,,57.880418,-4.031592,200,OK
50.954864,-2.632728,BA21 4PQ,Somerset,South West,50.954864,-2.632728,200,OK
51.427973,-0.93787,RG6 5GZ,Wokingham,South East,51.427973,-0.93787,200,OK
50.664589,-1.132427,PO36 8QP,Isle of Wight,South East,50.664682,-1.131647,200,OK
50.351437,-3.581323,TQ6 9SD,South Hams,South West,50.351437,-3.581323,200,OK
53.576178,-2.07881,OL2 8QG,Oldham,North West,53.575907,-2.079625,200,OK
50.956052,-2.653416,BA21 3LZ,Somerset,South West,50.956052,-2.653416,200,OK
52.496408,-2.084602,DY2 9EG,Dudley,West Midlands,52.496408,-2.083939,200,OK
53.298618,-2.241647,SK9 7XB,Cheshire East,North West,53.298618,-2.241647,200,OK
51.999691,-3.228589,LD3 0AT,Powys,,51.999691,-3.228589,200,OK
51.503451,-3.185369,CF14 3NN,Cardiff,,51.503451,-3.185369,200,OK
51.657928,-1.181857,OX14 3GX,South Oxfordshire,South East,51.657928,-1.181857,200,OK
52.327517,-1.079233,NN6 7BG,West Northamptonshire,East Midlands,52.327517,-1.079233,200,OK
53.287213,-3.057846,CH64 9RH,Cheshire West and Chester,North West,53.287213,-3.057846,200,OK
50.952588,-2.648997,BA21 3DY,Somerset,South West,50.952588,-2.648997,200,OK
51.601259,-0.481824,UB9 6RQ,Hillingdon,London,51.601115,-0.481815,200,OK
52.965958,0.679705,PE31 8BY,King's Lynn and West Norfolk,East of England,52.965958,0.679705,200,OK
56.480667,-2.930614,DD4 8JZ,Dundee City,,56.480718,-2.92982,200,OK
55.151097,-1.688167,NE61 2FL,Northumberland,North East,55.151097,-1.688167,200,OK
53.849882,-1.841637,BD16 2RA,Bradford,Yorkshire and The Humber,53.849909,-1.841682,200,OK
51.557886,0.071615,IG1 1BA,Redbridge,London,51.557886,0.07167,200,OK
51.506496,-0.044904,SE16 5RF,Southwark,London,51.506524,-0.044833,200,OK
51.479381,-0.198493,SW6 2WL,Hammersmith and Fulham,London,51.479381,-0.198493,200,OK
52.756872,-0.904551,LE13 0FB,Melton,East Midlands,52.75689,-0.90455,200,OK
51.824409,-4.950197,SA62 4DN,Pembrokeshire,,51.824409,-4.950197,200,OK
52.701753,-2.521152,TF1 1EG,Telford and Wrekin,West Midlands,52.701753,-2.521152,200,OK
51.056312,-2.610001,,,,,,200,OK
53.806836,-1.674857,LS28 6BQ,Leeds,Yorkshire and The Humber,53.806836,-1.674857,200,OK
51.59192,-3.775576,SA13 1EN,Neath Port Talbot,,51.59192,-3.775576,200,OK
52.982844,-1.307048,DE7 8EN,Erewash,East Midlands,52.982844,-1.307048,200,OK
51.122788,0.225561,TN3 9JJ,Wealden,South East,51.122788,0.225561,200,OK
50.215846,-5.478141,TR26 1NX,Cornwall,South West,50.215846,-5.478141,200,OK
52.959398,-3.406692,LL21 0LA,Denbighshire,,52.959398,-3.406692,200,OK
53.739653,-2.491157,BB2 2NB,Blackburn with Darwen,North West,53.739653,-2.491157,200,OK
53.394229,-3.033023,,,,,,200,OK
51.854186,0.997158,CO7 8BX,Tendring,East of England,51.85422,0.99793,200,OK
51.675627,-0.386428,WD24 7NY,Watford,East of England,51.675553,-0.385592,200,OK
55.853466,-4.258972,G5 9HU,Glasgow City,,55.85311,-4.258969,200,OK
51.512632,-0.138492,W1F 9PY,Westminster,London,51.512641,-0.138491,200,OK
51.143283,0.893244,TN24 0RY,Ashford,South East,51.143283,0.893244,200,OK
56.083393,-4.825396,G84 0BP,Argyll and Bute,,56.083393,-4.825396,200,OK
52.384323,-1.250117,CV21 1XQ,Rugby,West Midlands,52.384323,-1.250117,200,OK
52.16469,-1.786388,CV37 8ET,Stratford-on-Avon,West Midlands,52.16469,-1.786388,200,OK
51.556066,-0.059138,E5 8QD,Hackney,London,51.556066,-0.059138,200,OK
51.513953,-0.148094,W1K 5RX,Westminster,London,51.513953,-0.148094,200,OK
52.412563,-1.773154,B91 3DP,Solihull,West Midlands,52.412563,-1.773154,200,OK
50.953075,-4.141208,EX38 8EH,Torridge,South West,50.953075,-4.141208,200,OK
54.547066,-6.027779,BT17 0ZA,Belfast,,54.547066,-6.027779,200,OK
51.696858,-3.415649,,,,,,200,OK
51.633821,-0.742172,HP13 6QE,Buckinghamshire,South East,51.633821,-0.742172,200,OK
52.940412,-1.24758,,,,,,200,OK
51.121716,-0.865349,GU35 0GL,East Hampshire,South East,51.121716,-0.865349,200,OK
52.75081,-1.474193,LE65 2JF,North West Leicestershire,East Midlands,52.750945,-1.474176,200,OK
53.413181,-3.027509,CH44 9DN,Wirral,North West,53.413064,-3.027537,200,OK
54.773413,-1.396051,,,,,,200,OK
50.729572,-1.85557,BH1 4SB,"Bournemouth, Christchurch and Poole",South West,50.729572,-1.85557,200,OK
54.07757,-0.93454,YO60 7QG,North Yorkshire,Yorkshire and The Humber,54.07757,-0.93454,200,OK
54.614367,-5.942769,BT14 6EU,Belfast,,54.614367,-5.942769,200,OK
51.245884,-0.18565,RH2 0LG,Reigate and Banstead,South East,51.245884,-0.18565,200,OK
52.387145,-1.785993,B90 4YU,Solihull,West Midlands,52.387145,-1.785993,200,OK
52.408487,-1.549185,CV5 8EZ,Coventry,West Midlands,52.408558,-1.549249,200,OK
54.926778,-1.606736,NE9 6LA,Gateshead,North East,54.926778,-1.606736,200,OK
53.631269,-2.366971,BL8 4JR,Bury,North West,53.631269,-2.366971,200,OK
52.051839,-2.704869,HR1 2RZ,"Herefordshire, County of",West Midlands,52.051839,-2.704869,200,OK
51.563232,0.699734,SS2 6RG,Southend-on-Sea,East of England,51.563232,0.699734,200,OK
51.32842,-2.951979,BS24 9AN,North Somerset,South West,51.328446,-2.951684,200,OK
54.544634,-3.590426,CA28 0ZZ,Cumberland,North West,54.544634,-3.590426,200,OK
53.502028,-1.345123,S63 7LW,Rotherham,Yorkshire and The Humber,53.501952,-1.34425,200,OK
51.640747,-0.390355,WD19 4NQ,Watford,East of England,51.640916,-0.390869,200,OK
52.587476,-0.241043,PE1 3AT,Peterborough,East of England,52.587476,-0.241043,200,OK
57.504947,-1.79199,,,,,,200,OK
53.774543,-1.701594,BD4 0QZ,Bradford,Yorkshire and The Humber,53.774543,-1.701594,200,OK
51.567413,-0.335967,HA1 3NF,Harrow,London,51.567413,-0.335967,200,OK
51.397494,-0.662487,SL5 9BP,Windsor and Maidenhead,South East,51.397373,-0.662146,200,OK
53.296836,-1.515061,S18 7WX,North East Derbyshire,East Midlands,53.296836,-1.515061,200,OK
52.913147,-1.249063,NG9 5HA,Broxtowe,East Midlands,52.913147,-1.249063,200,OK
54.609269,-5.954728,BT13 3GZ,Belfast,,54.60929,-5.954929,200,OK
53.143439,-1.197138,NG18 1JQ,Mansfield,East Midlands,53.143346,-1.196751,200,OK
52.75103,0.381919,PE34 3LQ,King's Lynn and West Norfolk,East of England,52.75103,0.381919,200,OK
53.628081,-2.14125,OL16 2SY,Rochdale,North West,53.628081,-2.14125,200,OK
53.378107,-3.128888,CH49 3PG,Wirral,North West,53.377737,-3.129043,200,OK
51.433581,-0.467939,TW15 2PT,Spelthorne,South East,51.433581,-0.467939,200,OK
52.529214,-1.224406,LE9 6PR,Harborough,East Midlands,52.528824,-1.223897,200,OK
56.650029,-2.886541,DD8 3WA,Angus,,56.650029,-2.886541,200,OK
53.770603,-2.692307,PR1 6LP,Preston,North West,53.770603,-2.692307,200,OK
54.011474,-1.077318,YO32 3YY,York,Yorkshire and The Humber,54.011474,-1.077318,200,OK
54.843368,-7.446965,BT82 8LF,Derry City and Strabane,,54.843368,-7.446965,200,OK
54.614031,-1.279184,TS23 3DW,Stockton-on-Tees,North East,54.614031,-1.279184,200,OK
51.475879,0.108087,DA16 3ET,Bexley,London,51.475879,0.10806,200,OK
53.552196,-1.479228,S70 1RQ,Barnsley,Yorkshire and The Humber,53.551817,-1.478887,200,OK
53.537208,-2.418196,M38 9AH,Salford,North West,53.537208,-2.418196,200,OK
56.006253,-3.796964,FK2 7GT,Falkirk,,56.006253,-3.796964,200,OK
52.434097,-1.460465,CV2 1DX,Coventry,West Midlands,52.434097,-1.460465,200,OK
55.877221,-3.10796,EH19 2AE,Midlothian,,55.877221,-3.10796,200,OK
52.059563,1.18006,IP4 4DS,Ipswich,East of England,52.059563,1.18006,200,OK
52.667597,-1.126224,LE4 4DE,Charnwood,East Midlands,52.667597,-1.126224,200,OK
50.917454,-1.452136,,,,,,200,OK
52.463414,-1.743912,B37 7XL,Solihull,West Midlands,52.463414,-1.743912,200,OK
56.059734,-3.427028,KY11 8RF,Fife,,56.059734,-3.427028,200,OK
51.25551,-3.003444,TA8 2PU,Somerset,South West,51.25551,-3.003444,200,OK
51.541252,-0.152509,NW1 8EQ,Camden,London,51.541309,-0.152694,200,OK
53.403372,-1.500224,S6 2BP,Sheffield,Yorkshire and The Humber,53.403372,-1.500224,200,OK
50.122751,-5.538788,TR18 2BW,Cornwall,South West,50.122751,-5.538788,200,OK
50.808856,-0.393041,BN11 5AP,Worthing,South East,50.808856,-0.393041,200,OK
53.519137,-2.343317,M27 9UA,Salford,North West,53.519137,-2.343317,200,OK
57.551143,-2.635426,AB54 7RZ,Aberdeenshire,,57.551143,-2.635426,200,OK
51.729863,-2.523027,GL15 5AG,Forest of Dean,South West,51.729863,-2.523027,200,OK
55.877808,-3.627609,EH47 7HF,West Lothian,,55.877808,-3.627609,200,OK
57.637405,-2.161909,,,,,,200,OK
51.507683,-2.559885,BS34 7JT,South Gloucestershire,South West,51.507656,-2.559798,200,OK
51.583536,-2.81583,NP26 3FG,Monmouthshire,,51.583536,-2.81583,200,OK
53.658777,-1.425439,WF4 1HG,Wakefield,Yorkshire and The Humber,53.658777,-1.425439,200,OK
53.635447,-2.165442,OL12 0SY,Rochdale,North West,53.635447,-2.165442,200,OK
53.265993,-2.898528,CH65 9DA,Cheshire West and Chester,North West,53.265993,-2.898528,200,OK
52.285589,0.125804,,,,,,200,OK
53.165875,0.34104,PE25 1ES,East Lindsey,East Midlands,53.165875,0.34104,200,OK
53.6143,-1.139984,DN6 0PD,Doncaster,Yorkshire and The Humber,53.6143,-1.139984,200,OK
54.365653,-1.453775,DL6 2NT,North Yorkshire,Yorkshire and The Humber,54.365497,-1.454525,200,OK
52.784088,1.600786,NR12 0UB,North Norfolk,East of England,52.784088,1.600786,200,OK
53.033209,-2.163572,ST1 2NE,Stoke-on-Trent,West Midlands,53.03328,-2.163646,200,OK
53.739396,-2.798934,PR4 5JH,South Ribble,North West,53.739396,-2.798934,200,OK
52.464505,-1.475121,CV7 9EJ,Nuneaton and Bedworth,West Midlands,52.463777,-1.475159,200,OK
52.963553,-1.182608,NG7 5RD,Nottingham,East Midlands,52.963958,-1.182374,200,OK
51.512847,-0.084153,EC3V 0AE,City of London,London,51.512805,-0.084327,200,OK
51.422504,-2.238401,SN13 8HJ,Wiltshire,South West,51.422522,-2.238315,200,OK
51.223267,1.390813,CT14 9QF,Dover,South East,51.22331,1.390873,200,OK
54.536677,-3.553283,CA28 8RW,Cumberland,North West,54.536677,-3.553283,200,OK
51.828118,-3.012572,NP7 5TD,Monmouthshire,,51.828118,-3.012572,200,OK
55.861115,-4.262357,G2 7HX,Glasgow City,,55.861202,-4.262489,200,OK
55.009297,-1.643988,NE3 3AY,Newcastle upon Tyne,North East,55.009297,-1.643988,200,OK
52.163638,-2.192011,WR5 2SF,Wychavon,West Midlands,52.163638,-2.192011,200,OK
50.371936,-4.116222,PL4 9QT,Plymouth,South West,50.371903,-4.116079,200,OK
50.761408,-3.465777,EX4 0AT,East Devon,South West,50.761408,-3.465777,200,OK
52.9961,-2.338302,CW3 9PG,Newcastle-under-Lyme,West Midlands,52.9961,-2.338302,200,OK
53.821414,-1.73143,BD2 2LR,Bradford,Yorkshire and The Humber,53.821414,-1.73143,200,OK
52.136838,-1.610681,CV37 7TQ,Stratford-on-Avon,West Midlands,52.136838,-1.610681,200,OK
54.21277,-0.304127,YO14 0EZ,North Yorkshire,Yorkshire and The Humber,54.21277,-0.304127,200,OK
50.940859,-1.373053,SO18 2QL,Southampton,South East,50.940859,-1.373053,200,OK
50.803277,-1.961037,BH21 2PS,Dorset,South West,50.803655,-1.961916,200,OK
55.960326,-3.175976,EH7 5GY,City of Edinburgh,,55.960479,-3.17539,200,OK
51.399801,-0.772145,RG12 8YR,Bracknell Forest,South East,51.399801,-0.772145,200,OK
53.936463,-1.517184,HG3 1HW,North Yorkshire,Yorkshire and The Humber,53.936463,-1.517184,200,OK
50.385833,-4.160661,PL2 3AS,Plymouth,South West,50.385833,-4.160661,200,OK
53.641129,-2.63192,PR7 3JJ,Chorley,North West,53.641129,-2.63192,200,OK
56.434457,-2.948815,DD6 8HL,Fife,,56.434457,-2.948815,200,OK
56.080023,-3.86682,FK7 7DA,Stirling,,56.080023,-3.86682,200,OK
52.66926,1.622467,NR29 3FD,Great Yarmouth,East of England,52.66926,1.622467,200,OK
53.066689,-1.301196,NG16 6BQ,Ashfield,East Midlands,53.066689,-1.301196,200,OK
51.31503,-2.638403,BS40 6HH,Bath and North East Somerset,South West,51.315152,-2.638335,200,OK
50.868956,-1.407698,SO45 5DD,New Forest,South East,50.868956,-1.407698,200,OK
51.302291,0.425979,ME19 5RA,Tonbridge and Malling,South East,51.302291,0.425979,200,OK
50.813638,-1.089822,PO2 8DR,Portsmouth,South East,50.813483,-1.088605,200,OK
53.356914,-2.165321,SK7 1JN,Stockport,North West,53.356914,-2.165321,200,OK
50.856648,-1.213229,PO15 5HL,Fareham,South East,50.856648,-1.213229,200,OK
53.645498,-1.66015,WF12 0NU,Kirklees,Yorkshire and The Humber,53.645498,-1.66015,200,OK
