lat,lon,postcode,admin_district,region,latitude,longitude,estado_api,descripcion_estado
50.518382,-4.831866,PL27 6BY,Cornwall,South West,50.518382,-4.831866,200,OK
51.514973,-0.122283,WC2B 5QG,Camden,London,51.514948,-0.122302,200,OK
50.633686,-3.326714,EX9 6SU,East Devon,South West,50.633394,-3.326253,200,OK
51.908094,-0.653175,LU7 4AJ,Central Bedfordshire,East of England,51.907479,-0.653488,200,OK
53.523404,-1.655003,S36 9QL,Barnsley,Yorkshire and The Humber,53.523404,-1.655003,200,OK
53.421099,-3.047263,CH45 4RE,Wirral,North West,53.421037,-3.047201,200,OK
51.648213,0.086572,IG10 3TB,Epping Forest,East of England,51.648213,0.086572,200,OK
51.63212,0.324422,CM15 8RB,Brentwood,East of England,51.63212,0.324422,200,OK
53.527228,-2.12073,OL8 4HP,Oldham,North West,53.527228,-2.12073,200,OK
52.899989,-1.09539,NG12 4EW,Rushcliffe,East Midlands,52.899989,-1.09539,200,OK
51.767005,-0.586358,HP4 3AX,Dacorum,East of England,51.767182,-0.586135,200,OK
52.46932,-1.923144,B15 3DP,Birmingham,West Midlands,52.469266,-1.923071,200,OK
55.779024,-3.950337,ML2 7RQ,North Lanarkshire,,55.779024,-3.950337,200,OK
53.078431,-2.18394,ST6 6TN,Stoke-on-Trent,West Midlands,53.078431,-2.18394,200,OK
53.476351,-2.207626,M11 3NT,Manchester,North West,53.476351,-2.207626,200,OK
50.912506,-1.402324,SO15 2QD,Southampton,South East,50.912507,-1.402315,200,OK
52.443917,-2.048161,B63 3DL,Dudley,West Midlands,52.443917,-2.048161,200,OK
52.977857,-1.238111,NG8 6DQ,Nottingham,East Midlands,52.977857,-1.238111,200,OK
54.57207,-1.277465,TS18 2PW,Stockton-on-Tees,North East,54.572452,-1.278293,200,OK
51.624394,-0.052799,N9 0RN,Enfield,London,51.624394,-0.052799,200,OK
51.061053,0.364134,TN5 7JX,Rother,South East,51.061053,0.364134,200,OK
58.218197,-6.384532,HS1 2HG,Na h-Eileanan Siar,,58.218197,-6.384532,200,OK
54.678894,-5.901238,BT37 0TL,Antrim and Newtownabbey,,54.678894,-5.901238,200,OK
53.800349,-0.379258,HU6 0AH,East Riding of Yorkshire,Yorkshire and The Humber,53.800349,-0.379258,200,OK
52.562751,-1.82309,B72 1XX,Birmingham,West Midlands,52.562616,-1.823238,200,OK
55.095401,-1.605679,,,,,,200,OK
54.104908,-0.200252,YO16 6ET,East Riding of Yorkshire,Yorkshire and The Humber,54.104908,-0.200252,200,OK
51.752856,-1.212241,OX3 7GB,Oxford,South East,51.752856,-1.212241,200,OK
53.76273,-1.881492,HX2 9UR,Calderdale,Yorkshire and The Humber,53.76273,-1.881492,200,OK
52.181758,1.615469,IP16 4NA,East Suffolk,East of England,52.181758,1.615469,200,OK
51.059377,-2.675047,TA11 6AE,Somerset,South West,51.059377,-2.675047,200,OK
56.133721,-3.383604,KY4 0DU,Fife,,56.133721,-3.383604,200,OK
53.384101,-2.723695,WA8 9LX,Halton,North West,53.384101,-2.723695,200,OK
52.562585,-3.320182,,,,,,200,OK
50.314523,-3.915658,TQ7 4PU,South Hams,South West,50.314523,-3.915658,200,OK
52.512794,-2.036891,B69 3HJ,Sandwell,West Midlands,52.512731,-2.036714,200,OK
51.457818,-0.110105,SW2 1PW,Lambeth,London,51.457818,-0.110105,200,OK
51.840581,-3.013462,NP7 7HN,Monmouthshire,,51.840581,-3.013462,200,OK
51.571086,-0.776327,SL7 1AW,Buckinghamshire,South East,51.571086,-0.776327,200,OK
51.549018,-0.18107,NW3 5HL,Camden,London,51.549018,-0.18107,200,OK
55.262871,-2.174633,NE19 1HH,Northumberland,North East,55.262522,-2.175159,200,OK
53.414815,-0.787686,DN21 3BL,West Lindsey,East Midlands,53.414815,-0.787686,200,OK
52.456601,-2.108857,DY9 8TN,Dudley,West Midlands,52.456211,-2.108791,200,OK
51.228979,1.135206,CT4 5HY,Canterbury,South East,51.228979,1.135206,200,OK
55.544971,-2.012857,NE71 6NB,Northumberland,North East,55.544971,-2.012857,200,OK
51.800741,-0.408947,AL3 7JD,St Albans,East of England,51.800741,-0.408947,200,OK
53.876567,-2.988354,FY5 5NT,Wyre,North West,53.876567,-2.988354,200,OK
53.049257,-2.998482,LL11 1EH,Wrexham,,53.049257,-2.998482,200,OK
53.524236,-2.416153,M28 0LJ,Salford,North West,53.524236,-2.416153,200,OK
52.7574,-0.386833,PE10 0WZ,South Kesteven,East Midlands,52.7574,-0.386833,200,OK
53.369395,-2.586289,WA4 6JH,Warrington,North West,53.369401,-2.586288,200,OK
52.548013,-1.90422,B44 8NX,Birmingham,West Midlands,52.548013,-1.90422,200,OK
55.794662,-4.005581,ML1 3LP,North Lanarkshire,,55.794636,-4.005857,200,OK
50.860916,-0.08428,BN1 9BL,Brighton and Hove,South East,50.860916,-0.08428,200,OK
51.657962,-0.089992,EN2 6NZ,Enfield,London,51.657965,-0.089966,200,OK
51.47968,-2.691849,BS20 0DQ,North Somerset,South West,51.47968,-2.691849,200,OK
50.877613,-1.252264,PO15 7FN,Winchester,South East,50.8778,-1.251906,200,OK
53.64008,-2.305276,BL9 5NH,Bury,North West,53.64008,-2.305276,200,OK
51.894415,0.193929,CM24 8FW,Uttlesford,East of England,51.894415,0.193929,200,OK
55.890695,-4.291346,G20 8YE,Glasgow City,,55.890775,-4.291145,200,OK
53.705981,-1.674693,WF16 0JW,Kirklees,Yorkshire and The Humber,53.705981,-1.674693,200,OK
53.395437,-3.179141,CH47 2DD,Wirral,North West,53.395437,-3.179141,200,OK
50.887073,-3.369174,EX15 2SN,Mid Devon,South West,50.887073,-3.369174,200,OK
50.733964,-3.876462,EX20 2RA,West Devon,South West,50.733964,-3.876462,200,OK
54.85472,-1.82924,DH8 6AG,County Durham,North East,54.85472,-1.82924,200,OK
53.068545,-1.965082,ST10 2LL,Staffordshire Moorlands,West Midlands,53.068545,-1.965082,200,OK
53.310096,-2.646995,WA4 4JZ,Halton,North West,53.310128,-2.64716,200,OK
55.95292,-3.191223,EH1 1BQ,City of Edinburgh,,55.952622,-3.19131,200,OK
53.502926,-2.945807,L31 7BG,Sefton,North West,53.502926,-2.945807,200,OK
52.105896,0.687464,CO10 9AN,Babergh,East of England,52.105896,0.687464,200,OK
50.84956,0.447973,TN39 4LT,Rother,South East,50.84956,0.447973,200,OK
52.98473,-2.127193,ST3 1PX,Stoke-on-Trent,West Midlands,52.984729,-2.127192,200,OK
50.726414,-1.82784,BH5 1NF,"Bournemouth, Christchurch and Poole",South West,50.726414,-1.82784,200,OK
51.0823,-1.854439,SP2 0FS,Wiltshire,South West,51.0823,-1.854439,200,OK
51.632487,-0.179423,N20 9QL,Barnet,London,51.633066,-0.178912,200,OK
51.532707,-0.623581,SL2 1QY,Slough,South East,51.532707,-0.623581,200,OK
50.934428,-1.348179,SO30 3SE,Eastleigh,South East,50.934729,-1.34721,200,OK
51.476133,-0.222592,SW6 6NW,Hammersmith and Fulham,London,51.476133,-0.222592,200,OK
53.452732,-2.39529,M41 8QQ,Trafford,North West,53.452732,-2.39529,200,OK
52.289404,-0.249032,PE19 5UT,Huntingdonshire,East of England,52.289399,-0.248909,200,OK
55.932385,-3.249962,EH11 3DZ,City of Edinburgh,,55.932385,-3.249962,200,OK
50.900352,0.274743,,,,,,200,OK
51.711348,-4.699174,SA69 9ER,Pembrokeshire,,51.711348,-4.699174,200,OK
51.771258,-0.937541,HP17 8HU,Buckinghamshire,South East,51.771277,-0.937569,200,OK
51.464594,-0.099273,SE24 0AX,Lambeth,London,51.464594,-0.099273,200,OK
51.563052,-2.339527,BS37 6QR,South Gloucestershire,South West,51.563052,-2.339527,200,OK
51.405349,-3.260237,CF63 3NR,Vale of Glamorgan,,51.405314,-3.260193,200,OK
53.176934,-1.176329,NG19 9EU,Mansfield,East Midlands,53.176934,-1.176329,200,OK
51.65302,0.612074,CM3 5SQ,Chelmsford,East of England,51.65302,0.612074,200,OK
52.655838,-1.150867,LE4 0LB,Leicester,East Midlands,52.655838,-1.150867,200,OK
52.882117,-1.483718,DE24 9RS,Derby,East Midlands,52.882117,-1.483718,200,OK
55.908388,-4.314615,G61 2JJ,East Dunbartonshire,,55.908388,-4.314615,200,OK
53.441239,-1.32408,S65 2BF,Rotherham,Yorkshire and The Humber,53.441239,-1.32408,200,OK
50.857486,0.574305,TN34 1ED,Hastings,South East,50.857486,0.574305,200,OK
51.11659,-0.216964,RH11 0JJ,Crawley,South East,51.11659,-0.216964,200,OK
54.060593,-2.882855,LA3 1HN,Lancaster,North West,54.060593,-2.882855,200,OK
53.581095,-2.460634,BL1 4QN,Bolton,North West,53.581095,-2.460634,200,OK
53.829919,-1.349487,LS25 3BX,Leeds,Yorkshire and The Humber,53.829919,-1.349487,200,OK
53.588627,-2.765875,WN8 7JH,West Lancashire,North West,53.589009,-2.765127,200,OK
53.193543,-2.857975,CH3 5NY,Cheshire West and Chester,North West,53.193543,-2.857975,200,OK
53.20594,-2.872731,CH2 2LQ,Cheshire West and Chester,North West,53.20594,-2.872731,200,OK
54.664551,-5.639969,BT20 5NY,Ards and North Down,,54.664567,-5.63989,200,OK
50.681998,-3.46364,EX3 0AB,Exeter,South West,50.681998,-3.46364,200,OK
55.598192,-1.830458,NE70 7QA,Northumberland,North East,55.598192,-1.830458,200,OK
52.711521,-2.002947,WS12 4AH,Cannock Chase,West Midlands,52.711521,-2.002947,200,OK
51.894964,-2.123026,GL51 6BT,Cheltenham,South West,51.894964,-2.123026,200,OK
54.656567,-5.640184,BT20 4PX,Ards and North Down,,54.656567,-5.640184,200,OK
51.426117,-0.162608,SW17 8AR,Wandsworth,London,51.426149,-0.162348,200,OK
53.396413,-1.491252,S6 2TX,Sheffield,Yorkshire and The Humber,53.396413,-1.491252,200,OK
55.826229,-4.53054,PA5 0LQ,Renfrewshire,,55.826229,-4.53054,200,OK
51.451182,-2.52241,BS5 8RL,"Bristol, City of",South West,51.451182,-2.52241,200,OK
54.607501,-1.293496,TS23 2NN,Stockton-on-Tees,North East,54.607542,-1.293789,200,OK
53.494685,-2.054768,SK15 1HL,Tameside,North West,53.494685,-2.054768,200,OK
51.58401,-3.770014,SA13 1LW,Neath Port Talbot,,51.58401,-3.770014,200,OK
51.48707,0.14597,DA17 5BB,Bexley,London,51.48707,0.14597,200,OK
55.42792,-5.594647,,,,,,200,OK
53.782333,-1.784462,BD7 3EX,Bradford,Yorkshire and The Humber,53.782288,-1.784432,200,OK
50.360533,-4.1077,PL9 7LJ,Plymouth,South West,50.360533,-4.1077,200,OK
51.614536,-1.231164,OX11 7TS,South Oxfordshire,South East,51.614536,-1.231164,200,OK
51.383482,-2.363501,BA1 2HQ,Bath and North East Somerset,South West,51.383583,-2.362869,200,OK
53.622673,-2.949299,PR8 5LX,West Lancashire,North West,53.622698,-2.949283,200,OK
51.628691,-3.228228,CF82 9BY,Caerphilly,,51.628691,-3.228228,200,OK
51.576627,-0.103406,N4 1SG,Haringey,London,51.576627,-0.103406,200,OK
52.442704,-1.524003,CV6 2HU,Coventry,West Midlands,52.442704,-1.524003,200,OK
53.405599,-2.991812,L2 7QB,Liverpool,North West,53.405599,-2.991812,200,OK
53.833901,-1.056994,YO19 6SZ,North Yorkshire,Yorkshire and The Humber,53.833901,-1.056994,200,OK
53.24753,-2.211266,,,,,,200,OK
51.156525,-0.605389,GU8 4BA,Waverley,South East,51.156525,-0.605389,200,OK
54.66423,-1.244886,TS25 4BH,Hartlepool,North East,54.66423,-1.244886,200,OK
53.404104,-0.768781,DN21 1EF,West Lindsey,East Midlands,53.404104,-0.768781,200,OK
51.737697,-0.466359,HP3 9RW,Dacorum,East of England,51.737697,-0.466359,200,OK
51.869207,0.55606,CM7 1DZ,Braintree,East of England,51.869207,0.55606,200,OK
51.228898,-3.837963,EX35 6BY,North Devon,South West,51.228898,-3.837963,200,OK
50.721063,-1.854236,BH1 3HQ,"Bournemouth, Christchurch and Poole",South West,50.721063,-1.854236,200,OK
50.517441,-4.448006,PL14 5LS,Cornwall,South West,50.517441,-4.448006,200,OK
53.050163,-2.297776,ST7 8JB,Newcastle-under-Lyme,West Midlands,53.04988,-2.298878,200,OK
51.552991,0.800504,SS3 0HF,Rochford,East of England,51.55336,0.800094,200,OK
53.314774,-2.971106,CH62 8HB,Wirral,North West,53.314706,-2.97172,200,OK
51.49425,-0.057471,SE16 2ET,Southwark,London,51.49425,-0.057471,200,OK
51.547352,-1.72833,SN3 6HQ,Swindon,South West,51.547352,-1.72833,200,OK
50.78534,-1.727191,BH23 8DB,New Forest,South East,50.785554,-1.727168,200,OK
54.563196,-6.052897,BT17 0NR,Lisburn and Castlereagh,,54.563196,-6.052897,200,OK
51.372938,0.700735,ME9 8QE,Swale,South East,51.372938,0.700735,200,OK
52.422484,-0.799496,NN14 6FA,North Northamptonshire,East Midlands,52.422544,-0.799245,200,OK
53.028819,-1.464453,DE56 1HJ,Amber Valley,East Midlands,53.028865,-1.464614,200,OK
53.396652,-2.323561,WA15 6PA,Trafford,North West,53.396652,-2.323561,200,OK
54.502117,-6.772604,BT70 1BJ,Mid Ulster,,54.502207,-6.772601,200,OK
51.582111,-0.101099,N8 0BH,Haringey,London,51.582111,-0.101099,200,OK
55.167068,-1.690933,NE61 1PS,Northumberland,North East,55.167009,-1.690993,200,OK
51.456547,-0.161948,SW11 6SA,Wandsworth,London,51.456547,-0.161948,200,OK
54.602604,-1.267403,,,,,,200,OK
51.515646,-0.13403,W1F 8BB,Westminster,London,51.515695,-0.134205,200,OK
51.37716,-2.128885,SN12 7BT,Wiltshire,South West,51.37716,-2.128885,200,OK
51.745163,-1.234004,OX4 1YD,Oxford,South East,51.745163,-1.234004,200,OK
51.434551,-1.074347,RG7 4BQ,West Berkshire,South East,51.434705,-1.073351,200,OK
52.783028,-2.086468,ST17 4HX,Stafford,West Midlands,52.783028,-2.086468,200,OK
51.010408,-3.127851,TA1 5LZ,Somerset,South West,51.010408,-3.127851,200,OK
53.398393,-2.968498,L8 7TA,Liverpool,North West,53.398423,-2.968152,200,OK
50.959698,-0.120719,RH15 0LL,Mid Sussex,South East,50.959698,-0.120719,200,OK
52.930832,-1.484076,DE22 1AA,Derby,East Midlands,52.930832,-1.484076,200,OK
55.173681,-1.68215,NE61 2FU,Northumberland,North East,55.173681,-1.68215,200,OK
51.900664,-1.764503,GL54 2HT,Cotswold,South West,51.900664,-1.764503,200,OK
52.607033,-1.950326,WS4 1LN,Walsall,West Midlands,52.607033,-1.950326,200,OK
52.387371,-2.778543,SY8 2JZ,Shropshire,West Midlands,52.387367,-2.778468,200,OK
53.545114,-1.520394,S75 3LJ,Barnsley,Yorkshire and The Humber,53.545114,-1.520394,200,OK
52.310813,-0.158212,PE29 2PE,Huntingdonshire,East of England,52.310813,-0.158212,200,OK
53.552266,-2.140529,OL9 0EJ,Oldham,North West,53.552266,-2.140529,200,OK
53.416975,-2.091123,SK6 4BH,Stockport,North West,53.416975,-2.091123,200,OK
53.591007,-1.321331,WF9 3PE,Wakefield,Yorkshire and The Humber,53.591007,-1.321331,200,OK
50.973852,0.109503,TN22 1UY,Wealden,South East,50.973563,0.109417,200,OK
52.905204,-1.190724,NG11 8SJ,Nottingham,East Midlands,52.905204,-1.190724,200,OK
52.440745,-1.847485,B28 8BE,Birmingham,West Midlands,52.440863,-1.848,200,OK
54.944962,-1.978083,NE44 6AP,Northumberland,North East,54.944897,-1.978467,200,OK
51.53424,-0.702862,SL6 8TJ,Windsor and Maidenhead,South East,51.53424,-0.702862,200,OK
57.021961,-2.161609,AB39 3XU,Aberdeenshire,,57.021961,-2.161609,200,OK
58.008163,-3.855776,KW9 6PH,Highland,,58.008163,-3.855776,200,OK
51.311601,-0.562398,GU22 7QY,Woking,South East,51.311601,-0.562398,200,OK
56.462321,-3.060563,DD2 5RH,Perth and Kinross,,56.462321,-3.060563,200,OK
53.790828,-1.527691,LS9 8BU,Leeds,Yorkshire and The Humber,53.791238,-1.527372,200,OK
52.392431,-1.988103,B31 2GZ,Birmingham,West Midlands,52.392989,-1.988132,200,OK
52.568957,-1.829918,B73 6DQ,Birmingham,West Midlands,52.568941,-1.830789,200,OK
50.755847,-2.079719,BH16 6EE,Dorset,South West,50.755847,-2.079719,200,OK
53.423962,-2.936423,L6 4BW,Liverpool,North West,53.423962,-2.936423,200,OK
53.493554,-2.499492,WN7 2BZ,Wigan,North West,53.493554,-2.499492,200,OK
52.563669,-1.823868,B72 1QB,Birmingham,West Midlands,52.563669,-1.823868,200,OK
53.59963,-2.322571,BL8 1QA,Bury,North West,53.59963,-2.322571,200,OK
53.853282,-1.923392,BD22 7BW,Bradford,Yorkshire and The Humber,53.853282,-1.923392,200,OK
53.365301,-2.205748,SK8 6RD,Stockport,North West,53.365301,-2.205748,200,OK
52.1495,-0.432583,MK41 8HX,Bedford,East of England,52.1495,-0.432583,200,OK
53.360544,-2.853859,L25 0NU,Liverpool,North West,53.360544,-2.853859,200,OK
53.487012,-2.046921,SK15 3AZ,Tameside,North West,53.487082,-2.047417,200,OK
50.921518,-1.214114,SO32 2HD,Winchester,South East,50.921518,-1.214114,200,OK
53.568014,-0.122281,DN37 9BL,North East Lincolnshire,Yorkshire and The Humber,53.568014,-0.122281,200,OK
52.411011,-1.570256,CV5 7HN,Coventry,West Midlands,52.411011,-1.570256,200,OK
53.238232,-1.43778,S40 4AA,Chesterfield,East Midlands,53.23846,-1.438541,200,OK
55.067921,-3.611463,DG1 2PF,Dumfries and Galloway,,55.067921,-3.611463,200,OK
53.578236,-2.307126,BL9 9LY,Bury,North West,53.578251,-2.307154,200,OK
51.030576,-1.270212,SO21 1NA,Winchester,South East,51.030576,-1.270212,200,OK
51.502786,-0.10205,SE1 0BZ,Southwark,London,51.502786,-0.10205,200,OK
51.610532,-0.643614,HP9 1QX,Buckinghamshire,South East,51.610532,-0.643614,200,OK
51.521887,-0.58104,SL2 5QR,Slough,South East,51.521887,-0.58104,200,OK
52.176332,0.721052,,,,,,200,OK
52.466043,-1.915393,B15 2LQ,Birmingham,West Midlands,52.466043,-1.915393,200,OK
53.833996,-1.670788,LS18 4GQ,Leeds,Yorkshire and The Humber,53.833996,-1.670788,200,OK
52.02636,-0.753928,MK6 5NA,Milton Keynes,South East,52.02636,-0.753928,200,OK
51.683963,-3.34059,CF48 4PD,Merthyr Tydfil,,51.683963,-3.34059,200,OK
53.451829,-2.218499,M14 5HH,Manchester,North West,53.451829,-2.218499,200,OK
53.07376,-3.025111,LL11 4HB,Wrexham,,53.07376,-3.025111,200,OK
51.513705,-0.070235,E1 8PT,Tower Hamlets,London,51.513705,-0.070235,200,OK
51.572186,-0.78787,SL7 2RH,Buckinghamshire,South East,51.572186,-0.78787,200,OK
53.620237,-2.600933,PR6 9NF,Chorley,North West,53.620237,-2.600933,200,OK
53.885086,-2.039901,BD22 0DX,North Yorkshire,Yorkshire and The Humber,53.885086,-2.039901,200,OK
56.07212,-3.460516,KY12 7QU,Fife,,56.072238,-3.45997,200,OK
53.309768,-2.688008,WA7 3EE,Cheshire West and Chester,North West,53.309768,-2.688008,200,OK
55.950875,-3.188886,EH1 1BX,City of Edinburgh,,55.95096,-3.188906,200,OK
53.406734,-2.981654,L1 1LY,Liverpool,North West,53.406734,-2.981654,200,OK
51.00902,-0.087094,RH16 2AL,Mid Sussex,South East,51.00902,-0.087094,200,OK
51.02782,-3.143347,TA2 6RP,Somerset,South West,51.02782,-3.143347,200,OK
54.873105,-2.893924,CA1 3JA,Cumberland,North West,54.873105,-2.893924,200,OK
53.352395,-3.318517,CH8 9RP,Flintshire,,53.352395,-3.318517,200,OK
51.886471,-2.119661,GL51 6HT,Cheltenham,South West,51.886471,-2.119661,200,OK
54.284903,-1.805628,DL8 4NP,North Yorkshire,Yorkshire and The Humber,54.284903,-1.805628,200,OK
50.835684,-2.98442,EX13 7BY,East Devon,South West,50.835684,-2.98442,200,OK
53.020928,-2.251897,ST5 6DB,Newcastle-under-Lyme,West Midlands,53.020893,-2.251748,200,OK
53.813098,-2.215379,BB10 2EH,Burnley,North West,53.813098,-2.215379,200,OK
52.859006,-4.618443,LL53 8DY,Gwynedd,,52.859006,-4.618443,200,OK
51.467093,-2.587519,BS6 5EN,"Bristol, City of",South West,51.467093,-2.587519,200,OK
50.844889,0.434801,TN39 4SG,Rother,South East,50.844889,0.434801,200,OK
51.916981,0.919198,CO4 9FB,Colchester,East of England,51.916981,0.919198,200,OK
53.819588,-1.48988,LS8 3DE,Leeds,Yorkshire and The Humber,53.819588,-1.48988,200,OK
58.510785,-3.489663,KW12 6YE,Highland,,58.510785,-3.489663,200,OK
54.627019,-1.649386,DL4 1HN,County Durham,North East,54.627019,-1.649386,200,OK
52.295449,-0.718456,NN8 3PY,North Northamptonshire,East Midlands,52.295449,-0.718456,200,OK
51.544023,-0.48523,UB8 2XJ,Hillingdon,London,51.544023,-0.48523,200,OK
51.147881,0.871309,TN23 1QT,Ashford,South East,51.147881,0.871309,200,OK
53.113472,-2.291102,ST7 3TB,Cheshire East,North West,53.113472,-2.291102,200,OK
52.270959,-1.90615,B80 7JL,Stratford-on-Avon,West Midlands,52.270959,-1.90615,200,OK
52.050693,-0.889139,MK19 6HB,West Northamptonshire,East Midlands,52.050693,-0.889139,200,OK
51.636184,-3.356795,CF37 3DT,Rhondda Cynon Taf,,51.636184,-3.356795,200,OK
52.035424,-0.811329,MK8 1BP,Milton Keynes,South East,52.035149,-0.810826,200,OK
54.921821,-2.028084,NE47 0DL,Northumberland,North East,54.921821,-2.028084,200,OK
53.629608,-1.784711,HD4 6JF,Kirklees,Yorkshire and The Humber,53.629608,-1.784711,200,OK
53.736999,-1.610431,LS27 0DQ,Leeds,Yorkshire and The Humber,53.736999,-1.610431,200,OK
53.413673,-2.069798,SK6 4JR,Stockport,North West,53.413673,-2.069798,200,OK
55.799364,-4.63502,PA12 4DH,Renfrewshire,,55.799364,-4.63502,200,OK
53.349559,-2.131343,SK12 1HB,Cheshire East,North West,53.349559,-2.131343,200,OK
51.856968,-1.427169,OX29 8HB,West Oxfordshire,South East,51.856898,-1.427518,200,OK
54.619314,-3.055915,CA12 4RZ,Westmorland and Furness,North West,54.619314,-3.055915,200,OK
51.351942,0.600006,ME8 8LP,Medway,South East,51.351942,0.600006,200,OK
51.989213,0.155433,,,,,,200,OK
56.205472,-3.430179,KY13 8FS,Perth and Kinross,,56.205472,-3.430179,200,OK
52.481077,-2.006774,B68 8PQ,Sandwell,West Midlands,52.481077,-2.006774,200,OK
51.125149,-1.062008,GU34 5PL,East Hampshire,South East,51.125149,-1.062008,200,OK
55.085171,-3.628811,DG2 0PW,Dumfries and Galloway,,55.085171,-3.628811,200,OK
55.427832,-1.6141,NE66 3NT,Northumberland,North East,55.427832,-1.6141,200,OK
52.931324,-4.215263,,,,,,200,OK
52.695224,-1.821749,WS13 7PG,Lichfield,West Midlands,52.695224,-1.821749,200,OK
52.011181,1.015092,CO7 6QF,Babergh,East of England,52.011203,1.015123,200,OK
51.583105,0.0765,IG6 1HU,Redbridge,London,51.583105,0.0765,200,OK
56.460239,-2.998514,DD2 1DD,Dundee City,,56.460239,-2.998514,200,OK
51.630358,-0.054538,N9 8QX,Enfield,London,51.630358,-0.054538,200,OK
52.523799,-2.055309,DY4 8RG,Sandwell,West Midlands,52.523799,-2.055309,200,OK
52.852013,-1.603486,DE65 6HL,South Derbyshire,East Midlands,52.852615,-1.603406,200,OK
50.411519,-4.213853,PL12 6HF,Cornwall,South West,50.411519,-4.213853,200,OK
54.584245,-5.924131,BT7 1RB,Belfast,,54.584245,-5.924131,200,OK
53.802975,-1.809075,BD8 0DA,Bradford,Yorkshire and The Humber,53.802975,-1.809075,200,OK
51.54209,0.165965,RM10 8YP,Barking and Dagenham,London,51.542165,0.165781,200,OK
54.87368,-2.340799,NE47 8DA,Northumberland,North East,54.87368,-2.340799,200,OK
51.654421,-3.602141,SA13 3YL,Neath Port Talbot,,51.654421,-3.602141,200,OK
53.602627,-2.282716,BL9 6YA,Bury,North West,53.602627,-2.282716,200,OK
51.663149,-3.828217,SA10 7NW,Neath Port Talbot,,51.663149,-3.828217,200,OK
53.058983,-3.091608,LL11 3DA,Wrexham,,53.058983,-3.091608,200,OK
53.705365,-1.861006,HX3 0ND,Calderdale,Yorkshire and The Humber,53.705365,-1.861006,200,OK
50.931485,-1.51168,SO40 2QG,New Forest,South East,50.931494,-1.511665,200,OK
55.834332,-4.085983,G71 6AY,North Lanarkshire,,55.834332,-4.085983,200,OK
52.577009,-0.382183,PE5 7XB,Peterborough,East of England,52.57659,-0.383097,200,OK
55.820836,-4.209794,G73 3QT,South Lanarkshire,,55.820836,-4.209794,200,OK
53.218683,-4.144409,LL57 2AJ,Gwynedd,,53.218683,-4.144409,200,OK
57.598615,-2.256967,AB43 6PR,Aberdeenshire,,57.598769,-2.256399,200,OK
53.79508,-1.527841,LS9 8FR,Leeds,Yorkshire and The Humber,53.794739,-1.528027,200,OK
51.273072,-0.74991,GU11 2JH,Rushmoor,South East,51.27345,-0.750832,200,OK
52.474913,-2.03766,B65 0HY,Sandwell,West Midlands,52.474913,-2.03766,200,OK
51.922614,-0.429576,LU3 4EQ,Luton,East of England,51.922614,-0.429576,200,OK
51.915526,-1.565244,,,,,,200,OK
52.301138,-0.697702,NN8 4LY,North Northamptonshire,East Midlands,52.301158,-0.697848,200,OK
56.201135,-3.220087,KY6 3LF,Fife,,56.201135,-3.220087,200,OK
53.081999,-2.462123,CW2 8BP,Cheshire East,North West,53.081484,-2.462281,200,OK
53.531983,-1.169262,DN5 8JR,Doncaster,Yorkshire and The Humber,53.531983,-1.169262,200,OK
51.291258,-0.359049,KT22 9QR,Mole Valley,South East,51.291258,-0.359049,200,OK
53.734991,-1.314753,WF10 2QX,Wakefield,Yorkshire and The Humber,53.734848,-1.315032,200,OK
55.054152,-1.675709,NE13 7JR,Newcastle upon Tyne,North East,55.054143,-1.675615,200,OK
54.019597,-0.407549,YO25 4LF,East Riding of Yorkshire,Yorkshire and The Humber,54.019597,-0.407549,200,OK
50.800559,-0.009008,BN10 7DF,Lewes,South East,50.800801,-0.008927,200,OK
55.815841,-4.2849,G43 2RT,Glasgow City,,55.815841,-4.2849,200,OK
53.015512,-2.2623,ST5 6PX,Newcastle-under-Lyme,West Midlands,53.015485,-2.262359,200,OK
53.410845,-2.958114,L7 8RG,Liverpool,North West,53.410845,-2.958114,200,OK
50.243252,-5.214365,TR15 1SE,Cornwall,South West,50.243252,-5.214365,200,OK
56.111843,-3.158225,KY1 1EH,Fife,,56.112015,-3.158458,200,OK
51.516409,-0.196638,W2 5AS,Westminster,London,51.516409,-0.196638,200,OK
52.620398,-2.250136,WV7 3AS,South Staffordshire,West Midlands,52.620398,-2.250136,200,OK
53.75341,-0.349123,HU3 1SG,"Kingston upon Hull, City of",Yorkshire and The Humber,53.75341,-0.349123,200,OK
52.083039,1.130299,IP1 6JA,Ipswich,East of England,52.083039,1.130299,200,OK
53.339997,-2.708004,WA7 5QY,Halton,North West,53.339997,-2.708004,200,OK
50.892698,-1.373544,SO19 9ER,Southampton,South East,50.892698,-1.373544,200,OK
50.852296,0.47642,TN40 2DG,Rother,South East,50.852296,0.47642,200,OK
53.384938,-1.463229,S3 8LB,Sheffield,Yorkshire and The Humber,53.385113,-1.464294,200,OK
51.389271,-0.263186,KT3 5LY,Kingston upon Thames,London,51.389271,-0.263186,200,OK
51.956153,-0.256442,SG4 0LW,North Hertfordshire,East of England,51.956179,-0.25646,200,OK
55.638605,-2.67704,TD4 6DB,Scottish Borders,,55.638605,-2.67704,200,OK
50.998651,0.597548,TN31 6PP,Rother,South East,50.998651,0.597548,200,OK
52.205126,0.123015,CB1 1NP,Cambridge,East of England,52.205139,0.123044,200,OK
51.510555,-0.623139,SL1 2YN,Slough,South East,51.510555,-0.623139,200,OK
53.749222,-2.3594,BB5 2BH,Hyndburn,North West,53.749222,-2.3594,200,OK
53.557259,-2.485373,BL3 4SH,Bolton,North West,53.557259,-2.485373,200,OK
51.497884,-0.197758,W8 6EJ,Kensington and Chelsea,London,51.497899,-0.198176,200,OK
51.566598,0.491557,SS14 1TG,Basildon,East of England,51.566598,0.491557,200,OK
54.864585,-6.276197,BT43 5AA,Mid and East Antrim,,54.864596,-6.276367,200,OK
51.558735,-1.822672,SN5 7BH,Swindon,South West,51.558735,-1.822672,200,OK
53.992882,-2.789186,LA2 0JL,Lancaster,North West,53.992882,-2.789186,200,OK
52.478164,-2.122338,DY5 2UZ,Dudley,West Midlands,52.478187,-2.122243,200,OK
51.494778,-0.132592,SW1P 2DZ,Westminster,London,51.494778,-0.132592,200,OK
51.669892,-3.368605,CF45 3PJ,Rhondda Cynon Taf,,51.669892,-3.368605,200,OK
52.664645,-2.457824,TF4 2QR,Telford and Wrekin,West Midlands,52.664645,-2.457824,200,OK
53.000269,-0.397385,NG34 7JE,North Kesteven,East Midlands,53.000269,-0.397385,200,OK
51.527576,-0.392576,UB4 9DA,Hillingdon,London,51.527576,-0.392576,200,OK
53.942695,-1.943353,BD20 9JF,Bradford,Yorkshire and The Humber,53.942695,-1.943353,200,OK
51.317279,-1.458222,SP11 0DY,Test Valley,South East,51.31727,-1.45815,200,OK
54.949143,-1.727797,NE21 6QS,Gateshead,North East,54.949143,-1.727797,200,OK
50.23756,-3.770484,TQ8 8HU,South Hams,South West,50.23756,-3.770484,200,OK
52.708189,-2.204208,,,,,,200,OK
51.880181,-0.42135,LU1 1BP,Luton,East of England,51.880181,-0.42135,200,OK
51.597363,-3.001887,NP20 5FR,Newport,,51.597016,-3.001417,200,OK
53.576391,-1.007093,DN7 6JD,Doncaster,Yorkshire and The Humber,53.576391,-1.007093,200,OK
52.298688,-0.066634,PE28 9LE,Huntingdonshire,East of England,52.298688,-0.066634,200,OK
55.317676,-4.801921,KA26 9ND,South Ayrshire,,55.317676,-4.801921,200,OK
51.61124,0.082375,IG7 5PR,Epping Forest,East of England,51.61124,0.082375,200,OK
52.202258,0.189393,CB1 9AQ,South Cambridgeshire,East of England,52.202258,0.189393,200,OK
54.480231,-3.538007,CA22 2NE,Cumberland,North West,54.480231,-3.538007,200,OK
53.791345,-2.880423,PR4 3JN,Fylde,North West,53.791345,-2.880423,200,OK
52.214705,-0.879578,NN4 6BY,West Northamptonshire,East Midlands,52.214705,-0.879578,200,OK
51.473202,-2.604744,BS6 7BE,"Bristol, City of",South West,51.473202,-2.604744,200,OK
50.710125,-2.456314,DT1 2JE,Dorset,South West,50.710125,-2.456298,200,OK
53.920251,-3.014038,FY7 6SR,Wyre,North West,53.92083,-3.015157,200,OK
53.0755,-3.026585,LL11 4ER,Wrexham,,53.0755,-3.026585,200,OK
53.42333,-1.423019,S9 1NT,Sheffield,Yorkshire and The Humber,53.42333,-1.423019,200,OK
54.573273,-2.499803,CA16 6SB,Westmorland and Furness,North West,54.573273,-2.499803,200,OK
53.511042,-0.139897,DN37 0BG,North East Lincolnshire,Yorkshire and The Humber,53.511042,-0.139897,200,OK
55.750189,-2.287622,TD11 3LU,Scottish Borders,,55.750189,-2.287622,200,OK
55.845713,-4.143827,G32 9JL,Glasgow City,,55.84577,-4.143865,200,OK
51.890928,0.894746,CO1 1SN,Colchester,East of England,51.890928,0.894746,200,OK
53.817933,-1.518414,LS8 4JE,Leeds,Yorkshire and The Humber,53.817933,-1.518414,200,OK
51.402484,0.118227,BR5 3HW,Bromley,London,51.402484,0.118227,200,OK
52.406932,-1.512937,CV1 1DF,Coventry,West Midlands,52.406859,-1.513002,200,OK
53.07876,-0.7828,NG24 2SX,Newark and Sherwood,East Midlands,53.07876,-0.7828,200,OK
53.626943,-2.437183,BL7 9SG,Bolton,North West,53.626943,-2.437183,200,OK
51.422351,0.790464,ME12 2TQ,Swale,South East,51.422351,0.790464,200,OK
51.565707,0.138977,RM8 1FJ,Barking and Dagenham,London,51.565707,0.138977,200,OK
51.231819,-0.328091,RH4 2BT,Mole Valley,South East,51.231819,-0.328091,200,OK
51.306694,-0.16084,CR5 3LQ,Reigate and Banstead,South East,51.306694,-0.16084,200,OK
51.373807,-0.164861,SM5 2LF,Sutton,London,51.373807,-0.164861,200,OK
51.731285,0.467542,CM2 0RN,Chelmsford,East of England,51.730718,0.468394,200,OK
56.067173,-3.419368,KY11 4FD,Fife,,56.067173,-3.419368,200,OK
54.973078,-1.613064,NE99 1PY,Newcastle upon Tyne,North East,54.973078,-1.613064,200,OK
53.956924,-1.082857,YO1 9SN,York,Yorkshire and The Humber,53.956924,-1.082857,200,OK
51.525255,-0.160004,NW1 4SH,Westminster,London,51.525255,-0.160004,200,OK
53.449528,-2.382702,M41 5GQ,Trafford,North West,53.449528,-2.382702,200,OK
51.561095,-0.743526,SL6 9PB,Windsor and Maidenhead,South East,51.56159,-0.744407,200,OK
51.64109,-2.161801,GL8 8LF,Cotswold,South West,51.640667,-2.162204,200,OK
53.752173,-1.671195,BD11 1BJ,Leeds,Yorkshire and The Humber,53.752173,-1.671195,200,OK
53.042828,-2.169604,ST1 6EB,Stoke-on-Trent,West Midlands,53.042828,-2.169604,200,OK
50.86532,0.604056,TN35 5JU,Hastings,South East,50.86532,0.604056,200,OK
52.423818,-1.978633,B31 1PA,Birmingham,West Midlands,52.423818,-1.978633,200,OK
51.420301,-2.498545,BS31 2BY,Bath and North East Somerset,South West,51.420292,-2.498559,200,OK
51.514637,-0.11927,WC2B 4TS,Westminster,London,51.514365,-0.119137,200,OK
51.343109,-0.515438,KT15 3QG,Runnymede,South East,51.343109,-0.515438,200,OK
51.409558,-0.225952,SW20 8DN,Merton,London,51.409621,-0.225968,200,OK
54.1212,-1.200473,YO61 3LX,North Yorkshire,Yorkshire and The Humber,54.1212,-1.200473,200,OK
54.898965,-1.37501,SR2 8AF,Sunderland,North East,54.89898,-1.376149,200,OK
52.235917,-0.895109,NN1 1EW,West Northamptonshire,East Midlands,52.235821,-0.894745,200,OK
51.72005,-3.447962,CF44 8EY,Rhondda Cynon Taf,,51.72005,-3.447962,200,OK
53.058778,-2.196986,ST6 7FB,Stoke-on-Trent,West Midlands,53.058778,-2.196986,200,OK
51.885731,0.255106,CM24 1AH,Uttlesford,East of England,51.885284,0.254503,200,OK
55.887704,-3.888531,ML6 7UL,North Lanarkshire,,55.887704,-3.888531,200,OK
53.814299,-1.495305,LS8 3TP,Leeds,Yorkshire and The Humber,53.814299,-1.495305,200,OK
50.854878,0.549876,TN38 0LS,Hastings,South East,50.854878,0.549876,200,OK
57.149881,-2.174563,AB15 6NE,Aberdeen City,,57.149881,-2.174563,200,OK
50.927248,-1.397667,SO17 1QR,Southampton,South East,50.927248,-1.397667,200,OK
51.565711,-3.022832,NP10 8YJ,Newport,,51.565313,-3.02314,200,OK
53.47607,-2.603037,WA3 3NS,Wigan,North West,53.47607,-2.603037,200,OK
51.450844,-2.38906,BS30 5RT,South Gloucestershire,South West,51.45114,-2.389379,200,OK
53.165981,-2.202279,CW12 1SW,Cheshire East,North West,53.165981,-2.202279,200,OK
51.575211,-0.708969,SL8 5FP,Buckinghamshire,South East,51.575265,-0.708938,200,OK
51.907114,-2.100485,GL51 8LG,Cheltenham,South West,51.907114,-2.100485,200,OK
55.832572,-5.950355,PA60 7XU,Argyll and Bute,,55.832289,-5.95047,200,OK
53.7431,-1.663275,WF17 9BL,Kirklees,Yorkshire and The Humber,53.7431,-1.663275,200,OK
53.589677,-0.654797,DN15 7PX,North Lincolnshire,Yorkshire and The Humber,53.589677,-0.654797,200,OK
55.410024,-1.705325,NE66 1UL,Northumberland,North East,55.410024,-1.705325,200,OK
53.565485,-2.443267,BL3 6TZ,Bolton,North West,53.565485,-2.443267,200,OK
52.513276,-1.914993,B20 3SB,Birmingham,West Midlands,52.513276,-1.914993,200,OK
53.701775,-1.295436,WF8 2WP,Wakefield,Yorkshire and The Humber,53.701775,-1.295436,200,OK
52.319402,0.885411,IP31 2DL,West Suffolk,East of England,52.319402,0.885411,200,OK
51.482798,-0.60881,SL4 1PQ,Windsor and Maidenhead,South East,51.482685,-0.608396,200,OK
51.842183,-2.514792,GL17 9DB,Forest of Dean,South West,51.842193,-2.514691,200,OK
50.809655,-2.734783,DT8 3DY,Dorset,South West,50.809655,-2.734783,200,OK
50.779435,-2.004146,BH21 3DD,"Bournemouth, Christchurch and Poole",South West,50.779435,-2.004146,200,OK
53.512597,-2.592728,WN2 5QU,Wigan,North West,53.512597,-2.592728,200,OK
53.227858,-3.080814,CH5 4BL,Flintshire,,53.227858,-3.080814,200,OK
53.754007,-1.084188,YO8 8LB,North Yorkshire,Yorkshire and The Humber,53.754007,-1.084188,200,OK
50.920123,-2.941045,TA19 0RG,Somerset,South West,50.920748,-2.941704,200,OK
53.479842,-2.898159,L32 5AB,Knowsley,North West,53.479842,-2.898159,200,OK
57.131969,-2.088891,AB11 8EL,Aberdeen City,,57.13196,-2.088907,200,OK
53.383091,-2.829188,L27 4XU,Liverpool,North West,53.383091,-2.829188,200,OK
54.654255,-1.684449,DL14 6LR,County Durham,North East,54.654255,-1.684449,200,OK
51.3141,-0.556437,GU22 7NB,Woking,South East,51.3141,-0.556437,200,OK
54.385295,-6.480935,BT62 3SP,"Armagh City, Banbridge and Craigavon",,54.385295,-6.480935,200,OK
53.790804,-1.662458,LS28 8AQ,Leeds,Yorkshire and The Humber,53.790804,-1.662458,200,OK
53.299138,-2.977144,CH66 7PA,Cheshire West and Chester,North West,53.298687,-2.977013,200,OK
53.807381,-1.635215,LS13 3PT,Leeds,Yorkshire and The Humber,53.807381,-1.635215,200,OK
50.752233,-1.56041,SO41 8EH,New Forest,South East,50.752233,-1.56041,200,OK
53.39194,-2.285813,M23 1FQ,Manchester,North West,53.39194,-2.285813,200,OK
50.383366,-4.1637,PL2 3AL,Plymouth,South West,50.383366,-4.1637,200,OK
53.299645,-3.539097,LL22 9NS,Conwy,,53.299645,-3.539097,200,OK
53.281749,-2.94186,CH66 3TF,Cheshire West and Chester,North West,53.281872,-2.942177,200,OK
54.492255,-5.674932,BT23 6HS,Ards and North Down,,54.492255,-5.674932,200,OK
51.493294,-0.190396,SW5 0TF,Kensington and Chelsea,London,51.493385,-0.190507,200,OK
53.490375,-2.102238,OL6 7AT,Tameside,North West,53.490015,-2.102222,200,OK
57.10291,-2.618378,AB31 4LF,Aberdeenshire,,57.102813,-2.618129,200,OK
51.879206,0.046339,SG11 1NR,East Hertfordshire,East of England,51.879206,0.046339,200,OK
51.051607,-0.725035,GU27 3PE,Chichester,South East,51.051607,-0.725035,200,OK
54.545903,-1.269038,TS5 8QW,Middlesbrough,North East,54.545903,-1.269038,200,OK
51.9996,0.664568,CO9 2PL,Braintree,East of England,51.9996,0.664568,200,OK
52.966256,-2.676493,SY13 1QG,Shropshire,West Midlands,52.966283,-2.676449,200,OK
53.471112,-2.9959,L21 7LF,Sefton,North West,53.471112,-2.9959,200,OK
52.029429,-0.723144,MK6 3BW,Milton Keynes,South East,52.029429,-0.723144,200,OK
52.041285,1.139236,IP2 9BJ,Ipswich,East of England,52.041285,1.139236,200,OK
54.844225,-4.993535,,,,,,200,OK
51.460885,-1.267301,RG18 9RT,West Berkshire,South East,51.460648,-1.266714,200,OK
50.12738,-5.477063,TR17 0HA,Cornwall,South West,50.12738,-5.477063,200,OK
52.88851,1.297301,NR11 8NA,North Norfolk,East of England,52.88851,1.297301,200,OK
57.099124,-2.720202,AB34 5BD,Aberdeenshire,,57.099124,-2.720202,200,OK
54.533331,-3.562523,CA28 8PQ,Cumberland,North West,54.533331,-3.562523,200,OK
53.303294,-1.485891,S18 8NW,North East Derbyshire,East Midlands,53.303294,-1.485891,200,OK
51.515599,-0.576422,SL2 5QG,Slough,South East,51.515599,-0.576422,200,OK
55.939725,-2.958411,EH33 2JG,East Lothian,,55.939725,-2.958411,200,OK
55.780586,-4.048201,ML3 0TA,South Lanarkshire,,55.780045,-4.049417,200,OK
54.380614,-2.908497,LA23 1FD,Westmorland and Furness,North West,54.380614,-2.908497,200,OK
52.657159,-1.119987,LE4 5JR,Leicester,East Midlands,52.657159,-1.119987,200,OK
52.633515,1.238328,NR5 8LU,Norwich,East of England,52.633515,1.238328,200,OK
53.491949,-0.839284,DN9 2NY,North Lincolnshire,Yorkshire and The Humber,53.491949,-0.839284,200,OK
51.768157,-1.58334,OX18 1JT,West Oxfordshire,South East,51.768157,-1.58334,200,OK
52.679441,0.17364,PE14 7AF,King's Lynn and West Norfolk,East of England,52.679441,0.17364,200,OK
53.532593,-2.613028,WN3 4JF,Wigan,North West,53.532593,-2.613028,200,OK
51.499374,-1.871508,SN4 7RG,Wiltshire,South West,51.499374,-1.871508,200,OK
54.326781,-6.394415,BT63 6LQ,"Armagh City, Banbridge and Craigavon",,54.326781,-6.394415,200,OK
56.333345,-2.796924,KY16 8JP,Fife,,56.333345,-2.796924,200,OK
53.099301,-2.284928,ST7 3DB,Cheshire East,North West,53.099282,-2.285017,200,OK
53.425151,-2.962018,L5 6SG,Liverpool,North West,53.425151,-2.962018,200,OK
53.706251,-1.642421,WF17 7AJ,Kirklees,Yorkshire and The Humber,53.706251,-1.642421,200,OK
51.607343,-2.586035,BS35 1NR,South Gloucestershire,South West,51.607343,-2.586035,200,OK
57.518168,-1.94912,AB42 4SB,Aberdeenshire,,57.518168,-1.94912,200,OK
54.005473,-1.528943,HG1 4NF,North Yorkshire,Yorkshire and The Humber,54.005473,-1.528943,200,OK
53.556886,-0.029062,DN35 8JE,North East Lincolnshire,Yorkshire and The Humber,53.556886,-0.029062,200,OK
54.065772,-0.362705,YO25 4RY,East Riding of Yorkshire,Yorkshire and The Humber,54.065772,-0.362048,200,OK
55.848911,-4.499981,PA3 3HF,Renfrewshire,,55.848539,-4.500165,200,OK
53.326413,-2.231655,SK9 1HB,Cheshire East,North West,53.326412,-2.231623,200,OK
53.691175,-2.728529,PR26 7QZ,South Ribble,North West,53.691175,-2.728529,200,OK
51.510876,-2.61007,BS10 6QN,"Bristol, City of",South West,51.510876,-2.61007,200,OK
55.796449,-4.292207,G46 6PB,East Renfrewshire,,55.796693,-4.292157,200,OK
53.794538,-1.582907,LS12 1QX,Leeds,Yorkshire and The Humber,53.794538,-1.582907,200,OK
51.436229,-2.191383,SN13 0AZ,Wiltshire,South West,51.436076,-2.191555,200,OK
52.264344,1.016023,IP14 4LU,Mid Suffolk,East of England,52.264344,1.016023,200,OK
51.273652,-1.10829,RG21 6YU,Basingstoke and Deane,South East,51.273388,-1.109136,200,OK
52.187873,-1.366877,CV47 2XJ,Stratford-on-Avon,West Midlands,52.187873,-1.366877,200,OK
53.697079,-2.317154,BB4 6PY,Rossendale,North West,53.697079,-2.317154,200,OK
54.674058,-5.609756,BT19 6HX,Ards and North Down,,54.674111,-5.609707,200,OK
55.862401,-4.576238,PA11 3QE,Renfrewshire,,55.862401,-4.576238,200,OK
51.481937,-0.099012,SE5 0PQ,Southwark,London,51.482136,-0.099022,200,OK
54.747243,-1.414306,DH6 3JL,County Durham,North East,54.746673,-1.413506,200,OK
53.390739,-2.848629,L27 7BT,Liverpool,North West,53.390739,-2.848629,200,OK
52.529759,-1.359159,LE10 2RP,Hinckley and Bosworth,East Midlands,52.529689,-1.359558,200,OK
52.955034,-1.980697,ST10 4LA,Staffordshire Moorlands,West Midlands,52.955034,-1.980697,200,OK
51.966396,-0.26325,SG4 0TP,North Hertfordshire,East of England,51.966314,-0.263795,200,OK
51.515434,-0.082989,EC2N 3AS,City of London,London,51.515209,-0.082843,200,OK
51.648201,-3.219567,CF82 7RF,Caerphilly,,51.648201,-3.219567,200,OK
51.486569,-3.152353,CF24 1PL,Cardiff,,51.486544,-3.152332,200,OK
55.810423,-3.972958,ML1 4JP,North Lanarkshire,,55.810423,-3.972958,200,OK
51.550949,0.031185,E7 0NL,Newham,London,51.550949,0.031185,200,OK
51.751167,-1.264657,OX1 1JE,Oxford,South East,51.751367,-1.264944,200,OK
55.838582,-4.554711,PA10 2LD,Renfrewshire,,55.838582,-4.554711,200,OK
52.56781,1.715016,NR31 7NG,Great Yarmouth,East of England,52.568156,1.71514,200,OK
53.155294,-2.663926,CW6 0BZ,Cheshire West and Chester,North West,53.155294,-2.663926,200,OK
53.788422,-0.362155,HU6 7AG,"Kingston upon Hull, City of",Yorkshire and The Humber,53.788193,-0.361223,200,OK
52.231543,-0.895569,NN1 1HL,West Northamptonshire,East Midlands,52.231543,-0.895569,200,OK
53.492462,-2.259793,M7 1TE,Salford,North West,53.492331,-2.259071,200,OK
51.524919,-0.208584,W10 5EH,Kensington and Chelsea,London,51.524919,-0.208584,200,OK
53.582196,-1.775964,HD9 7HR,Kirklees,Yorkshire and The Humber,53.582196,-1.775964,200,OK
52.00969,-1.510659,OX15 5BY,Cherwell,South East,52.00969,-1.510659,200,OK
53.480587,-2.504552,WN7 3SE,Wigan,North West,53.480587,-2.504552,200,OK
51.637963,-0.751205,HP13 5HT,Buckinghamshire,South East,51.637963,-0.751205,200,OK
53.692692,-1.023154,DN14 9RP,East Riding of Yorkshire,Yorkshire and The Humber,53.692692,-1.023154,200,OK
51.324184,-2.514019,BS39 6YL,Bath and North East Somerset,South West,51.324184,-2.514019,200,OK
52.622171,-1.210754,LE3 3JR,Blaby,East Midlands,52.622171,-1.210754,200,OK
51.35216,-0.194866,SM2 6AX,Sutton,London,51.352409,-0.194156,200,OK
54.575566,-1.246602,TS1 5JU,Middlesbrough,North East,54.5758,-1.247417,200,OK
52.348894,-1.564828,CV8 2JL,Warwick,West Midlands,52.348894,-1.564828,200,OK
51.962887,1.345959,IP11 7RJ,East Suffolk,East of England,51.962887,1.345959,200,OK
51.336451,-2.901859,BS24 7GB,North Somerset,South West,51.336451,-2.901859,200,OK
50.829324,-0.133188,BN2 9WP,Brighton and Hove,South East,50.829324,-0.133188,200,OK
52.195122,0.147865,CB1 3PH,Cambridge,East of England,52.195122,0.147865,200,OK
52.504176,-2.169376,DY6 7HU,Dudley,West Midlands,52.503931,-2.16881,200,OK
56.125854,-4.170735,FK8 3EG,Stirling,,56.125854,-4.170735,200,OK
51.029624,-0.512298,RH14 0DD,Chichester,South East,51.029534,-0.512048,200,OK
52.65804,-2.796813,SY3 0BQ,Shropshire,West Midlands,52.658168,-2.796549,200,OK
53.040751,-2.208881,ST6 3PF,Stoke-on-Trent,West Midlands,53.040778,-2.208985,200,OK
50.81893,-1.235866,PO14 3JX,Fareham,South East,50.81893,-1.235866,200,OK
52.581584,-2.165926,WV3 8BD,Wolverhampton,West Midlands,52.581584,-2.165926,200,OK
52.040396,0.951651,IP7 5PE,Babergh,East of England,52.040396,0.951651,200,OK
51.345368,-0.117578,CR8 2FE,Croydon,London,51.345394,-0.117537,200,OK
51.337166,-0.406701,KT11 1JX,Elmbridge,South East,51.337166,-0.406701,200,OK
53.672161,-1.470881,WF1 5FN,Wakefield,Yorkshire and The Humber,53.672534,-1.471981,200,OK
55.008714,-7.367747,BT48 0JX,Derry City and Strabane,,55.008714,-7.367747,200,OK
53.336437,-1.461719,S8 8JW,Sheffield,Yorkshire and The Humber,53.336437,-1.461719,200,OK
51.723733,-2.233484,GL5 5PR,Stroud,South West,51.723733,-2.233484,200,OK
50.475238,-4.131347,PL20 6HF,West Devon,South West,50.475238,-4.131347,200,OK
54.951282,-1.606091,NE8 4NH,Gateshead,North East,54.951282,-1.606091,200,OK
51.134566,0.863349,TN23 6JB,Ashford,South East,51.134566,0.863349,200,OK
53.54412,-2.631153,WN1 1DY,Wigan,North West,53.544307,-2.631503,200,OK
52.663801,0.160086,PE13 1EH,Fenland,East of England,52.663801,0.160086,200,OK
54.403482,-1.310146,DL6 3LP,North Yorkshire,Yorkshire and The Humber,54.403482,-1.310146,200,OK
51.468345,-0.146529,SW8 3DL,Lambeth,London,51.468345,-0.146529,200,OK
53.764807,-2.764528,PR2 1RN,Preston,North West,53.765277,-2.765644,200,OK
52.809591,-3.061476,SY10 8AG,Shropshire,West Midlands,52.809591,-3.061476,200,OK
51.248263,-0.779784,GU11 1YR,Rushmoor,South East,51.248263,-0.779784,200,OK
53.486979,-2.643204,WN4 9LJ,Wigan,North West,53.486979,-2.643204,200,OK
51.566027,-0.003249,E10 6LT,Waltham Forest,London,51.566027,-0.003249,200,OK
50.728792,-1.812926,BH6 5EF,"Bournemouth, Christchurch and Poole",South West,50.728792,-1.812926,200,OK
54.904038,-5.036895,DG9 0DH,Dumfries and Galloway,,54.904038,-5.036895,200,OK
52.076054,-4.382587,SA44 5LD,Ceredigion,,52.076054,-4.382587,200,OK
53.802708,-3.036572,FY1 6PT,Blackpool,North West,53.802708,-3.036572,200,OK
53.470206,-1.475773,S35 3XU,Sheffield,Yorkshire and The Humber,53.470206,-1.475773,200,OK
51.264084,-1.086073,RG21 7NH,Basingstoke and Deane,South East,51.26394,-1.086133,200,OK
51.395563,0.459564,ME2 2XS,Medway,South East,51.395563,0.459564,200,OK
52.668828,-2.378074,TF11 8HE,Shropshire,West Midlands,52.668828,-2.378074,200,OK
53.916422,-3.026734,FY7 7DP,Wyre,North West,53.916422,-3.026734,200,OK
50.962552,-1.376781,SO50 9JN,Eastleigh,South East,50.962552,-1.376781,200,OK
53.787178,-1.78468,BD7 2HG,Bradford,Yorkshire and The Humber,53.787178,-1.78468,200,OK
52.37572,1.293806,IP21 5TT,Mid Suffolk,East of England,52.376332,1.293441,200,OK
51.96213,-0.264769,SG4 0TS,North Hertfordshire,East of England,51.96213,-0.264769,200,OK
54.822371,-1.743248,DH7 0LA,County Durham,North East,54.822371,-1.743248,200,OK
57.361209,-2.080719,AB41 9BW,Aberdeenshire,,57.361209,-2.080719,200,OK
50.753103,-1.846624,BH8 0QA,"Bournemouth, Christchurch and Poole",South West,50.753103,-1.846624,200,OK
50.734326,-3.112307,EX24 6RY,East Devon,South West,50.734326,-3.112307,200,OK
53.729678,-0.579148,HU15 1DT,East Riding of Yorkshire,Yorkshire and The Humber,53.729678,-0.579148,200,OK
54.595061,-5.801908,BT16 1LA,Lisburn and Castlereagh,,54.595295,-5.801431,200,OK
51.724713,-3.850971,SA8 4JY,Neath Port Talbot,,51.724713,-3.850971,200,OK
53.697649,-1.636178,WF13 2BN,Kirklees,Yorkshire and The Humber,53.697649,-1.636178,200,OK
51.327003,-2.194821,BA14 7LB,Wiltshire,South West,51.327003,-2.194821,200,OK
53.517226,-2.188477,M40 9GE,Manchester,North West,53.517244,-2.188402,200,OK
51.993145,-0.734328,MK2 2SN,Milton Keynes,South East,51.993779,-0.734835,200,OK
52.994365,-4.423256,LL54 5LE,Gwynedd,,52.994365,-4.423256,200,OK
53.471987,-2.964885,L30 4UG,Sefton,North West,53.472259,-2.965507,200,OK
51.653621,-0.395421,WD18 0DF,Watford,East of England,51.653728,-0.395374,200,OK
54.650303,-1.243873,TS25 2JW,Hartlepool,North East,54.650303,-1.243873,200,OK
52.408481,-1.885382,B14 5DW,Birmingham,West Midlands,52.408481,-1.885382,200,OK
52.971784,-3.091284,LL20 7YR,Denbighshire,,52.971784,-3.091284,200,OK
53.79404,-1.754299,BD1 1SW,Bradford,Yorkshire and The Humber,53.794019,-1.754257,200,OK
52.807125,-2.316435,ST20 0PL,Stafford,West Midlands,52.807125,-2.316435,200,OK
53.573812,-2.687773,WN6 8AZ,Wigan,North West,53.573812,-2.687773,200,OK
54.666115,-5.907865,BT37 9PU,Antrim and Newtownabbey,,54.666115,-5.907865,200,OK
51.414107,0.004491,BR1 3UB,Bromley,London,51.414107,0.004491,200,OK
52.197729,-2.22335,WR99 2FP,Worcester,West Midlands,52.197683,-2.223496,200,OK
51.59034,-0.33318,HA3 5AA,Harrow,London,51.590353,-0.332695,200,OK
50.573965,-3.661638,TQ12 6TW,Teignbridge,South West,50.573965,-3.661638,200,OK
51.711604,-3.6958,SA11 4HF,Neath Port Talbot,,51.711604,-3.6958,200,OK
53.395815,-3.125115,CH46 6EE,Wirral,North West,53.395815,-3.125115,200,OK
57.169127,-2.738493,,,,,,200,OK
51.400038,0.110221,BR5 3AH,Bromley,London,51.400038,0.110221,200,OK
53.227353,-1.435646,S40 2NA,Chesterfield,East Midlands,53.227353,-1.435646,200,OK
54.881354,-2.901585,CA1 3QB,Cumberland,North West,54.881354,-2.901585,200,OK
51.519592,-3.325553,CF15 9EW,Cardiff,,51.519417,-3.325951,200,OK
51.519543,-0.145013,W1B 1PZ,Westminster,London,51.519564,-0.1452,200,OK
52.780174,-2.113015,ST17 9BF,Stafford,West Midlands,52.780174,-2.113015,200,OK
51.324177,0.055381,BR6 7JZ,Bromley,London,51.324177,0.055381,200,OK
51.74558,-2.21061,GL5 1LA,Stroud,South West,51.74558,-2.21061,200,OK
51.253164,0.547219,ME15 7LP,Maidstone,South East,51.253164,0.547219,200,OK
52.032322,-2.148679,GL20 6JW,Tewkesbury,South West,52.032322,-2.148679,200,OK
52.155912,1.086765,IP6 8PA,Mid Suffolk,East of England,52.155912,1.086765,200,OK
51.289885,-0.378617,KT23 3LT,Mole Valley,South East,51.289885,-0.378617,200,OK
53.795473,-1.683032,LS28 8DL,Leeds,Yorkshire and The Humber,53.795473,-1.683032,200,OK
51.521161,-0.132522,WC1E 7AP,Camden,London,51.521161,-0.132522,200,OK
51.336871,-0.509251,KT14 6DD,Woking,South East,51.336871,-0.509251,200,OK
52.436372,-1.938852,B29 6JA,Birmingham,West Midlands,52.436372,-1.938852,200,OK
54.110278,-3.249879,LA14 3QA,Westmorland and Furness,North West,54.110286,-3.249875,200,OK
51.792297,0.125218,CM20 2DR,Harlow,East of England,51.792297,0.125218,200,OK
53.56519,-1.785717,,,,,,200,OK
51.728279,-5.0195,SA73 1AR,Pembrokeshire,,51.728279,-5.0195,200,OK
51.734605,-3.136699,NP13 1QL,Blaenau Gwent,,51.734303,-3.136373,200,OK
53.001983,-1.113589,NG5 7JW,Gedling,East Midlands,53.001983,-1.113589,200,OK
54.147467,-1.472295,,,,,,200,OK
53.377438,-2.917377,L18 4QB,Liverpool,North West,53.377438,-2.917377,200,OK
53.368942,-1.442464,S2 2NF,Sheffield,Yorkshire and The Humber,53.368951,-1.442479,200,OK
55.817312,-3.969827,ML1 4NZ,North Lanarkshire,,55.817312,-3.969827,200,OK
52.220926,-0.903459,NN4 8DR,West Northamptonshire,East Midlands,52.220926,-0.903459,200,OK
51.647605,-0.222413,EN5 3AP,Barnet,London,51.647635,-0.222372,200,OK
55.116713,-1.624581,NE22 6AN,Northumberland,North East,55.116713,-1.624581,200,OK
51.672764,-1.294083,OX14 1DF,Vale of White Horse,South East,51.672764,-1.294083,200,OK
52.787184,-2.114738,ST17 9DS,Stafford,West Midlands,52.787577,-2.11515,200,OK
53.0456,-1.405475,DE5 3NP,Amber Valley,East Midlands,53.0456,-1.405475,200,OK
53.742082,-0.365383,HU3 2TJ,"Kingston upon Hull, City of",Yorkshire and The Humber,53.742082,-0.365383,200,OK
51.309532,-2.533195,BS39 6ER,Bath and North East Somerset,South West,51.309351,-2.534285,200,OK
55.026461,-1.566671,NE12 7AD,North Tyneside,North East,55.026684,-1.565964,200,OK
52.970206,-1.106511,NG4 1PN,Gedling,East Midlands,52.970206,-1.106511,200,OK
51.603523,-0.482384,UB9 6BU,Hillingdon,London,51.603534,-0.482543,200,OK
51.631847,-0.068505,N9 9PN,Enfield,London,51.631847,-0.068505,200,OK
52.236798,-0.913509,NN5 5JU,West Northamptonshire,East Midlands,52.236798,-0.913509,200,OK
52.576963,1.698486,NR31 8NB,Great Yarmouth,East of England,52.576963,1.698486,200,OK
50.235372,-5.180341,TR16 5JR,Cornwall,South West,50.235372,-5.180341,200,OK
51.893839,-2.083002,GL50 2HW,Cheltenham,South West,51.893839,-2.083002,200,OK
50.940795,-1.379616,SO16 2NL,Southampton,South East,50.940795,-1.379616,200,OK
53.144926,0.337807,PE25 2SH,East Lindsey,East Midlands,53.144926,0.337807,200,OK
51.821457,-4.598495,SA34 0WA,Carmarthenshire,,51.821455,-4.598568,200,OK
52.715463,-2.798748,SY3 5AL,Shropshire,West Midlands,52.715077,-2.79973,200,OK
51.669481,-0.273545,WD6 5BX,Hertsmere,East of England,51.669481,-0.273545,200,OK
50.828921,-0.285683,BN43 5YB,Adur,South East,50.828921,-0.285683,200,OK
50.700733,-1.330154,PO30 5QH,Isle of Wight,South East,50.700733,-1.330154,200,OK
53.978196,-1.059259,YO31 9AW,York,Yorkshire and The Humber,53.978196,-1.059259,200,OK
53.516426,-1.131443,DN1 3ST,Doncaster,Yorkshire and The Humber,53.516473,-1.131638,200,OK
51.825484,-0.338475,AL5 5AZ,St Albans,East of England,51.825484,-0.338475,200,OK
57.651245,-2.206606,AB43 6NB,Aberdeenshire,,57.651245,-2.206606,200,OK
55.904859,-3.340379,EH14 4AF,City of Edinburgh,,55.904859,-3.340379,200,OK
51.598318,-3.790106,SA12 6HG,Neath Port Talbot,,51.598318,-3.790106,200,OK
53.0561,-2.257504,ST5 6BG,Newcastle-under-Lyme,West Midlands,53.056126,-2.257474,200,OK
51.49702,0.123068,SE2 9UH,Bexley,London,51.49702,0.123068,200,OK
51.490404,-0.171131,SW3 6PX,Kensington and Chelsea,London,51.490404,-0.171131,200,OK
52.64962,-2.442029,TF3 1LN,Telford and Wrekin,West Midlands,52.64962,-2.442029,200,OK
51.33786,-0.607158,GU24 8ED,Woking,South East,51.33786,-0.607158,200,OK
52.558166,-0.256923,PE2 9HY,Peterborough,East of England,52.558166,-0.256923,200,OK
53.395685,-2.96994,L8 7SR,Liverpool,North West,53.39598,-2.970052,200,OK
52.236036,0.859507,IP30 9QE,Mid Suffolk,East of England,52.236036,0.859507,200,OK
53.831994,-3.048767,FY1 2NA,Blackpool,North West,53.831994,-3.048767,200,OK
52.45368,-2.055698,B63 3SX,Dudley,West Midlands,52.454019,-2.05553,200,OK
54.79628,-6.783295,BT45 7AT,Mid Ulster,,54.79628,-6.783295,200,OK
51.397333,-0.3532,KT8 0SX,Elmbridge,South East,51.397166,-0.352186,200,OK
53.656314,-1.478612,WF2 6EY,Wakefield,Yorkshire and The Humber,53.656314,-1.478612,200,OK
51.590953,-1.452678,OX12 9SL,Vale of White Horse,South East,51.590953,-1.452678,200,OK
51.549907,-0.105974,N5 1PT,Islington,London,51.549907,-0.105974,200,OK
51.947827,1.334008,IP11 2GD,East Suffolk,East of England,51.947827,1.334008,200,OK
52.280225,-1.509727,CV31 1RL,Warwick,West Midlands,52.280225,-1.509727,200,OK
52.48249,-2.111262,DY5 1QT,Dudley,West Midlands,52.48249,-2.111262,200,OK
50.440707,-3.577495,TQ3 2JR,Torbay,South West,50.440707,-3.577495,200,OK
50.380818,-4.169647,PL2 1BR,Plymouth,South West,50.380818,-4.169647,200,OK
51.091644,-1.265167,SO21 1DY,Winchester,South East,51.091644,-1.265167,200,OK
53.348242,-1.482617,S8 0PL,Sheffield,Yorkshire and The Humber,53.348242,-1.482617,200,OK
50.974037,-2.39251,BA8 0TT,Somerset,South West,50.974037,-2.39251,200,OK
52.164782,-1.503259,CV35 0EE,Stratford-on-Avon,West Midlands,52.164782,-1.503259,200,OK
52.769934,-1.214097,LE11 3BZ,Charnwood,East Midlands,52.769934,-1.214097,200,OK
50.725038,-2.013081,BH15 4QB,"Bournemouth, Christchurch and Poole",South West,50.725038,-2.013081,200,OK
52.453031,0.315921,CB6 1FE,East Cambridgeshire,East of England,52.453031,0.315921,200,OK
51.249544,-0.637553,GU3 3DZ,Guildford,South East,51.249544,-0.637553,200,OK
55.85925,-4.24149,G1 1QN,Glasgow City,,55.85925,-4.24149,200,OK
53.822858,-1.778421,BD18 3BH,Bradford,Yorkshire and The Humber,53.822858,-1.778421,200,OK
51.669106,-0.78676,,,,,,200,OK
53.460605,-2.091111,,,,,,200,OK
52.273462,-0.831593,NN3 8PY,West Northamptonshire,East Midlands,52.273462,-0.831593,200,OK
51.377452,-0.077048,CR0 6QR,Croydon,London,51.377452,-0.077048,200,OK
52.568445,-1.537255,CV9 1QS,North Warwickshire,West Midlands,52.568445,-1.537255,200,OK
52.185634,-1.724154,CV37 9BB,Stratford-on-Avon,West Midlands,52.185634,-1.724154,200,OK
51.479834,-3.201663,CF5 1PA,Cardiff,,51.479834,-3.201663,200,OK
54.683084,-1.540864,DL17 8BB,County Durham,North East,54.683338,-1.54145,200,OK
52.978462,-1.388316,DE7 6XB,Erewash,East Midlands,52.978462,-1.388316,200,OK
55.864343,-4.264686,G2 4DQ,Glasgow City,,55.864237,-4.264346,200,OK
51.206052,-3.477933,TA24 5NL,Somerset,South West,51.206052,-3.477933,200,OK
54.036511,-1.036551,YO32 5WD,York,Yorkshire and The Humber,54.036511,-1.036551,200,OK
51.514404,-3.126884,CF3 4DP,Cardiff,,51.514113,-3.127362,200,OK
51.0549,-0.314094,RH13 6GE,Horsham,South East,51.054807,-0.31387,200,OK
53.943955,-1.274922,YO26 7NN,North Yorkshire,Yorkshire and The Humber,53.943928,-1.274983,200,OK
53.894085,-1.935613,BD20 6QR,Bradford,Yorkshire and The Humber,53.894085,-1.935613,200,OK
52.026622,-0.671729,MK17 8LN,Milton Keynes,South East,52.026622,-0.671729,200,OK
51.759504,-2.247139,GL6 6JE,Stroud,South West,51.759248,-2.246982,200,OK
53.804381,-1.693624,LS28 8HH,Leeds,Yorkshire and The Humber,53.804381,-1.693624,200,OK
53.641631,-1.577549,WF4 4JD,Wakefield,Yorkshire and The Humber,53.641631,-1.577549,200,OK
51.532391,-0.120023,N1 9DP,Islington,London,51.532372,-0.119952,200,OK
52.583128,-1.831856,B74 2UY,Birmingham,West Midlands,52.583128,-1.831856,200,OK
51.460387,-2.506625,BS15 8NE,South Gloucestershire,South West,51.460387,-2.506625,200,OK
51.698421,-2.706047,NP16 6TS,Monmouthshire,,51.698739,-2.705575,200,OK
53.626912,-2.203875,OL12 7SY,Rochdale,North West,53.626912,-2.203875,200,OK
53.689652,-0.447393,DN18 5AU,North Lincolnshire,Yorkshire and The Humber,53.689652,-0.447393,200,OK
50.851972,-0.973638,PO9 2RL,Havant,South East,50.851972,-0.973638,200,OK
53.953647,-0.43559,YO25 9QH,East Riding of Yorkshire,Yorkshire and The Humber,53.953647,-0.43559,200,OK
51.121583,0.074584,TN7 4LD,Wealden,South East,51.121583,0.074584,200,OK
50.808955,-1.141107,PO12 4HU,Gosport,South East,50.808955,-1.141107,200,OK
53.187762,-4.094547,LL57 4PP,Gwynedd,,53.187796,-4.094639,200,OK
51.561735,-0.276942,HA9 0LS,Brent,London,51.561735,-0.276942,200,OK
52.51329,-1.899241,B20 3DL,Birmingham,West Midlands,52.51329,-1.899241,200,OK
55.888715,-4.621643,PA13 4PB,Inverclyde,,55.888733,-4.621644,200,OK
51.516494,-0.131809,W1D 1AX,Westminster,London,51.516477,-0.132008,200,OK
51.917009,-0.463375,LU3 3DR,Luton,East of England,51.917009,-0.463375,200,OK
50.85597,-1.207429,PO15 5DD,Fareham,South East,50.85597,-1.207429,200,OK
51.82748,0.508457,CM3 1RP,Chelmsford,East of England,51.82748,0.508457,200,OK
51.405616,-1.269233,RG18 3EX,West Berkshire,South East,51.405616,-1.269233,200,OK
50.830022,-4.515772,EX23 9FD,Cornwall,South West,50.830022,-4.515772,200,OK
52.586537,-2.00651,WS2 9UZ,Walsall,West Midlands,52.586528,-2.006495,200,OK
52.046146,1.065565,IP8 3NW,Babergh,East of England,52.046146,1.065565,200,OK
50.862775,-2.166875,DT11 7UB,Dorset,South West,50.862775,-2.166875,200,OK
51.574325,-0.257036,NW9 7JG,Brent,London,51.574325,-0.257036,200,OK
52.602872,0.215716,,,,,,200,OK
53.41929,-2.304805,M33 3HP,Trafford,North West,53.41929,-2.304805,200,OK
51.513547,-0.163993,W2 2HD,Westminster,London,51.513538,-0.163993,200,OK
52.336358,-0.167887,PE29 1TF,Huntingdonshire,East of England,52.336358,-0.167887,200,OK
51.49721,0.162338,DA17 6AZ,Bexley,London,51.497921,0.162861,200,OK
51.77875,-1.267655,OX2 7LH,Oxford,South East,51.77875,-1.267655,200,OK
53.529782,-2.416162,M38 9PE,Salford,North West,53.529782,-2.416162,200,OK
50.844613,-0.406174,BN13 3DS,Worthing,South East,50.844613,-0.406174,200,OK
52.025968,-1.270246,OX17 3QE,West Northamptonshire,East Midlands,52.025968,-1.270246,200,OK
51.541635,-0.360427,UB6 8UB,Ealing,London,51.54146,-0.360051,200,OK
57.368772,-2.446643,AB51 5AU,Aberdeenshire,,57.369113,-2.446647,200,OK
53.785483,-0.345845,HU7 6EE,"Kingston upon Hull, City of",Yorkshire and The Humber,53.785483,-0.345845,200,OK
51.46713,-0.114313,SW9 0TQ,Lambeth,London,51.46713,-0.114313,200,OK
50.396467,-3.500893,TQ5 9FP,Torbay,South West,50.396467,-3.500893,200,OK
52.189503,0.138628,CB1 7BN,Cambridge,East of England,52.189326,0.138251,200,OK
51.13159,0.262805,TN1 1PN,Tunbridge Wells,South East,51.131316,0.263049,200,OK
53.452027,-2.022247,SK14 6AF,Tameside,North West,53.451711,-2.023405,200,OK
51.623346,0.030776,IG9 5HY,Epping Forest,East of England,51.623346,0.030776,200,OK
52.973348,-1.169021,NG7 7HS,Nottingham,East Midlands,52.973321,-1.169096,200,OK
52.402349,-0.717963,NN16 8LQ,North Northamptonshire,East Midlands,52.402349,-0.717963,200,OK
50.721193,-3.530681,EX1 1EB,Exeter,South West,50.721193,-3.530681,200,OK
51.769319,0.195452,CM17 0NU,Epping Forest,East of England,51.769319,0.195452,200,OK
51.714259,-4.056191,SA4 0UZ,Carmarthenshire,,51.714334,-4.055992,200,OK
50.896152,-1.606129,SO43 7GJ,New Forest,South East,50.896152,-1.606129,200,OK
53.557521,-2.20502,M24 5RH,Rochdale,North West,53.557521,-2.20502,200,OK
51.32231,-0.22289,SM7 1BL,Reigate and Banstead,South East,51.32231,-0.22289,200,OK
53.420651,-2.994585,L3 7EH,Liverpool,North West,53.420364,-2.995601,200,OK
51.070709,-1.785719,SP1 1LG,Wiltshire,South West,51.070709,-1.785719,200,OK
52.114267,-1.878294,WR11 8TP,Wychavon,West Midlands,52.114107,-1.877497,200,OK
54.390119,-1.456407,DL6 2PP,North Yorkshire,Yorkshire and The Humber,54.390119,-1.456407,200,OK
51.526534,-0.103657,EC1V 4PE,Islington,London,51.526534,-0.103657,200,OK
54.959087,-1.725777,NE21 4RP,Gateshead,North East,54.959087,-1.725777,200,OK
53.569307,-2.637809,WN1 2RB,Wigan,North West,53.569307,-2.637809,200,OK
51.433111,-2.215753,SN13 0DZ,Wiltshire,South West,51.433111,-2.215753,200,OK
50.807039,-3.297288,EX14 3HU,East Devon,South West,50.80703,-3.297288,200,OK
51.410816,-0.221733,SW20 8DT,Merton,London,51.410226,-0.222019,200,OK
50.75687,-1.543312,SO41 3RA,New Forest,South East,50.756546,-1.543315,200,OK
53.64839,-2.628806,PR7 3AG,Chorley,North West,53.64839,-2.628806,200,OK
51.642787,-0.428062,,,,,,200,OK
53.840718,-1.818799,BD16 1TP,Bradford,Yorkshire and The Humber,53.840718,-1.818799,200,OK
51.740182,-3.840508,SA8 4TR,Neath Port Talbot,,51.740182,-3.840508,200,OK
53.226795,-1.272768,S44 6GB,Bolsover,East Midlands,53.226795,-1.272768,200,OK
51.465141,0.04976,SE9 6RP,Greenwich,London,51.465141,0.04976,200,OK
53.706322,-2.808066,PR4 5LB,South Ribble,North West,53.706322,-2.808066,200,OK
53.919686,-1.101884,YO23 2RF,York,Yorkshire and The Humber,53.919714,-1.10186,200,OK
51.763674,-1.180309,OX3 8FR,Oxford,South East,51.763674,-1.180309,200,OK
51.99507,-0.985112,MK18 1AU,Buckinghamshire,South East,51.99507,-0.985112,200,OK
50.551723,-3.512579,TQ14 9BE,Teignbridge,South West,50.551723,-3.512579,200,OK
53.411161,-2.961356,L6 1BS,Liverpool,North West,53.411116,-2.96134,200,OK
53.002398,-2.910761,LL13 0BY,Wrexham,,53.002398,-2.910761,200,OK
51.318486,-0.29472,KT21 1NH,Mole Valley,South East,51.318486,-0.29472,200,OK
51.834034,-3.015695,NP7 6BP,Monmouthshire,,51.834034,-3.015695,200,OK
53.417648,-3.030626,CH44 0BL,Wirral,North West,53.417721,-3.030598,200,OK
51.610682,-0.183632,N12 8PD,Barnet,London,51.610705,-0.183678,200,OK
53.853807,-2.866531,PR3 0ZW,Wyre,North West,53.853807,-2.866531,200,OK
51.582441,-4.006641,SA3 5TZ,Swansea,,51.582441,-4.006641,200,OK
50.872955,-1.25913,PO15 5SR,Fareham,South East,50.872955,-1.25913,200,OK
50.949553,-1.455189,SO16 8AG,Test Valley,South East,50.949553,-1.455189,200,OK
51.516007,-0.177024,W2 1HB,Westminster,London,51.516471,-0.176775,200,OK
56.097257,-3.925982,FK7 0EP,Stirling,,56.097257,-3.925982,200,OK
53.483601,-2.219551,M4 6FJ,Manchester,North West,53.483601,-2.219551,200,OK
52.379354,-2.481177,DY14 8DA,Shropshire,West Midlands,52.379354,-2.481177,200,OK
51.405486,-1.146156,RG7 5PX,West Berkshire,South East,51.405486,-1.146156,200,OK
54.573707,-1.243868,TS1 5LR,Middlesbrough,North East,54.573321,-1.24403,200,OK
51.801125,-0.823581,HP21 9NY,Buckinghamshire,South East,51.801125,-0.823581,200,OK
51.748893,-3.282554,CF81 9PA,Caerphilly,,51.748893,-3.282554,200,OK
52.301763,-2.590408,WR15 8DD,Malvern Hills,West Midlands,52.301763,-2.590408,200,OK
51.573982,-0.424202,HA4 8LS,Hillingdon,London,51.574004,-0.424505,200,OK
55.876108,-4.320638,G11 7BE,Glasgow City,,55.876145,-4.320577,200,OK
56.476014,-3.012013,DD2 3NF,Dundee City,,56.476014,-3.012013,200,OK
53.566142,-1.022085,DN7 4DG,Doncaster,Yorkshire and The Humber,53.566142,-1.022085,200,OK
54.936372,-7.28153,,,,,,200,OK
51.478275,-0.373235,TW5 0BD,Hounslow,London,51.478275,-0.373235,200,OK
57.506378,-4.269629,IV1 3JH,Highland,,57.506378,-4.269629,200,OK
50.48662,-3.543628,TQ2 8JJ,Torbay,South West,50.48662,-3.543628,200,OK
55.131196,-1.615349,NE22 6HE,Northumberland,North East,55.131196,-1.615349,200,OK
51.522966,-3.090542,CF3 0SD,Cardiff,,51.522966,-3.090542,200,OK
51.414193,0.797821,ME12 3TX,Swale,South East,51.414193,0.797821,200,OK
53.480769,-2.127575,M34 5RJ,Tameside,North West,53.480769,-2.127575,200,OK
55.952516,-3.136967,EH8 7SA,City of Edinburgh,,55.952516,-3.136967,200,OK
53.486302,-2.289281,M6 5JN,Salford,North West,53.486302,-2.289281,200,OK
54.006965,-1.448578,HG5 0JF,North Yorkshire,Yorkshire and The Humber,54.006965,-1.448578,200,OK
53.368768,-2.160543,SK7 2JL,Stockport,North West,53.368768,-2.160543,200,OK
51.461,-0.125078,SW2 5UY,Lambeth,London,51.461,-0.125078,200,OK
53.017175,-1.473884,DE56 1LX,Amber Valley,East Midlands,53.017175,-1.473884,200,OK
51.038302,0.547939,TN18 5NP,Tunbridge Wells,South East,51.038281,0.547967,200,OK
51.55886,0.224672,RM12 6HB,Havering,London,51.55886,0.224672,200,OK
52.548415,0.083764,PE15 9RL,Fenland,East of England,52.548415,0.083764,200,OK
53.444653,-2.699009,WA9 3RA,St. Helens,North West,53.444653,-2.699009,200,OK
55.352842,-4.685523,KA19 7DL,South Ayrshire,,55.352842,-4.685523,200,OK
53.43131,-1.352472,S65 1ED,Rotherham,Yorkshire and The Humber,53.431355,-1.352382,200,OK
56.137563,-3.772853,FK10 3HY,Clackmannanshire,,56.137563,-3.772853,200,OK
53.705772,-0.869964,DN14 5AN,East Riding of Yorkshire,Yorkshire and The Humber,53.705772,-0.869964,200,OK
51.874658,0.578265,CM7 3NP,Braintree,East of England,51.874658,0.578265,200,OK
51.334392,-1.256428,RG20 4TA,Basingstoke and Deane,South East,51.334392,-1.256428,200,OK
53.564003,-1.198635,DN6 7RE,Doncaster,Yorkshire and The Humber,53.564003,-1.198635,200,OK
52.747939,0.431404,PE30 4SG,King's Lynn and West Norfolk,East of England,52.747939,0.431404,200,OK
52.552395,-2.111469,WV4 6NB,Wolverhampton,West Midlands,52.552395,-2.111469,200,OK
51.455528,-0.995612,RG30 2UN,Reading,South East,51.455528,-0.995612,200,OK
54.506537,-6.057879,BT28 1HL,Lisburn and Castlereagh,,54.506414,-6.057468,200,OK
50.844313,-0.989471,PO9 1QZ,Havant,South East,50.843713,-0.988746,200,OK
52.66743,-1.140187,LE4 2PD,Leicester,East Midlands,52.66743,-1.140187,200,OK
52.252165,-0.123392,CB23 3GJ,South Cambridgeshire,East of England,52.252165,-0.123392,200,OK
54.437848,-2.969552,LA22 9PL,Westmorland and Furness,North West,54.438452,-2.970233,200,OK
51.343158,-0.829197,GU46 7TA,Hart,South East,51.343158,-0.829197,200,OK
51.352217,-0.803764,GU47 8QS,Bracknell Forest,South East,51.352208,-0.803793,200,OK
52.706582,-1.776488,WS13 8SX,Lichfield,West Midlands,52.706808,-1.777079,200,OK
51.142471,-2.720787,BA6 8AR,Somerset,South West,51.142471,-2.720787,200,OK
51.567498,0.202973,RM11 1DW,Havering,London,51.566834,0.203025,200,OK
50.794778,-3.179918,EX14 9TF,East Devon,South West,50.794778,-3.179918,200,OK
52.372864,-1.268043,CV21 2BG,Rugby,West Midlands,52.372864,-1.268043,200,OK
51.452974,-1.021084,RG30 4BB,Reading,South East,51.452974,-1.021084,200,OK
52.584405,-0.393216,PE5 7XH,Peterborough,East of England,52.584405,-0.393216,200,OK
52.485472,1.221713,NR15 2FD,South Norfolk,East of England,52.485472,1.221713,200,OK
52.451251,-1.212061,LE17 4YF,Harborough,East Midlands,52.451251,-1.212061,200,OK
52.417676,-1.97074,B31 1PF,Birmingham,West Midlands,52.417676,-1.97074,200,OK
52.480354,-2.133755,DY5 3SZ,Dudley,West Midlands,52.480354,-2.133755,200,OK
51.406276,-3.4071,CF62 4LD,Vale of Glamorgan,,51.406276,-3.4071,200,OK
52.91074,-1.487977,DE23 6TQ,Derby,East Midlands,52.910695,-1.487959,200,OK
51.364741,1.133685,CT6 6AQ,Canterbury,South East,51.364741,1.133685,200,OK
53.441153,-0.855182,DN10 4AP,Bassetlaw,East Midlands,53.441153,-0.855182,200,OK
52.404693,-1.517612,CV1 3DG,Coventry,West Midlands,52.404693,-1.517612,200,OK
52.503126,-2.112752,DY1 2HH,Dudley,West Midlands,52.503126,-2.112752,200,OK
53.013349,-1.355792,DE75 7GE,Amber Valley,East Midlands,53.013287,-1.356031,200,OK
51.211876,-0.573494,GU4 8DP,Guildford,South East,51.211876,-0.573494,200,OK
54.540745,-1.288868,TS17 9DY,Stockton-on-Tees,North East,54.540745,-1.288868,200,OK
51.493949,-0.276973,W4 5SE,Hounslow,London,51.493949,-0.276973,200,OK
51.479919,-0.117185,SW8 1LR,Lambeth,London,51.479919,-0.117185,200,OK
50.895621,-1.036752,PO8 8QY,Havant,South East,50.895621,-1.036752,200,OK
53.459272,-2.998091,L20 5DD,Sefton,North West,53.459244,-2.998211,200,OK
54.225763,-0.627085,YO13 9NY,North Yorkshire,Yorkshire and The Humber,54.225763,-0.627085,200,OK
53.946543,-1.087533,YO23 1DR,York,Yorkshire and The Humber,53.94657,-1.087526,200,OK
51.5618,-0.742486,SL6 9AS,Windsor and Maidenhead,South East,51.5618,-0.742486,200,OK
52.702669,0.979851,NR20 4LU,Breckland,East of England,52.702669,0.979851,200,OK
51.477338,-3.185383,CF11 6AP,Cardiff,,51.477338,-3.185383,200,OK
51.515429,-0.186703,W2 6HG,Westminster,London,51.515429,-0.186703,200,OK
51.523571,-0.139736,W1T 5HW,Camden,London,51.523571,-0.139736,200,OK
54.570046,-1.36364,TS19 7LU,Stockton-on-Tees,North East,54.570046,-1.36364,200,OK
55.915236,-4.336515,G61 4AW,East Dunbartonshire,,55.915236,-4.336515,200,OK
51.499903,-0.059407,SE16 4QH,Southwark,London,51.499903,-0.059407,200,OK
51.457066,0.105523,DA16 2JL,Bexley,London,51.457066,0.105523,200,OK
54.135954,-0.805941,YO17 7YX,North Yorkshire,Yorkshire and The Humber,54.135972,-0.805941,200,OK
51.789638,-1.271513,OX2 8ED,Oxford,South East,51.789638,-1.271513,200,OK
53.48074,-2.159384,M43 6PP,Tameside,North West,53.480758,-2.159384,200,OK
52.635312,-0.357188,PE6 7AY,Peterborough,East of England,52.635361,-0.356846,200,OK
51.212686,0.387587,TN12 5AG,Tonbridge and Malling,South East,51.212686,0.387587,200,OK
53.70467,-2.186694,OL13 9ES,Rossendale,North West,53.70467,-2.186694,200,OK
53.607718,-1.469236,WF4 2NP,Wakefield,Yorkshire and The Humber,53.607718,-1.469236,200,OK
51.803623,-3.999553,SA18 3NE,Carmarthenshire,,51.803623,-3.999553,200,OK
50.76426,-1.652377,BH25 5HX,New Forest,South East,50.76426,-1.652377,200,OK
50.91075,-1.425033,SO15 3BE,Southampton,South East,50.91075,-1.425033,200,OK
51.461584,-0.433331,TW14 9RL,Hounslow,London,51.461584,-0.433331,200,OK
53.168198,-3.081483,CH7 2HY,Flintshire,,53.167806,-3.082087,200,OK
51.529212,0.168972,RM13 8FT,Havering,London,51.529212,0.168972,200,OK
55.938324,-4.120553,G66 3QB,East Dunbartonshire,,55.938324,-4.120553,200,OK
50.268788,-3.865886,TQ7 3NY,South Hams,South West,50.268788,-3.865886,200,OK
52.92574,-1.495698,DE22 3FS,Derby,East Midlands,52.926061,-1.494936,200,OK
53.075034,-1.569066,DE4 4AD,Derbyshire Dales,East Midlands,53.075034,-1.569066,200,OK
54.556037,-1.358832,TS18 5NN,Stockton-on-Tees,North East,54.556037,-1.358832,200,OK
53.19562,-2.546912,CW7 2JB,Cheshire West and Chester,North West,53.19562,-2.546912,200,OK
51.103744,-2.313825,BA12 6QJ,Wiltshire,South West,51.103744,-2.313825,200,OK
53.991997,-1.07719,YO32 4BB,York,Yorkshire and The Humber,53.991777,-1.076655,200,OK
53.341214,0.247129,LN12 1EP,East Lindsey,East Midlands,53.341214,0.247129,200,OK
51.43004,-0.037883,SE26 4PZ,Lewisham,London,51.43004,-0.037883,200,OK
54.248996,-2.774133,LA7 7EU,Westmorland and Furness,North West,54.248996,-2.774133,200,OK
53.33469,-1.51325,S7 2RB,Sheffield,Yorkshire and The Humber,53.33469,-1.51325,200,OK
51.405473,-3.276213,CF62 8JH,Vale of Glamorgan,,51.405597,-3.276357,200,OK
51.518851,-0.1018,EC1A 9PS,City of London,London,51.519133,-0.10199,200,OK
54.841542,-5.813932,BT40 3AT,Mid and East Antrim,,54.841542,-5.813932,200,OK
53.791395,-0.38185,HU6 9EE,"Kingston upon Hull, City of",Yorkshire and The Humber,53.791395,-0.38185,200,OK
53.939527,-0.901133,YO41 4DE,East Riding of Yorkshire,Yorkshire and The Humber,53.93976,-0.901066,200,OK
50.801406,-1.889264,BH22 9AX,Dorset,South West,50.801406,-1.889264,200,OK
53.620108,-1.873425,HD7 5LQ,Kirklees,Yorkshire and The Humber,53.620122,-1.873425,200,OK
53.755491,-1.230046,LS25 5PB,North Yorkshire,Yorkshire and The Humber,53.755491,-1.230046,200,OK
53.760451,-1.631086,LS27 7TR,Leeds,Yorkshire and The Humber,53.760451,-1.631086,200,OK
51.427605,-0.932115,RG6 5YZ,Wokingham,South East,51.427505,-0.931988,200,OK
53.413554,-2.548983,WA2 0BY,Warrington,North West,53.413589,-2.548834,200,OK
51.321581,-0.137224,CR5 2NJ,Croydon,London,51.321526,-0.137126,200,OK
53.310103,-1.51281,S18 8AB,North East Derbyshire,East Midlands,53.310256,-1.512793,200,OK
51.90901,0.923639,CO4 9BE,Colchester,East of England,51.90901,0.923639,200,OK
55.846017,-3.943805,ML6 8GG,North Lanarkshire,,55.846017,-3.943805,200,OK
52.142336,-2.177277,WR5 3QQ,Malvern Hills,West Midlands,52.142336,-2.177277,200,OK
50.841539,-0.771446,PO19 6SD,Chichester,South East,50.84153,-0.771461,200,OK
54.482427,-5.438277,BT22 1BU,Ards and North Down,,54.482427,-5.438277,200,OK
51.980418,1.313925,IP11 0TZ,East Suffolk,East of England,51.980418,1.313925,200,OK
54.947907,-1.968995,NE44 6EE,Northumberland,North East,54.947907,-1.968995,200,OK
51.890567,-0.388958,LU2 9EP,Luton,East of England,51.890567,-0.388958,200,OK
57.672054,-2.692646,AB45 2XT,Aberdeenshire,,57.672054,-2.692646,200,OK
54.687977,-1.693154,DL15 0RA,County Durham,North East,54.687977,-1.693154,200,OK
51.489692,-0.131143,SW1V 2SD,Westminster,London,51.489692,-0.131143,200,OK
52.816574,1.429365,NR28 9QG,North Norfolk,East of England,52.816574,1.429365,200,OK
54.786612,-1.637066,DH7 7TH,County Durham,North East,54.786612,-1.637066,200,OK
55.77687,-3.959733,ML1 2TT,North Lanarkshire,,55.77687,-3.959733,200,OK
51.152167,-0.971569,GU34 1FX,East Hampshire,South East,51.152167,-0.971569,200,OK
50.819317,-0.128348,BN2 1AF,Brighton and Hove,South East,50.819317,-0.128348,200,OK
54.000356,-1.132674,YO30 1GY,York,Yorkshire and The Humber,54.000356,-1.132674,200,OK
55.616738,-2.816965,TD1 1HS,Scottish Borders,,55.616738,-2.816965,200,OK
52.977279,-3.067594,LL14 3DX,Wrexham,,52.977154,-3.067502,200,OK
53.75538,-2.364958,BB5 1BE,Hyndburn,North West,53.755337,-2.364593,200,OK
51.337369,1.007018,CT5 3AP,Canterbury,South East,51.337369,1.007018,200,OK
51.609248,-0.339983,HA3 6HL,Harrow,London,51.609248,-0.339983,200,OK
52.899744,-1.485545,DE23 8UE,Derby,East Midlands,52.899744,-1.485545,200,OK
54.774982,-5.750597,BT38 9HZ,Mid and East Antrim,,54.774982,-5.750597,200,OK
51.260007,1.066486,CT4 7BG,Canterbury,South East,51.260007,1.066486,200,OK
51.41483,0.191669,BR8 7SH,Sevenoaks,South East,51.41483,0.191669,200,OK
55.93759,-3.084229,EH21 8QU,City of Edinburgh,,55.93759,-3.084229,200,OK
51.167298,0.546489,TN12 0ST,Maidstone,South East,51.167298,0.546489,200,OK
53.919992,-2.182554,BB18 5RU,Pendle,North West,53.920001,-2.182569,200,OK
51.78302,-3.245352,NP22 4QN,Blaenau Gwent,,51.78302,-3.245352,200,OK
51.611646,-1.247186,OX11 7PD,South Oxfordshire,South East,51.611646,-1.247186,200,OK
50.810095,-0.400067,BN11 5QG,Worthing,South East,50.810095,-0.400067,200,OK
54.35475,-7.632808,BT74 6ET,Fermanagh and Omagh,,54.35475,-7.632808,200,OK
51.491976,-0.179164,SW7 3RD,Kensington and Chelsea,London,51.491976,-0.179164,200,OK
57.073597,-2.13805,AB12 4PN,Aberdeenshire,,57.073597,-2.13805,200,OK
52.34758,1.460551,IP19 0AU,East Suffolk,East of England,52.34758,1.460551,200,OK
51.513076,-0.145535,W1S 1DP,Westminster,London,51.513076,-0.145535,200,OK
51.521654,-0.624923,SL1 4PG,Slough,South East,51.521123,-0.624705,200,OK
57.173447,-2.150909,AB21 9NN,Aberdeen City,,57.173447,-2.150909,200,OK
54.634943,-3.540542,CA14 3HS,Cumberland,North West,54.634943,-3.540542,200,OK
51.48397,0.081514,SE18 7TJ,Greenwich,London,51.48397,0.081514,200,OK
54.089633,-0.192274,YO16 4DL,East Riding of Yorkshire,Yorkshire and The Humber,54.089633,-0.192274,200,OK
53.376799,-2.55296,WA4 2PA,Warrington,North West,53.377023,-2.552978,200,OK
51.70267,-0.81526,HP27 0PG,Buckinghamshire,South East,51.702572,-0.81535,200,OK
55.880947,-4.325228,G11 7DX,Glasgow City,,55.880947,-4.325228,200,OK
53.152552,0.07885,PE23 5AG,East Lindsey,East Midlands,53.152552,0.07885,200,OK
56.203888,-3.179053,KY7 5TD,Fife,,56.203888,-3.179053,200,OK
51.592899,-3.190902,CF83 8GN,Caerphilly,,51.593187,-3.190895,200,OK
53.699091,-2.709566,PR25 2ZH,South Ribble,North West,53.699035,-2.709591,200,OK
51.389836,1.402721,CT9 2JS,Thanet,South East,51.389836,1.402721,200,OK
54.557062,-1.221028,TS4 2PX,Middlesbrough,North East,54.557062,-1.221028,200,OK
51.484654,-0.324391,TW8 9GP,Hounslow,London,51.484644,-0.324226,200,OK
51.553012,-0.475267,UB8 1BH,Hillingdon,London,51.553012,-0.475267,200,OK
54.685587,-1.547056,DL17 8AL,County Durham,North East,54.685587,-1.547056,200,OK
51.464033,-0.104075,SW9 8TR,Lambeth,London,51.463841,-0.103868,200,OK
52.678214,-2.047835,WS11 1TD,Cannock Chase,West Midlands,52.678214,-2.047835,200,OK
52.828464,0.847473,NR21 9FG,North Norfolk,East of England,52.828464,0.847473,200,OK
51.297719,-0.358704,KT22 9TL,Mole Valley,South East,51.297719,-0.358704,200,OK
52.743614,0.25017,,,,,,200,OK
52.910533,-2.492369,TF9 3TT,Shropshire,West Midlands,52.910557,-2.492383,200,OK
53.647395,-1.539354,WF4 3DH,Wakefield,Yorkshire and The Humber,53.647395,-1.539354,200,OK
52.46961,-2.032989,B62 9LA,Dudley,West Midlands,52.469571,-2.032969,200,OK
51.55483,-0.216241,NW2 3AN,Brent,London,51.55483,-0.216241,200,OK
52.517954,-1.999293,B70 8HS,Sandwell,West Midlands,52.51754,-1.9995,200,OK
50.413938,-5.078507,TR7 1BG,Cornwall,South West,50.413938,-5.078507,200,OK
51.452459,-2.421873,BS30 5QQ,South Gloucestershire,South West,51.452314,-2.422346,200,OK
51.464761,-0.174287,SW11 2HH,Wandsworth,London,51.464789,-0.174276,200,OK
50.760771,-1.914114,BH11 8BE,"Bournemouth, Christchurch and Poole",South West,50.760771,-1.914114,200,OK
51.892154,-0.63226,LU7 9BJ,Central Bedfordshire,East of England,51.892154,-0.63226,200,OK
50.840803,-2.60356,DT2 0JZ,Dorset,South West,50.840875,-2.60349,200,OK
52.022514,1.191352,IP10 0JR,East Suffolk,East of England,52.022612,1.191359,200,OK
51.540766,-0.080209,N1 4DA,Hackney,London,51.540766,-0.080209,200,OK
53.513877,-0.101192,DN37 0HG,North East Lincolnshire,Yorkshire and The Humber,53.513877,-0.101192,200,OK
53.454013,-1.98371,SK13 6JE,High Peak,East Midlands,53.454013,-1.98371,200,OK
50.956579,-0.502757,RH20 2HT,Horsham,South East,50.956579,-0.502757,200,OK
50.391627,-3.663414,TQ9 7HP,South Hams,South West,50.391627,-3.663414,200,OK
55.831428,-4.51633,PA5 8NQ,Renfrewshire,,55.831428,-4.51633,200,OK
51.461051,-0.166968,SW11 1QY,Wandsworth,London,51.46106,-0.166967,200,OK
51.582491,0.02204,E11 1PW,Redbridge,London,51.582491,0.02204,200,OK
53.228115,-0.630621,LN6 4RL,North Kesteven,East Midlands,53.228115,-0.630621,200,OK
51.718912,-1.895641,GL7 5SE,Cotswold,South West,51.718912,-1.895641,200,OK
53.937384,-1.07349,YO10 4PQ,York,Yorkshire and The Humber,53.937403,-1.073559,200,OK
51.630319,-0.750745,HP13 6RZ,Buckinghamshire,South East,51.630319,-0.750745,200,OK
52.434636,-1.476373,CV6 7HH,Coventry,West Midlands,52.434636,-1.476373,200,OK
51.391627,-0.313677,KT6 5NX,Kingston upon Thames,London,51.391627,-0.313677,200,OK
51.129386,-0.181313,RH10 9QX,Crawley,South East,51.129269,-0.181274,200,OK
51.477368,-0.208648,SW6 7JE,Hammersmith and Fulham,London,51.477195,-0.208482,200,OK
51.470229,-0.360526,TW3 1QH,Hounslow,London,51.470359,-0.360161,200,OK
53.105829,-2.291992,ST7 3DT,Cheshire East,North West,53.105829,-2.291992,200,OK
52.094484,0.429154,CB9 9SE,West Suffolk,East of England,52.094484,0.429154,200,OK
54.207416,-6.063636,BT34 5RD,"Newry, Mourne and Down",,54.207416,-6.063636,200,OK
53.987367,-2.310057,BD23 4SN,Ribble Valley,North West,53.987367,-2.310057,200,OK
53.577357,-0.07276,,,,,,200,OK
52.405783,1.296682,IP20 9QE,South Norfolk,East of England,52.405783,1.296682,200,OK
51.508573,-2.149957,SN14 6FE,Wiltshire,South West,51.508573,-2.149957,200,OK
53.929685,-1.163381,YO23 3FX,York,Yorkshire and The Humber,53.929685,-1.163381,200,OK
53.492699,-2.107082,OL7 9HS,Tameside,North West,53.492699,-2.107082,200,OK
57.609855,-3.621265,IV36 1EQ,Moray,,57.609857,-3.621098,200,OK
51.514358,-0.101987,EC4M 7BA,City of London,London,51.514381,-0.102303,200,OK
52.637214,-3.006568,SY5 9HX,Shropshire,West Midlands,52.637214,-3.006568,200,OK
54.882314,-6.288529,,,,,,200,OK
53.741154,-2.011121,HX7 8AS,Calderdale,Yorkshire and The Humber,53.741154,-2.011121,200,OK
53.536899,-1.481558,S70 6SY,Barnsley,Yorkshire and The Humber,53.536899,-1.481558,200,OK
52.393943,-0.716811,NN15 7NA,North Northamptonshire,East Midlands,52.393943,-0.716811,200,OK
52.57248,0.820533,IP25 6EE,Breckland,East of England,52.57248,0.820533,200,OK
51.262105,-1.084908,RG21 7PG,Basingstoke and Deane,South East,51.262166,-1.084663,200,OK
53.447996,-2.037392,SK14 3PA,Tameside,North West,53.448239,-2.037648,200,OK
53.15804,0.013214,PE23 4HN,East Lindsey,East Midlands,53.15804,0.013214,200,OK
51.795838,-3.700627,SA9 1UF,Powys,,51.795838,-3.700627,200,OK
55.945467,-3.989238,G67 1HU,North Lanarkshire,,55.945467,-3.989238,200,OK
53.305364,-1.937699,SK23 9US,High Peak,East Midlands,53.305364,-1.937699,200,OK
51.394052,-2.347185,BA1 6QA,Bath and North East Somerset,South West,51.394052,-2.347185,200,OK
53.322599,-3.098026,CH60 8QW,Wirral,North West,53.32275,-3.098225,200,OK
51.686067,-1.242972,OX14 3BG,Vale of White Horse,South East,51.686067,-1.242972,200,OK
51.50367,-0.340004,W7 2EX,Ealing,London,51.50367,-0.340004,200,OK
53.351057,-1.420479,S12 2JF,Sheffield,Yorkshire and The Humber,53.351093,-1.420358,200,OK
54.346176,-1.437896,DL7 8DL,North Yorkshire,Yorkshire and The Humber,54.345844,-1.437356,200,OK
51.210264,0.586918,ME17 3AX,Maidstone,South East,51.210234,0.587047,200,OK
54.700059,-1.601762,DL16 6BH,County Durham,North East,54.700365,-1.601583,200,OK
55.945242,-4.783333,PA16 7JH,Inverclyde,,55.945227,-4.783265,200,OK
51.412117,-0.828127,RG40 1YA,Wokingham,South East,51.412117,-0.828127,200,OK
51.719527,-1.19473,OX4 6RD,Oxford,South East,51.719527,-1.19473,200,OK
53.414453,-2.881975,L14 7NJ,Knowsley,North West,53.414453,-2.881975,200,OK
51.468621,-0.077638,SE5 8UU,Southwark,London,51.468621,-0.077638,200,OK
54.389418,-7.757136,BT74 8GE,Fermanagh and Omagh,,54.389418,-7.757136,200,OK
55.795517,-4.867705,KA30 8BB,North Ayrshire,,55.795517,-4.867705,200,OK
50.839459,-0.247389,BN43 6YJ,Adur,South East,50.839073,-0.248029,200,OK
53.402035,-2.846508,L36 5XZ,Knowsley,North West,53.402035,-2.846508,200,OK
52.051669,-0.790092,MK13 9BU,Milton Keynes,South East,52.051669,-0.790092,200,OK
52.89595,-1.343144,DE72 3NH,Erewash,East Midlands,52.89595,-1.343144,200,OK
52.645736,1.281179,NR3 2HR,Norwich,East of England,52.645736,1.281179,200,OK
56.128351,-3.961326,FK9 4TS,Stirling,,56.128351,-3.961326,200,OK
51.385165,0.480149,ME2 2NY,Medway,South East,51.385165,0.480149,200,OK
51.662225,-4.039359,SA4 4AQ,Swansea,,51.662184,-4.039435,200,OK
51.563402,-0.238005,NW2 7DX,Brent,London,51.563402,-0.238005,200,OK
52.86509,-1.627739,DE65 5AA,South Derbyshire,East Midlands,52.86509,-1.627739,200,OK
56.115513,-3.791365,FK10 1JF,Clackmannanshire,,56.115513,-3.791365,200,OK
55.77448,-2.008232,TD15 1NB,Northumberland,North East,55.774588,-2.007498,200,OK
53.221906,-2.514237,CW9 8QH,Cheshire West and Chester,North West,53.221906,-2.514237,200,OK
51.65188,-0.047183,EN3 5JD,Enfield,London,51.65188,-0.047183,200,OK
53.3231,-1.923726,SK23 9SQ,High Peak,East Midlands,53.3231,-1.923726,200,OK
51.493448,-0.261318,W4 5UU,Hounslow,London,51.493242,-0.261384,200,OK
52.203249,0.10431,CB3 9AL,Cambridge,East of England,52.203983,0.104476,200,OK
51.307312,0.241309,TN15 6NE,Sevenoaks,South East,51.307257,0.240401,200,OK
52.78933,-0.146718,PE11 2AQ,South Holland,East Midlands,52.78933,-0.146718,200,OK
53.820715,-1.722066,BD2 2DW,Bradford,Yorkshire and The Humber,53.820715,-1.722066,200,OK
51.574284,-0.366605,HA2 0FJ,Harrow,London,51.574284,-0.366605,200,OK
52.459636,-3.939698,SY24 5DP,Ceredigion,,52.459636,-3.939698,200,OK
54.630493,-1.720787,DL14 9JQ,County Durham,North East,54.630493,-1.720787,200,OK
51.645086,-0.772616,HP13 5XF,Buckinghamshire,South East,51.645086,-0.772616,200,OK
53.688998,-2.712394,PR25 1JE,South Ribble,North West,53.688972,-2.712273,200,OK
51.634476,-0.210571,N20 8NL,Barnet,London,51.634476,-0.210571,200,OK
50.531516,-3.606867,TQ12 2FE,Teignbridge,South West,50.531517,-3.606768,200,OK
54.659579,-1.672364,DL14 7JY,County Durham,North East,54.659579,-1.672364,200,OK
50.433483,-4.105391,PL6 7QB,South Hams,South West,50.433502,-4.105335,200,OK
53.198467,-0.532821,LN4 2TA,North Kesteven,East Midlands,53.198467,-0.532821,200,OK
54.605755,-6.800392,BT80 9DA,Mid Ulster,,54.605755,-6.800392,200,OK
52.446285,-1.990363,B32 3SW,Birmingham,West Midlands,52.446285,-1.990363,200,OK
51.900336,0.924544,CO4 0QH,Colchester,East of England,51.900336,0.924544,200,OK
52.921777,-1.211625,NG9 1JB,Broxtowe,East Midlands,52.921632,-1.211163,200,OK
53.615171,-1.346097,WF9 4UF,Wakefield,Yorkshire and The Humber,53.615019,-1.346145,200,OK
51.510727,-2.234741,SN14 7LH,Wiltshire,South West,51.510727,-2.234741,200,OK
51.47122,0.271725,RM20 3AS,Thurrock,East of England,51.47122,0.271725,200,OK
55.633452,-4.61379,KA11 2FA,North Ayrshire,,55.633452,-4.61379,200,OK
50.532895,-3.60687,TQ12 2QQ,Teignbridge,South West,50.532895,-3.60687,200,OK
51.500267,-0.093711,SE1 1BG,Southwark,London,51.500267,-0.093711,200,OK
53.254308,0.286484,PE24 5YE,East Lindsey,East Midlands,53.254308,0.286484,200,OK
51.433679,-3.169565,CF64 3YR,Vale of Glamorgan,,51.43367,-3.169565,200,OK
51.90275,-4.425664,SA33 6NZ,Carmarthenshire,,51.90275,-4.425664,200,OK
54.89711,-2.96531,CA2 7NU,Cumberland,North West,54.897134,-2.965623,200,OK
53.547384,-0.168779,DN37 7EH,North East Lincolnshire,Yorkshire and The Humber,53.547384,-0.168779,200,OK
50.733332,-1.812369,BH6 5FZ,"Bournemouth, Christchurch and Poole",South West,50.733332,-1.812369,200,OK
55.580226,-4.497324,KA1 4RQ,East Ayrshire,,55.580226,-4.497324,200,OK
51.469122,-0.364324,TW3 1LB,Hounslow,London,51.469122,-0.364324,200,OK
52.246445,-0.876992,NN1 4NZ,West Northamptonshire,East Midlands,52.246436,-0.876363,200,OK
53.786523,-1.785533,BD7 2HN,Bradford,Yorkshire and The Humber,53.786523,-1.785533,200,OK
53.726584,-0.425751,HU13 9JH,East Riding of Yorkshire,Yorkshire and The Humber,53.726584,-0.425751,200,OK
53.419084,-2.223311,M20 6HF,Manchester,North West,53.419075,-2.223311,200,OK
53.695681,-1.633454,WF13 2AJ,Kirklees,Yorkshire and The Humber,53.695907,-1.63371,200,OK
51.624902,-2.670235,NP16 5NT,Monmouthshire,,51.625376,-2.670646,200,OK
51.586967,-2.564136,BS32 4PG,South Gloucestershire,South West,51.586967,-2.564136,200,OK
53.630233,-1.741747,HD4 6SG,Kirklees,Yorkshire and The Humber,53.630233,-1.741747,200,OK
53.7156,-1.684253,WF15 6AH,Kirklees,Yorkshire and The Humber,53.7156,-1.684253,200,OK
52.89441,-1.47048,DE24 8EJ,Derby,East Midlands,52.894383,-1.470466,200,OK
58.209191,-6.38359,HS1 2NF,Na h-Eileanan Siar,,58.209191,-6.38359,200,OK
51.455202,-0.109609,SE24 0NT,Lambeth,London,51.455202,-0.109609,200,OK
54.31485,-2.082372,DL8 3JW,North Yorkshire,Yorkshire and The Humber,54.31485,-2.082372,200,OK
50.771634,0.10181,BN25 1HJ,Lewes,South East,50.771391,0.101785,200,OK
53.719436,-1.361118,WF10 5RP,Wakefield,Yorkshire and The Humber,53.719436,-1.361118,200,OK
51.721456,-2.703645,NP16 6UL,Monmouthshire,,51.721456,-2.703645,200,OK
52.267496,-1.520283,CV31 2QN,Warwick,West Midlands,52.267496,-1.520283,200,OK
52.47655,-1.785649,,,,,,200,OK
53.188076,-2.88039,CH4 7BB,Cheshire West and Chester,North West,53.188076,-2.88039,200,OK
50.803862,-1.087628,PO1 4BP,Portsmouth,South East,50.803853,-1.087572,200,OK
51.001128,-1.381961,SO53 5RR,Eastleigh,South East,51.001138,-1.382004,200,OK
51.774216,-0.211832,AL9 5BZ,Welwyn Hatfield,East of England,51.774247,-0.211734,200,OK
52.929562,-1.481235,DE1 3FW,Derby,East Midlands,52.929562,-1.481235,200,OK
54.251389,-7.443996,BT92 0GH,Fermanagh and Omagh,,54.251389,-7.443996,200,OK
50.835615,-0.162406,BN3 6GB,Brighton and Hove,South East,50.835046,-0.162258,200,OK
53.401282,-0.49216,LN8 2EL,West Lindsey,East Midlands,53.401273,-0.492176,200,OK
51.747043,-0.331822,AL1 1PT,St Albans,East of England,51.747066,-0.331755,200,OK
51.280718,-0.842872,GU51 4DE,Hart,South East,51.280718,-0.842872,200,OK
53.797091,-1.550667,LS1 1HT,Leeds,Yorkshire and The Humber,53.797091,-1.550667,200,OK
53.109462,-3.034953,LL12 9DS,Flintshire,,53.109566,-3.03618,200,OK
51.482794,-0.054159,SE15 1NT,Southwark,London,51.482425,-0.054146,200,OK
55.80253,-4.39839,G78 1EE,East Renfrewshire,,55.80253,-4.39839,200,OK
53.752914,-1.764381,BD12 0NF,Bradford,Yorkshire and The Humber,53.752057,-1.76439,200,OK
50.76564,-3.286302,EX11 1NA,East Devon,South West,50.76564,-3.286302,200,OK
52.513218,-1.938481,B21 9QD,Birmingham,West Midlands,52.513218,-1.938481,200,OK
51.448285,-2.471926,BS30 8UR,South Gloucestershire,South West,51.448285,-2.471926,200,OK
51.388324,-0.255144,KT3 5LL,Kingston upon Thames,London,51.388324,-0.255144,200,OK
52.696218,-2.516617,TF1 1HT,Telford and Wrekin,West Midlands,52.696218,-2.516617,200,OK
52.986464,-1.12773,NG5 4GT,Gedling,East Midlands,52.986464,-1.12773,200,OK
54.244741,-2.869565,LA11 6RT,Westmorland and Furness,North West,54.24522,-2.869253,200,OK
53.418929,-3.043583,CH44 5XN,Wirral,North West,53.418929,-3.043583,200,OK
55.793048,-4.864108,KA30 9LN,North Ayrshire,,55.793048,-4.864108,200,OK
52.456695,-1.98184,B32 2PE,Birmingham,West Midlands,52.456584,-1.981319,200,OK
51.487016,0.32526,RM17 5LQ,Thurrock,East of England,51.486936,0.325198,200,OK
56.736574,-2.648451,DD9 7AS,Angus,,56.736546,-2.648457,200,OK
51.505686,-0.237797,W12 9AJ,Hammersmith and Fulham,London,51.505498,-0.237723,200,OK
51.56759,-0.122254,N19 4EF,Islington,London,51.56759,-0.12224,200,OK
52.275438,-1.563759,CV34 6UW,Warwick,West Midlands,52.275375,-1.563759,200,OK
50.863547,0.255386,BN27 3DJ,Wealden,South East,50.863547,0.255386,200,OK
51.58456,-0.03734,E17 7BD,Waltham Forest,London,51.58456,-0.03734,200,OK
53.349036,-3.119346,CH61 2XJ,Wirral,North West,53.349036,-3.119346,200,OK
53.598876,-2.229895,OL10 4TS,Rochdale,North West,53.598876,-2.229895,200,OK
50.699303,-2.499041,DT2 9JR,Dorset,South West,50.699303,-2.499041,200,OK
51.42687,-1.968596,SN11 8QH,Wiltshire,South West,51.42687,-1.968596,200,OK
54.987537,-3.260821,DG12 6DW,Dumfries and Galloway,,54.987537,-3.260821,200,OK
52.546504,-0.272163,PE2 5NN,Peterborough,East of England,52.546504,-0.272163,200,OK
52.133731,-0.463483,MK42 0AF,Bedford,East of England,52.133731,-0.463483,200,OK
52.505256,-1.917817,B20 3TB,Birmingham,West Midlands,52.505265,-1.917847,200,OK
52.438704,-1.970329,B29 5RD,Birmingham,West Midlands,52.438704,-1.970329,200,OK
51.35988,-0.423912,KT12 5EA,Elmbridge,South East,51.35988,-0.423912,200,OK
51.42453,-0.503754,TW18 2NW,Spelthorne,South East,51.42453,-0.503754,200,OK
51.490369,0.367093,RM16 4SU,Thurrock,East of England,51.490369,0.367093,200,OK
52.704074,-0.667654,LE15 7BN,Rutland,East Midlands,52.704074,-0.667654,200,OK
51.831338,0.543622,CM3 2BH,Braintree,East of England,51.831338,0.543622,200,OK
51.191278,-2.543061,BA4 5LT,Somerset,South West,51.191278,-2.543061,200,OK
52.886286,-2.565525,TF9 3QN,Shropshire,West Midlands,52.886286,-2.565525,200,OK
52.558514,-0.236079,PE2 8DE,Peterborough,East of England,52.558514,-0.236079,200,OK
53.479272,-2.241076,M2 3HR,Manchester,North West,53.479171,-2.241163,200,OK
53.055046,-2.976877,LL12 7EF,Wrexham,,53.055046,-2.976877,200,OK
53.350106,-1.437708,S14 1RJ,Sheffield,Yorkshire and The Humber,53.350106,-1.437708,200,OK
52.252213,-0.260342,PE19 6QR,Huntingdonshire,East of England,52.252204,-0.260357,200,OK
51.250252,-1.135593,RG22 5JG,Basingstoke and Deane,South East,51.250252,-1.135593,200,OK
51.604783,-0.272968,HA8 5ED,Harrow,London,51.604783,-0.272968,200,OK
53.256082,-1.391571,S43 1NZ,Chesterfield,East Midlands,53.256082,-1.391571,200,OK
52.619505,-2.483231,TF12 5SH,Shropshire,West Midlands,52.619505,-2.483231,200,OK
55.908402,-4.312455,G61 2JS,East Dunbartonshire,,55.908402,-4.312455,200,OK
56.446492,-2.883725,DD6 9LB,Fife,,56.446492,-2.883725,200,OK
51.544535,0.069912,IG1 2LN,Redbridge,London,51.544535,0.069912,200,OK
57.66489,-3.01194,AB56 5QQ,Moray,,57.664827,-3.011921,200,OK
51.199595,-1.472887,SP10 2DN,Test Valley,South East,51.199595,-1.472887,200,OK
53.745718,-2.462267,BB1 1PA,Blackburn with Darwen,North West,53.745718,-2.462267,200,OK
51.519531,-0.435379,UB3 2PL,Hillingdon,London,51.519531,-0.435379,200,OK
51.512107,-0.178827,W2 3LH,Westminster,London,51.512107,-0.178827,200,OK
51.510177,-0.084334,EC3R 8DR,City of London,London,51.510177,-0.084334,200,OK
55.857409,-4.364793,G52 4HZ,Renfrewshire,,55.85775,-4.364782,200,OK
51.877865,-2.205664,GL2 0NN,Gloucester,South West,51.877865,-2.205664,200,OK
52.1009,-1.486554,OX15 6HP,Stratford-on-Avon,West Midlands,52.101114,-1.486099,200,OK
53.248206,-1.410927,S41 0TH,Chesterfield,East Midlands,53.248206,-1.410927,200,OK
51.499839,-0.132486,SW1H 9NQ,Westminster,London,51.499839,-0.132486,200,OK
51.4089,-1.305111,RG14 2LS,West Berkshire,South East,51.409295,-1.304846,200,OK
52.778895,-2.106399,ST17 4UP,Stafford,West Midlands,52.778895,-2.106399,200,OK
50.723784,-3.48115,EX1 3EL,Exeter,South West,50.723784,-3.48115,200,OK
54.665954,-1.709041,DL14 7SY,County Durham,North East,54.665954,-1.709041,200,OK
55.961221,-4.81635,PA19 1AQ,Inverclyde,,55.961256,-4.8164,200,OK
51.350584,0.54225,ME5 8JW,Medway,South East,51.350584,0.54225,200,OK
51.597038,-0.683373,HP10 0FN,Buckinghamshire,South East,51.596893,-0.683262,200,OK
51.438707,-0.188621,SW18 4HF,Wandsworth,London,51.438707,-0.188621,200,OK
51.59552,-2.981606,NP19 7EY,Newport,,51.59552,-2.981606,200,OK
52.804832,0.030262,PE12 7BX,South Holland,East Midlands,52.804758,0.030348,200,OK
51.543238,0.052085,E12 6PU,Newham,London,51.543353,0.052262,200,OK
51.518389,-0.205554,W11 1AR,Kensington and Chelsea,London,51.518389,-0.205554,200,OK
51.181469,-0.624252,GU7 1QP,Waverley,South East,51.181469,-0.624252,200,OK
54.522165,-1.311438,TS17 0SZ,Stockton-on-Tees,North East,54.522165,-1.311438,200,OK
52.549786,-1.989855,WS10 0JA,Sandwell,West Midlands,52.549786,-1.989855,200,OK
53.452929,-3.004374,L20 4TX,Sefton,North West,53.453347,-3.003797,200,OK
52.599904,-1.932735,WS9 0DG,Walsall,West Midlands,52.599904,-1.932735,200,OK
51.774562,-0.924788,HP17 8DT,Buckinghamshire,South East,51.774562,-0.924788,200,OK
56.139599,-3.948492,FK9 5NX,Stirling,,56.139599,-3.948492,200,OK
51.878093,0.858756,CO3 4LF,Colchester,East of England,51.878093,0.858756,200,OK
51.796547,-4.987364,SA61 1HJ,Pembrokeshire,,51.796452,-4.987753,200,OK
51.640996,-4.019979,SA5 4SN,Swansea,,51.640996,-4.019979,200,OK
53.613231,-0.960957,DN8 5BT,Doncaster,Yorkshire and The Humber,53.613854,-0.96138,200,OK
51.268131,0.533036,ME15 7RP,Maidstone,South East,51.268131,0.533036,200,OK
53.424388,-2.938193,L6 4BJ,Liverpool,North West,53.424388,-2.938193,200,OK
51.467482,-3.185459,CF11 7LE,Cardiff,,51.467114,-3.185378,200,OK
54.554593,-6.040323,BT17 0XE,Belfast,,54.554593,-6.040323,200,OK
56.123177,-4.180517,FK8 3HL,Stirling,,56.123177,-4.180517,200,OK
53.435008,-2.256419,M21 7RH,Manchester,North West,53.435008,-2.256419,200,OK
51.506685,0.25,RM15 4LU,Thurrock,East of England,51.506685,0.25,200,OK
53.121817,-1.19007,NG18 4SU,Mansfield,East Midlands,53.121975,-1.189437,200,OK
53.655329,-2.99128,PR9 9JX,Sefton,North West,53.655329,-2.99128,200,OK
51.757258,-1.248158,OX1 3UL,Oxford,South East,51.757258,-1.248158,200,OK
51.420589,0.803231,ME12 3PE,Swale,South East,51.420589,0.803231,200,OK
51.669108,-0.691436,HP15 6XQ,Buckinghamshire,South East,51.669108,-0.691436,200,OK
51.517732,-0.079995,EC2M 4NP,City of London,London,51.517732,-0.079995,200,OK
51.387674,0.562863,ME7 2QF,Medway,South East,51.387674,0.562863,200,OK
50.509317,-4.730549,PL30 4QP,Cornwall,South West,50.509317,-4.730549,200,OK
53.456428,-2.525381,WA3 4DD,Warrington,North West,53.456428,-2.525381,200,OK
51.51199,-0.090152,EC4N 8AW,City of London,London,51.51199,-0.090152,200,OK
57.847247,-5.105251,IV23 2SE,Highland,,57.847247,-5.105251,200,OK
52.412758,0.754692,IP24 2DP,Breckland,East of England,52.412758,0.754692,200,OK
52.677385,0.130489,PE13 5FH,Fenland,East of England,52.677385,0.130489,200,OK
52.557287,-1.811452,B76 1ED,Birmingham,West Midlands,52.557303,-1.811445,200,OK
53.315164,-2.087588,SK10 5SB,Cheshire East,North West,53.315164,-2.087588,200,OK
54.005666,-1.388145,,,,,,200,OK
55.135821,-1.697292,NE61 6AH,Northumberland,North East,55.13563,-1.697683,200,OK
55.479846,-4.620941,KA8 8NH,South Ayrshire,,55.479846,-4.620941,200,OK
52.65736,-0.337493,PE6 9ES,Peterborough,East of England,52.65736,-0.337493,200,OK
54.509218,-6.191885,BT28 2WL,Lisburn and Castlereagh,,54.509168,-6.19215,200,OK
54.073597,-1.113125,YO61 1EA,North Yorkshire,Yorkshire and The Humber,54.073499,-1.113158,200,OK
51.054683,-0.130118,RH17 6LR,Mid Sussex,South East,51.054683,-0.130118,200,OK
51.664416,-0.403007,WD17 4DR,Watford,East of England,51.664416,-0.403007,200,OK
51.40768,-0.598467,GU25 4NU,Runnymede,South East,51.40768,-0.598467,200,OK
50.722858,-1.851242,BH1 3BN,"Bournemouth, Christchurch and Poole",South West,50.722858,-1.851242,200,OK
55.957232,-3.248504,EH4 2BN,City of Edinburgh,,55.957121,-3.248293,200,OK
53.383473,-2.273939,M22 9RZ,Manchester,North West,53.383473,-2.273954,200,OK
53.764145,-2.726591,PR2 1AS,Preston,North West,53.764165,-2.726212,200,OK
54.122431,-3.208472,LA13 9EA,Westmorland and Furness,North West,54.122431,-3.208472,200,OK
51.273866,0.506066,ME16 8AU,Maidstone,South East,51.273866,0.506066,200,OK
55.779262,-4.257899,G76 8JD,East Renfrewshire,,55.779217,-4.257912,200,OK
51.519208,0.509611,SS17 9LL,Thurrock,East of England,51.519208,0.509611,200,OK
50.838668,-3.279333,EX14 3NJ,East Devon,South West,50.838668,-3.279333,200,OK
53.584251,-2.170209,OL11 2XP,Rochdale,North West,53.584251,-2.170209,200,OK
53.490688,-1.236328,DN12 4EA,Doncaster,Yorkshire and The Humber,53.490688,-1.236328,200,OK
53.481363,-2.246374,M2 6AN,Manchester,North West,53.481363,-2.246374,200,OK
51.58095,-3.223207,CF83 3FL,Caerphilly,,51.58095,-3.223207,200,OK
53.572663,-2.687498,WN6 8BB,Wigan,North West,53.572663,-2.687498,200,OK
51.492822,-0.376383,UB2 5RS,Hounslow,London,51.492822,-0.376383,200,OK
51.49199,0.059665,SE18 5AP,Greenwich,London,51.49199,0.059665,200,OK
51.66282,-0.400706,WD17 1BU,Watford,East of England,51.662836,-0.400813,200,OK
51.514956,-0.141553,W1B 3AG,Westminster,London,51.514956,-0.141553,200,OK
51.415624,-0.095066,SE19 3DU,Croydon,London,51.415261,-0.094848,200,OK
56.468828,-2.901027,DD5 1LT,Dundee City,,56.468828,-2.901027,200,OK
52.367016,-2.055559,B61 0PW,Bromsgrove,West Midlands,52.367016,-2.055559,200,OK
56.111167,-3.363496,KY4 9BJ,Fife,,56.111167,-3.363496,200,OK
50.73472,-3.516781,EX4 6HS,Exeter,South West,50.73472,-3.516781,200,OK
54.604403,-1.100086,TS10 5LX,Redcar and Cleveland,North East,54.604403,-1.100086,200,OK
51.78686,-1.27196,OX2 8BX,Oxford,South East,51.786799,-1.272309,200,OK
52.971334,-2.933442,LL13 0ES,Wrexham,,52.971334,-2.933442,200,OK
52.449786,-1.505975,CV6 4JX,Coventry,West Midlands,52.449786,-1.505975,200,OK
54.762279,-7.187123,BT79 8EJ,Derry City and Strabane,,54.762279,-7.187123,200,OK
52.703934,-2.729689,SY2 5GY,Shropshire,West Midlands,52.703934,-2.729689,200,OK
51.875491,0.5657,CM7 3AN,Braintree,East of England,51.875491,0.5657,200,OK
54.679863,-5.951536,BT36 6QQ,Antrim and Newtownabbey,,54.679863,-5.951536,200,OK
51.387148,-0.309904,KT6 6NG,Kingston upon Thames,London,51.387168,-0.309989,200,OK
52.648094,-1.370896,CV13 0EN,Hinckley and Bosworth,East Midlands,52.648094,-1.370896,200,OK
52.939687,-1.429113,DE21 2HW,Derby,East Midlands,52.939687,-1.429113,200,OK
51.363782,-0.121305,CR0 4NP,Sutton,London,51.363782,-0.121305,200,OK
54.629845,-1.808202,DL13 5AZ,County Durham,North East,54.629855,-1.808969,200,OK
52.608453,-1.918029,WS9 8QQ,Walsall,West Midlands,52.608453,-1.918029,200,OK
53.710298,-1.894911,HX6 2AY,Calderdale,Yorkshire and The Humber,53.710298,-1.894911,200,OK
54.179977,-7.376281,BT92 8GR,Fermanagh and Omagh,,54.179977,-7.376281,200,OK
51.771145,-1.602413,OX18 1EF,West Oxfordshire,South East,51.771145,-1.602413,200,OK
50.880661,-2.791053,TA18 8EL,Somerset,South West,50.880661,-2.791053,200,OK
52.186273,0.211883,CB21 5HZ,South Cambridgeshire,East of England,52.186239,0.211794,200,OK
51.515475,-0.212543,W11 1TT,Kensington and Chelsea,London,51.515475,-0.212543,200,OK
51.613126,-1.160435,OX10 0RP,South Oxfordshire,South East,51.613126,-1.160435,200,OK
53.450909,-2.919217,L11 3DY,Liverpool,North West,53.450909,-2.919217,200,OK
55.98793,-2.744584,EH39 5BQ,East Lothian,,55.98793,-2.744584,200,OK
56.141868,-3.925252,FK9 4NN,Stirling,,56.141868,-3.925252,200,OK
52.246646,-0.956786,NN5 4BG,West Northamptonshire,East Midlands,52.246646,-0.956786,200,OK
51.326399,-0.132579,CR5 2BL,Croydon,London,51.326685,-0.133087,200,OK
54.376595,-5.542744,BT22 1LQ,Ards and North Down,,54.376595,-5.542744,200,OK
52.968109,-2.199224,ST4 8NG,Stoke-on-Trent,West Midlands,52.96791,-2.199148,200,OK
50.962389,-1.558531,,,,,,200,OK
51.591444,-0.781511,SL7 3PN,Buckinghamshire,South East,51.591444,-0.781511,200,OK
51.373884,-0.806906,RG45 6HS,Wokingham,South East,51.373823,-0.807049,200,OK
57.458085,-3.131158,AB55 4BB,Moray,,57.458085,-3.131158,200,OK
51.59564,-0.336625,HA3 5RZ,Harrow,London,51.59564,-0.336625,200,OK
55.885648,-4.331346,G13 1SJ,Glasgow City,,55.885648,-4.331346,200,OK
55.795939,-4.302448,G46 7JB,East Renfrewshire,,55.795939,-4.302448,200,OK
51.501685,-0.196398,W8 7DA,Kensington and Chelsea,London,51.501685,-0.196398,200,OK
51.647319,-0.226717,EN5 3DB,Barnet,London,51.647658,-0.226516,200,OK
52.461475,-2.74251,SY7 9DF,Shropshire,West Midlands,52.462047,-2.742459,200,OK
51.879373,-0.43565,LU1 1BZ,Luton,East of England,51.879373,-0.43565,200,OK
51.92778,-1.307717,OX25 4RS,Cherwell,South East,51.927411,-1.30765,200,OK
54.66841,-5.654999,BT20 9EN,Ards and North Down,,54.66841,-5.654999,200,OK
52.256593,-0.93695,NN5 7RW,West Northamptonshire,East Midlands,52.256593,-0.93695,200,OK
54.635448,-5.933402,BT15 4DH,Belfast,,54.635448,-5.933402,200,OK
51.418296,-2.214982,SN13 9GB,Wiltshire,South West,51.418818,-2.214754,200,OK
50.657504,-1.148172,PO36 8AU,Isle of Wight,South East,50.657504,-1.148172,200,OK
50.617591,-3.420956,EX8 1DR,East Devon,South West,50.617591,-3.420956,200,OK
51.398029,-0.379942,KT8 2QZ,Elmbridge,South East,51.397467,-0.379596,200,OK
51.110909,0.456832,TN17 1BB,Tunbridge Wells,South East,51.110909,0.456832,200,OK
53.342424,-1.48835,S8 0HL,Sheffield,Yorkshire and The Humber,53.342459,-1.488334,200,OK
54.760281,-1.5483,DH1 2NP,County Durham,North East,54.760272,-1.54844,200,OK
51.128997,-3.016075,TA6 7DZ,Somerset,South West,51.128997,-3.016075,200,OK
53.221161,-0.538607,LN5 7UZ,Lincoln,East Midlands,53.221161,-0.538607,200,OK
53.230962,-4.16995,LL59 5NE,Isle of Anglesey,,53.23097,-4.169956,200,OK
51.483068,-2.609541,BS9 4HT,"Bristol, City of",South West,51.483068,-2.609541,200,OK
51.404256,0.014671,BR1 1EZ,Bromley,London,51.404336,0.014761,200,OK
53.715886,-1.639082,WF17 8FN,Kirklees,Yorkshire and The Humber,53.715886,-1.639082,200,OK
52.062259,-0.761346,MK14 6DH,Milton Keynes,South East,52.062476,-0.761428,200,OK
52.291283,-0.588828,NN10 0JR,North Northamptonshire,East Midlands,52.291283,-0.588828,200,OK
52.337479,-2.032428,B60 1LH,Bromsgrove,West Midlands,52.337479,-2.032428,200,OK
53.36157,-2.997415,CH62 1AA,Wirral,North West,53.361568,-2.997566,200,OK
52.499615,-1.909053,B19 1TL,Birmingham,West Midlands,52.499615,-1.909053,200,OK
53.536511,-2.682778,WN5 8DS,Wigan,North West,53.536511,-2.682778,200,OK
51.324608,-2.51071,BS39 6JQ,Bath and North East Somerset,South West,51.324608,-2.51071,200,OK
52.405756,-1.947626,B31 3BU,Birmingham,West Midlands,52.405756,-1.947626,200,OK
