lat,lon,postcode,admin_district,region,latitude,longitude,estado_api,descripcion_estado
52.904499,-1.182065,NG11 9LN,Nottingham,East Midlands,52.904499,-1.182065,200,OK
51.768577,-0.309816,AL4 9PF,St Albans,East of England,51.768577,-0.309816,200,OK
53.383632,-3.067632,CH43 9TL,Wirral,North West,53.383632,-3.067632,200,OK
50.970293,-1.361496,SO50 9PE,Eastleigh,South East,50.970293,-1.361496,200,OK
51.456873,-0.972309,RG1 1LH,Reading,South East,51.457063,-0.97227,200,OK
50.237491,-5.220647,TR15 1PT,Cornwall,South West,50.237491,-5.220647,200,OK
51.282862,-0.385761,KT23 3DF,Mole Valley,South East,51.282862,-0.385761,200,OK
51.012097,-1.554984,SO51 0GG,Test Valley,South East,51.012061,-1.555084,200,OK
54.871875,-1.430609,SR3 3EY,Sunderland,North East,54.871875,-1.430609,200,OK
55.027948,-6.504226,BT53 7JJ,Causeway Coast and Glens,,55.027948,-6.504226,200,OK
52.462681,-1.528689,CV7 8NG,Nuneaton and Bedworth,West Midlands,52.462681,-1.528689,200,OK
53.740161,-0.36272,HU3 2TX,"Kingston upon Hull, City of",Yorkshire and The Humber,53.740161,-0.36272,200,OK
51.915905,-0.462846,LU3 3DW,Luton,East of England,51.915905,-0.462846,200,OK
51.767795,-2.997287,NP7 9EY,Monmouthshire,,51.767795,-2.997287,200,OK
51.087329,1.142879,CT19 4DJ,Folkestone and Hythe,South East,51.087263,1.143106,200,OK
50.985579,-3.135399,,,,,,200,OK
54.940976,-1.562033,NE10 9AT,Gateshead,North East,54.940976,-1.562033,200,OK
52.440226,-1.839299,B27 7ST,Birmingham,West Midlands,52.440226,-1.839299,200,OK
51.507677,-0.133967,SW1Y 4AE,Westminster,London,51.507601,-0.133682,200,OK
51.319468,-0.307212,KT21 1QB,Mole Valley,South East,51.319468,-0.307212,200,OK
51.5108,-0.73853,SL6 4BJ,Windsor and Maidenhead,South East,51.5108,-0.73853,200,OK
51.206961,-4.035842,EX34 0DE,North Devon,South West,51.206961,-4.035842,200,OK
51.321283,-0.118579,CR8 4AL,Croydon,London,51.321154,-0.117823,200,OK
51.24166,-0.17822,RH1 1AZ,Reigate and Banstead,South East,51.24166,-0.17822,200,OK
53.565837,-2.371688,BL3 1RE,Bolton,North West,53.565837,-2.371688,200,OK
51.392077,-0.307494,KT6 4JT,Kingston upon Thames,London,51.392065,-0.307328,200,OK
51.78218,-2.650573,GL16 8NN,Forest of Dean,South West,51.78218,-2.650573,200,OK
58.013415,-3.856657,KW9 6LA,Highland,,58.013676,-3.856167,200,OK
51.624377,-0.511304,WD3 9GA,Three Rivers,East of England,51.624377,-0.511319,200,OK
53.745697,-1.291743,WF11 9JP,North Yorkshire,Yorkshire and The Humber,53.745697,-1.291743,200,OK
50.953815,-1.296601,SO50 7FG,Eastleigh,South East,50.953815,-1.296601,200,OK
53.343372,-2.702863,WA7 1PU,Halton,North West,53.34363,-2.702928,200,OK
50.971089,-1.338366,SO50 6QQ,Eastleigh,South East,50.971054,-1.338384,200,OK
51.904934,-1.334203,OX25 5QJ,West Oxfordshire,South East,51.904934,-1.334203,200,OK
51.662458,-3.043661,NP44 5TH,Torfaen,,51.662458,-3.043661,200,OK
55.166131,-6.599487,BT52 2NB,Causeway Coast and Glens,,55.166131,-6.599487,200,OK
50.342812,-3.759787,TQ7 4DJ,South Hams,South West,50.342812,-3.759787,200,OK
51.584932,-0.365509,HA2 7QJ,Harrow,London,51.584932,-0.365509,200,OK
53.418116,-2.974965,L5 3SL,Liverpool,North West,53.417696,-2.974684,200,OK
51.587002,-0.554892,SL9 7QA,Buckinghamshire,South East,51.587002,-0.554892,200,OK
51.285182,-0.839634,GU51 4NP,Hart,South East,51.285182,-0.839634,200,OK
53.769183,-2.689219,PR1 6SJ,Preston,North West,53.769183,-2.689219,200,OK
55.59398,-4.500341,KA1 4HY,East Ayrshire,,55.593467,-4.500372,200,OK
53.967454,-1.045354,YO31 0NE,York,Yorkshire and The Humber,53.967454,-1.045354,200,OK
51.457255,-0.979008,RG1 7PZ,Reading,South East,51.457065,-0.978675,200,OK
53.987833,-1.148789,YO26 6HS,York,Yorkshire and The Humber,53.987833,-1.148789,200,OK
52.53993,-2.071849,DY4 9ET,Sandwell,West Midlands,52.539741,-2.072114,200,OK
51.583601,-2.097194,SN16 9BQ,Wiltshire,South West,51.583627,-2.097208,200,OK
52.497605,1.727024,NR32 4WX,East Suffolk,East of England,52.497605,1.727024,200,OK
53.698784,-1.876249,HX3 0UE,Calderdale,Yorkshire and The Humber,53.698784,-1.876249,200,OK
51.23288,-2.995705,TA8 1DE,Somerset,South West,51.23288,-2.995705,200,OK
51.507413,-3.231049,CF14 2GA,Cardiff,,51.507352,-3.231028,200,OK
51.817127,1.032384,CO7 0SH,Tendring,East of England,51.817127,1.032384,200,OK
51.86571,-2.251196,GL1 2TZ,Gloucester,South West,51.866195,-2.251591,200,OK
54.097278,-0.207571,YO16 7AP,East Riding of Yorkshire,Yorkshire and The Humber,54.097258,-0.20745,200,OK
53.541085,-1.149394,DN5 9QD,Doncaster,Yorkshire and The Humber,53.541085,-1.149394,200,OK
51.417892,-0.168504,SW19 2HW,Merton,London,51.417855,-0.16848,200,OK
51.72927,-3.133321,NP13 1AJ,Blaenau Gwent,,51.72927,-3.133321,200,OK
55.855451,-4.251178,G1 4HW,Glasgow City,,55.855451,-4.251178,200,OK
51.881546,-1.149833,OX25 2BL,Cherwell,South East,51.881521,-1.150095,200,OK
50.730265,-1.600869,SO41 0RX,New Forest,South East,50.730265,-1.600869,200,OK
53.171626,-2.907864,CH4 7QE,Cheshire West and Chester,North West,53.171626,-2.907864,200,OK
53.658075,-1.844244,HD3 3TA,Kirklees,Yorkshire and The Humber,53.658075,-1.844244,200,OK
52.658877,1.071597,NR20 3LR,Breckland,East of England,52.658877,1.071597,200,OK
52.733207,-1.56258,DE12 6JY,South Derbyshire,East Midlands,52.733207,-1.56258,200,OK
55.826452,-4.196334,G73 3BD,South Lanarkshire,,55.826452,-4.196334,200,OK
57.549818,-2.661337,,,,,,200,OK
57.126523,-2.930902,,,,,,200,OK
52.112734,-0.504585,MK42 7ES,Bedford,East of England,52.112584,-0.504555,200,OK
53.781496,-1.816442,BD14 6ER,Bradford,Yorkshire and The Humber,53.781496,-1.816442,200,OK
53.756201,-2.702186,PR1 3JJ,Preston,North West,53.755722,-2.702558,200,OK
54.402182,-6.400679,BT63 5LG,"Armagh City, Banbridge and Craigavon",,54.402182,-6.400679,200,OK
51.660939,-0.393312,WD17 2QH,Watford,East of England,51.660939,-0.393312,200,OK
50.715164,-1.984424,BH15 1AJ,"Bournemouth, Christchurch and Poole",South West,50.715164,-1.984424,200,OK
51.406431,-1.327217,RG14 1AQ,West Berkshire,South East,51.406591,-1.326985,200,OK
52.187355,-1.60496,CV35 9NT,Stratford-on-Avon,West Midlands,52.187355,-1.60496,200,OK
51.132277,0.861363,TN23 5AB,Ashford,South East,51.132277,0.861363,200,OK
51.664898,-0.022665,EN3 7NN,Enfield,London,51.664898,-0.022665,200,OK
53.450501,-2.343576,M41 0PJ,Trafford,North West,53.450501,-2.343576,200,OK
53.629142,-2.341428,BL8 4HH,Bury,North West,53.628853,-2.341453,200,OK
57.137115,-2.16226,AB15 8HS,Aberdeen City,,57.137115,-2.16226,200,OK
53.292315,-0.743057,LN1 5AE,West Lindsey,East Midlands,53.292304,-0.744258,200,OK
52.020063,-0.631139,MK17 8HZ,Central Bedfordshire,East of England,52.019972,-0.631054,200,OK
52.238765,-0.85992,NN1 5SA,West Northamptonshire,East Midlands,52.238765,-0.85992,200,OK
51.395775,-0.09326,CR7 8RR,Croydon,London,51.395775,-0.09326,200,OK
50.876531,0.55012,TN38 9DS,Hastings,South East,50.876531,0.55012,200,OK
50.830541,-0.376946,BN14 9DF,Worthing,South East,50.830339,-0.37728,200,OK
52.02416,0.873372,CO10 5JA,Babergh,East of England,52.023952,0.873608,200,OK
52.627367,-2.017582,WS3 3UE,Walsall,West Midlands,52.627367,-2.017582,200,OK
52.565043,-0.235566,PE2 8NE,Peterborough,East of England,52.565043,-0.235566,200,OK
52.61375,1.280298,NR4 6QY,Norwich,East of England,52.613681,1.2805,200,OK
51.471819,-1.038203,RG31 6RT,West Berkshire,South East,51.471754,-1.038904,200,OK
54.862419,-1.680787,DH9 6XH,County Durham,North East,54.862419,-1.680787,200,OK
53.953243,-1.070487,YO10 5BB,York,Yorkshire and The Humber,53.953252,-1.070435,200,OK
53.635502,-1.755704,HD5 8LX,Kirklees,Yorkshire and The Humber,53.635502,-1.755704,200,OK
52.521258,-1.902922,B42 1SH,Birmingham,West Midlands,52.521258,-1.902922,200,OK
51.744899,0.090184,CM18 7RR,Harlow,East of England,51.745403,0.090164,200,OK
54.983735,-1.409229,NE34 6JD,South Tyneside,North East,54.983735,-1.409229,200,OK
52.594755,-0.257833,PE1 3HD,Peterborough,East of England,52.594774,-0.257819,200,OK
53.49405,-2.080768,OL6 9PX,Tameside,North West,53.49405,-2.080768,200,OK
53.710906,-1.239405,WF11 9BL,Wakefield,Yorkshire and The Humber,53.710692,-1.239652,200,OK
51.75319,-0.434837,HP2 4UY,Dacorum,East of England,51.753208,-0.434807,200,OK
55.544785,-1.785791,NE70 7HZ,Northumberland,North East,55.544785,-1.785791,200,OK
52.070906,-1.358319,OX16 1BT,Cherwell,South East,52.07069,-1.358337,200,OK
54.883149,-2.90166,CA1 3QF,Cumberland,North West,54.883149,-2.90166,200,OK
51.92579,-4.625549,SA34 0YA,Carmarthenshire,,51.92579,-4.625549,200,OK
54.376647,-7.59191,BT74 4AU,Fermanagh and Omagh,,54.376647,-7.59191,200,OK
54.567266,-1.235805,TS1 3NN,Middlesbrough,North East,54.567266,-1.235805,200,OK
51.524064,-0.115004,WC1X 8HB,Camden,London,51.52373,-0.11479,200,OK
54.940525,-2.73729,CA8 1PQ,Cumberland,North West,54.940525,-2.73729,200,OK
53.843287,-1.959156,BD22 7SF,Bradford,Yorkshire and The Humber,53.843287,-1.959156,200,OK
55.040702,-1.953026,NE20 0TF,Northumberland,North East,55.040621,-1.952697,200,OK
53.209166,-0.607417,LN6 0NU,Lincoln,East Midlands,53.209166,-0.607417,200,OK
52.751149,0.368973,PE34 3FR,King's Lynn and West Norfolk,East of England,52.751149,0.368973,200,OK
51.066042,1.082292,CT21 6DW,Folkestone and Hythe,South East,51.066042,1.082292,200,OK
55.995966,-3.808166,FK1 5HQ,Falkirk,,55.995966,-3.808166,200,OK
53.481748,-2.287803,M5 4FD,Salford,North West,53.481819,-2.287803,200,OK
53.591095,-0.680391,DN15 8AB,North Lincolnshire,Yorkshire and The Humber,53.591095,-0.680391,200,OK
51.54055,-0.383279,UB5 5AR,Ealing,London,51.54055,-0.383279,200,OK
51.652501,0.140114,RM4 1AD,Epping Forest,East of England,51.652501,0.140114,200,OK
55.291259,-4.672743,KA19 7SJ,South Ayrshire,,55.291259,-4.672743,200,OK
52.398462,-1.575698,CV4 9YF,Coventry,West Midlands,52.398462,-1.575698,200,OK
51.866759,-2.36849,GL2 8AN,Forest of Dean,South West,51.866759,-2.36849,200,OK
51.541291,0.008734,E15 4EZ,Newham,London,51.541216,0.008385,200,OK
52.453315,-1.984432,B32 2RA,Birmingham,West Midlands,52.453315,-1.984432,200,OK
55.059882,-3.619924,DG2 7LH,Dumfries and Galloway,,55.059882,-3.619924,200,OK
51.949162,-4.025249,,,,,,200,OK
52.123766,-0.45363,MK42 0HW,Bedford,East of England,52.123778,-0.453593,200,OK
54.108424,-6.26314,BT34 3WL,"Newry, Mourne and Down",,54.108263,-6.263147,200,OK
51.56177,-1.763904,SN3 3BA,Swindon,South West,51.56177,-1.763904,200,OK
51.540723,-0.07212,E8 4BJ,Hackney,London,51.540723,-0.07212,200,OK
53.564045,-2.128294,OL2 5LL,Oldham,North West,53.563892,-2.128595,200,OK
51.728991,-2.287227,GL10 3NR,Stroud,South West,51.728991,-2.287227,200,OK
51.378521,-0.098989,CR9 2BY,Croydon,London,51.378385,-0.098363,200,OK
51.21197,-4.090443,EX34 9RT,North Devon,South West,51.21197,-4.090443,200,OK
51.194439,-3.461031,TA24 6LJ,Somerset,South West,51.194439,-3.461031,200,OK
53.648406,-1.782119,HD1 1DU,Kirklees,Yorkshire and The Humber,53.648262,-1.782089,200,OK
51.608481,0.533093,SS11 8QG,Basildon,East of England,51.608887,0.533244,200,OK
51.516609,-0.01096,E14 6PZ,Tower Hamlets,London,51.516609,-0.01096,200,OK
51.975641,-3.981567,SA19 7YL,Carmarthenshire,,51.975641,-3.981567,200,OK
51.683042,-0.394034,WD25 9JJ,Watford,East of England,51.683042,-0.394034,200,OK
52.952491,-0.34135,NG34 0BW,North Kesteven,East Midlands,52.952491,-0.34135,200,OK
53.840539,-1.536494,LS17 6JR,Leeds,Yorkshire and The Humber,53.840539,-1.536494,200,OK
51.278126,-1.06394,RG24 8FL,Basingstoke and Deane,South East,51.278126,-1.06394,200,OK
52.4215,-2.276314,DY11 5TB,Wyre Forest,West Midlands,52.4215,-2.276314,200,OK
55.86523,-4.269724,G2 4AA,Glasgow City,,55.865213,-4.269901,200,OK
51.560587,-1.789501,SN1 5AH,Swindon,South West,51.560524,-1.78936,200,OK
54.541095,-3.588216,CA28 9BX,Cumberland,North West,54.541095,-3.588216,200,OK
54.293559,-0.417878,YO12 6LE,North Yorkshire,Yorkshire and The Humber,54.293559,-0.417878,200,OK
53.633087,-2.162786,OL12 0SN,Rochdale,North West,53.633087,-2.162786,200,OK
53.534474,-1.364539,S73 9HS,Barnsley,Yorkshire and The Humber,53.534474,-1.364539,200,OK
52.813703,1.421643,NR28 9NG,North Norfolk,East of England,52.813703,1.421643,200,OK
53.418882,-2.205736,SK4 3PU,Stockport,North West,53.418853,-2.205749,200,OK
52.8548,-3.055853,SY11 2BP,Shropshire,West Midlands,52.8548,-3.055853,200,OK
51.369808,0.507394,ME1 2PJ,Medway,South East,51.369808,0.507394,200,OK
52.59627,-0.28466,PE3 8ET,Peterborough,East of England,52.596584,-0.285253,200,OK
56.12038,-3.936886,FK8 1JX,Stirling,,56.120186,-3.936774,200,OK
53.341238,-1.774029,S33 8WU,High Peak,East Midlands,53.341238,-1.774029,200,OK
53.841743,-1.950209,BD22 7QY,Bradford,Yorkshire and The Humber,53.841743,-1.950209,200,OK
54.32633,-1.541615,DL7 0QT,North Yorkshire,Yorkshire and The Humber,54.32633,-1.541615,200,OK
53.713096,-1.506835,WF1 2LA,Wakefield,Yorkshire and The Humber,53.713096,-1.506835,200,OK
53.388138,-2.285667,M23 2RP,Manchester,North West,53.388138,-2.285667,200,OK
50.777178,0.09759,BN25 2EJ,Lewes,South East,50.777178,0.09759,200,OK
50.877891,-1.883767,BH31 6JN,Dorset,South West,50.877891,-1.883767,200,OK
53.433101,-1.109779,DN11 9HT,Doncaster,Yorkshire and The Humber,53.433121,-1.109779,200,OK
56.385522,-3.432971,PH2 8AR,Perth and Kinross,,56.385504,-3.432985,200,OK
53.478019,-2.585089,WA3 3HH,Wigan,North West,53.478019,-2.585089,200,OK
52.596761,-1.134292,LE2 6QP,Leicester,East Midlands,52.596761,-1.134292,200,OK
52.477749,-1.982421,B67 5QD,Sandwell,West Midlands,52.477749,-1.982421,200,OK
55.654325,-2.247156,TD12 4EW,Scottish Borders,,55.654325,-2.247156,200,OK
51.517596,-0.578709,SL2 5JT,Slough,South East,51.51756,-0.57871,200,OK
51.835708,-1.566201,OX29 9QE,West Oxfordshire,South East,51.835726,-1.566186,200,OK
53.366723,-2.575251,WA4 3BB,Warrington,North West,53.366723,-2.575251,200,OK
51.890708,0.900778,CO1 1TS,Colchester,East of England,51.890708,0.900778,200,OK
54.443306,-6.205151,BT25 1RR,Lisburn and Castlereagh,,54.443306,-6.205151,200,OK
51.379887,-1.548983,RG17 0RH,Wiltshire,South West,51.379887,-1.548983,200,OK
53.643799,-1.837763,HD3 4SB,Kirklees,Yorkshire and The Humber,53.643799,-1.837763,200,OK
53.453468,-2.995833,L20 4TD,Sefton,North West,53.453468,-2.995833,200,OK
50.852236,-0.776961,PO19 6BS,Chichester,South East,50.852227,-0.776976,200,OK
51.494991,-0.192658,SW5 0SS,Kensington and Chelsea,London,51.494991,-0.192658,200,OK
53.826943,-1.568548,LS6 4HP,Leeds,Yorkshire and The Humber,53.826943,-1.568548,200,OK
53.811806,-1.630791,LS13 3LU,Leeds,Yorkshire and The Humber,53.811806,-1.630791,200,OK
55.47087,-2.554586,TD8 6NR,Scottish Borders,,55.47087,-2.554586,200,OK
56.065078,-4.451821,G63 0AY,Stirling,,56.065078,-4.451821,200,OK
52.144944,-1.879833,WR11 8LA,Wychavon,West Midlands,52.144944,-1.879833,200,OK
52.515031,1.650831,NR32 5QX,East Suffolk,East of England,52.515031,1.650831,200,OK
53.212433,-0.594761,LN6 3LR,Lincoln,East Midlands,53.212433,-0.594761,200,OK
50.24344,-4.794095,PL26 6NP,Cornwall,South West,50.24344,-4.794095,200,OK
53.381262,-0.005655,LN11 0YQ,East Lindsey,East Midlands,53.381262,-0.005655,200,OK
52.429403,-1.765037,B92 9NX,Solihull,West Midlands,52.429403,-1.765037,200,OK
51.815838,-0.364915,AL5 2RA,St Albans,East of England,51.815838,-0.364915,200,OK
53.756248,-2.426087,BB1 4AS,Hyndburn,North West,53.756275,-2.426088,200,OK
52.592419,-2.055396,WV13 1BN,Walsall,West Midlands,52.592419,-2.055396,200,OK
51.618146,0.023654,IG8 0TW,Redbridge,London,51.618146,0.023654,200,OK
50.731573,-1.852078,BH1 4DD,"Bournemouth, Christchurch and Poole",South West,50.731573,-1.852078,200,OK
51.450362,-0.127903,SW2 4JD,Lambeth,London,51.450362,-0.127903,200,OK
53.459101,-2.514148,WA3 4AN,Warrington,North West,53.459101,-2.514148,200,OK
51.594377,-0.4865,UB9 6AF,Hillingdon,London,51.594377,-0.4865,200,OK
51.50687,-0.139764,SW1A 1LE,Westminster,London,51.506757,-0.139873,200,OK
51.869519,-4.189777,SA32 7LG,Carmarthenshire,,51.869519,-4.189777,200,OK
50.862279,-0.96564,PO9 2US,Havant,South East,50.862279,-0.96564,200,OK
52.90455,-1.182853,NG11 9BF,Nottingham,East Midlands,52.904713,-1.183072,200,OK
54.876368,-1.560489,NE38 9HF,Sunderland,North East,54.876603,-1.560954,200,OK
53.733129,-0.139171,HU12 9DY,East Riding of Yorkshire,Yorkshire and The Humber,53.733129,-0.139171,200,OK
51.611542,-0.111599,N13 4XA,Enfield,London,51.611542,-0.111599,200,OK
51.125878,-0.078326,RH10 4UE,Mid Sussex,South East,51.125878,-0.078326,200,OK
51.902747,0.19512,CM24 8AA,Uttlesford,East of England,51.902809,0.195152,200,OK
53.243515,-0.044152,LN9 6LA,East Lindsey,East Midlands,53.243515,-0.044152,200,OK
51.547425,-3.2684,CF15 7PY,Rhondda Cynon Taf,,51.547425,-3.2684,200,OK
51.515479,-0.15018,W1U 1NB,Westminster,London,51.515479,-0.15018,200,OK
51.443667,-2.052627,SN11 9NL,Wiltshire,South West,51.443692,-2.052621,200,OK
50.812067,-1.138736,PO12 4JT,Gosport,South East,50.812067,-1.138736,200,OK
54.991428,-1.533711,NE28 8QS,North Tyneside,North East,54.991428,-1.533711,200,OK
53.472546,-2.878404,L32 6RB,Knowsley,North West,53.472546,-2.878404,200,OK
53.404235,-2.837541,L36 5TG,Knowsley,North West,53.404235,-2.837541,200,OK
54.353624,-1.378045,DL6 3RB,North Yorkshire,Yorkshire and The Humber,54.352976,-1.378009,200,OK
51.576665,-0.412506,HA4 8QG,Hillingdon,London,51.57677,-0.413571,200,OK
52.355417,-2.219212,DY10 4ER,Wychavon,West Midlands,52.355417,-2.219212,200,OK
51.259012,-0.971209,RG29 1BT,Hart,South East,51.259012,-0.971194,200,OK
55.3863,-4.2113,KA18 4QG,East Ayrshire,,55.3863,-4.2113,200,OK
53.255758,-1.402099,S43 1AH,Chesterfield,East Midlands,53.255758,-1.402099,200,OK
51.419816,-1.744143,SN8 1UG,Wiltshire,South West,51.419816,-1.744143,200,OK
51.796136,-0.169591,AL7 2HW,Welwyn Hatfield,East of England,51.796151,-0.169551,200,OK
51.222389,0.824425,TN27 0NS,Ashford,South East,51.222389,0.824425,200,OK
56.486611,-2.925141,DD4 0AU,Dundee City,,56.486204,-2.925505,200,OK
51.250366,0.521096,ME15 9SP,Maidstone,South East,51.250366,0.521096,200,OK
52.291406,-0.598355,NN10 0NP,North Northamptonshire,East Midlands,52.290926,-0.598092,200,OK
51.491912,-3.724154,CF36 3UP,Bridgend,,51.491853,-3.723892,200,OK
50.790366,-3.669826,EX17 3LS,Mid Devon,South West,50.790366,-3.669826,200,OK
51.633938,-0.160973,EN4 8EE,Barnet,London,51.633938,-0.160973,200,OK
52.854595,-2.317671,,,,,,200,OK
55.989969,-3.728239,FK2 9UQ,Falkirk,,55.989969,-3.728239,200,OK
50.098071,-5.264999,TR13 8DB,Cornwall,South West,50.098071,-5.264999,200,OK
56.127181,-3.204247,KY2 6TS,Fife,,56.127181,-3.204247,200,OK
51.539471,-2.414055,BS37 0AW,South Gloucestershire,South West,51.539471,-2.414055,200,OK
53.542507,-2.273668,M45 6WG,Bury,North West,53.542507,-2.273668,200,OK
51.760743,-3.371061,CF47 9AR,Merthyr Tydfil,,51.760742,-3.371076,200,OK
50.516566,-4.839178,PL27 7AP,Cornwall,South West,50.516566,-4.839178,200,OK
54.975568,-1.616866,NE1 7RA,Newcastle upon Tyne,North East,54.975568,-1.616866,200,OK
52.628061,1.112076,NR9 4AU,South Norfolk,East of England,52.628061,1.112076,200,OK
51.511694,0.431571,SS17 0ED,Thurrock,East of England,51.511694,0.431571,200,OK
51.433469,0.352783,DA11 7AU,Gravesham,South East,51.433469,0.352783,200,OK
55.813368,-4.175023,G72 8DG,South Lanarkshire,,55.813368,-4.175023,200,OK
53.808088,-1.506101,LS9 6NB,Leeds,Yorkshire and The Humber,53.808088,-1.506101,200,OK
51.65336,-0.053423,EN1 1TZ,Enfield,London,51.653761,-0.054651,200,OK
53.874765,-1.715544,LS20 8BP,Leeds,Yorkshire and The Humber,53.874942,-1.715592,200,OK
53.187792,-2.885921,CH1 1SZ,Cheshire West and Chester,North West,53.18793,-2.88639,200,OK
53.387386,-1.410574,S9 5JA,Sheffield,Yorkshire and The Humber,53.387168,-1.410065,200,OK
50.834324,-0.169302,BN3 3TJ,Brighton and Hove,South East,50.83427,-0.169319,200,OK
53.322504,-1.323808,S21 1JX,North East Derbyshire,East Midlands,53.322504,-1.323808,200,OK
50.897712,-1.389886,SO14 3HR,Southampton,South East,50.897712,-1.389815,200,OK
54.615381,-1.27741,TS23 3EQ,Stockton-on-Tees,North East,54.615381,-1.27741,200,OK
54.585566,-1.348373,TS19 8EU,Stockton-on-Tees,North East,54.585566,-1.348373,200,OK
52.414329,0.72573,IP24 3GD,Breckland,East of England,52.414329,0.72573,200,OK
52.283578,-1.583744,CV34 4XW,Warwick,West Midlands,52.283561,-1.583979,200,OK
50.797378,-3.18959,EX14 1EA,East Devon,South West,50.797378,-3.18959,200,OK
53.467774,-2.181524,M18 8DA,Manchester,North West,53.4677,-2.181568,200,OK
50.875893,-1.028318,PO7 7LE,Havant,South East,50.875893,-1.028318,200,OK
55.002363,-1.633043,NE3 4XB,Newcastle upon Tyne,North East,55.002363,-1.633043,200,OK
51.483525,-0.003052,SE10 9TE,Greenwich,London,51.483566,-0.002806,200,OK
53.172019,-2.979653,CH4 0DR,Flintshire,,53.172019,-2.979653,200,OK
52.445485,-1.515969,CV6 4GF,Coventry,West Midlands,52.445485,-1.515969,200,OK
51.862036,0.147997,CM23 4EX,East Hertfordshire,East of England,51.862036,0.147997,200,OK
52.415301,-1.539765,CV5 8LE,Coventry,West Midlands,52.415524,-1.539233,200,OK
51.944952,-0.877131,MK18 3JF,Buckinghamshire,South East,51.944952,-0.877131,200,OK
53.636934,-3.017513,PR8 2TY,Sefton,North West,53.636934,-3.017513,200,OK
50.104898,-5.55101,TR18 5BP,Cornwall,South West,50.104898,-5.55101,200,OK
52.92719,-1.22679,NG9 4DF,Broxtowe,East Midlands,52.92719,-1.22679,200,OK
53.260853,-2.528976,CW8 4BJ,Cheshire West and Chester,North West,53.260853,-2.528976,200,OK
53.924522,-0.907649,,,,,,200,OK
57.364863,-2.068475,AB41 9ZB,Aberdeenshire,,57.364593,-2.069655,200,OK
53.755214,-0.435359,HU10 6AT,East Riding of Yorkshire,Yorkshire and The Humber,53.755214,-0.435359,200,OK
55.893434,-4.205428,G21 3RB,Glasgow City,,55.893434,-4.205428,200,OK
51.818139,-0.79093,HP20 1LN,Buckinghamshire,South East,51.818139,-0.79093,200,OK
50.640903,-3.475402,EX6 8NF,Teignbridge,South West,50.640903,-3.475402,200,OK
53.19526,-2.88624,CH1 3EE,Cheshire West and Chester,North West,53.19526,-2.88624,200,OK
51.617367,0.26931,,,,,,200,OK
51.43679,-2.846292,BS21 6DP,North Somerset,South West,51.43679,-2.846292,200,OK
54.672002,-2.749023,CA11 7SD,Westmorland and Furness,North West,54.672002,-2.749023,200,OK
51.808233,-1.925169,GL54 4AF,Cotswold,South West,51.808233,-1.925169,200,OK
51.15365,-2.710152,BA6 8HA,Somerset,South West,51.15365,-2.710152,200,OK
52.868265,-1.447832,DE73 5XP,Derby,East Midlands,52.868265,-1.447832,200,OK
53.338045,-3.005877,CH63 9YU,Wirral,North West,53.338045,-3.005877,200,OK
50.860551,0.559694,TN37 6JW,Hastings,South East,50.860551,0.559694,200,OK
55.883657,-3.150381,EH20 9TB,Midlothian,,55.883657,-3.150381,200,OK
51.512577,-2.618437,BS10 7JQ,"Bristol, City of",South West,51.512577,-2.618437,200,OK
50.792885,-1.164741,PO12 2SS,Gosport,South East,50.792885,-1.164741,200,OK
52.462558,-1.482092,CV7 9FT,Nuneaton and Bedworth,West Midlands,52.462558,-1.482092,200,OK
53.725515,-1.860394,HX1 1UX,Calderdale,Yorkshire and The Humber,53.725116,-1.860261,200,OK
51.274351,-1.082471,RG21 5LL,Basingstoke and Deane,South East,51.2748,-1.082372,200,OK
57.150177,-2.090372,AB24 5HZ,Aberdeen City,,57.150177,-2.090372,200,OK
53.720453,-1.333189,WF10 4PX,Wakefield,Yorkshire and The Humber,53.720209,-1.332981,200,OK
50.73125,-1.86809,BH8 8JZ,"Bournemouth, Christchurch and Poole",South West,50.73125,-1.86809,200,OK
51.585444,-0.191986,NW11 6RD,Barnet,London,51.585438,-0.191933,200,OK
52.91682,-0.609213,NG31 9TZ,South Kesteven,East Midlands,52.91682,-0.609213,200,OK
56.126516,-3.135903,KY1 3DP,Fife,,56.126516,-3.135903,200,OK
51.463576,-0.326243,TW7 7HS,Hounslow,London,51.463576,-0.326243,200,OK
51.567619,-0.353721,HA2 8AX,Harrow,London,51.567971,-0.353701,200,OK
53.316228,-3.780262,,,,,,200,OK
53.590278,-2.2082,OL10 1NH,Rochdale,North West,53.590278,-2.2082,200,OK
53.369558,-2.311062,WA15 8SZ,Trafford,North West,53.369406,-2.310805,200,OK
53.57551,-1.754933,HD9 7JW,Kirklees,Yorkshire and The Humber,53.57551,-1.754933,200,OK
53.511626,-2.238757,M8 0WG,Manchester,North West,53.511626,-2.238772,200,OK
51.528536,-0.859907,RG10 8NP,Wokingham,South East,51.528536,-0.859907,200,OK
54.862892,-3.388054,CA7 4HB,Cumberland,North West,54.862874,-3.388069,200,OK
52.955416,-1.129099,NG3 2BU,Nottingham,East Midlands,52.955416,-1.129099,200,OK
57.353723,-2.456344,AB51 5AN,Aberdeenshire,,57.35361,-2.455428,200,OK
53.49754,-2.509186,WN7 2AD,Wigan,North West,53.49754,-2.509186,200,OK
51.398307,-0.376597,KT8 2TB,Elmbridge,South East,51.398307,-0.376597,200,OK
53.774889,-1.579961,LS11 0EY,Leeds,Yorkshire and The Humber,53.774889,-1.579961,200,OK
50.894214,0.308603,BN27 4PN,Wealden,South East,50.894214,0.308603,200,OK
52.22001,-0.082512,CB23 6ET,South Cambridgeshire,East of England,52.22001,-0.082512,200,OK
51.587159,-3.010034,NP20 4NE,Newport,,51.587159,-3.010034,200,OK
51.09858,-1.297861,SO23 7PW,Winchester,South East,51.09858,-1.297861,200,OK
53.73001,-0.989112,YO8 8PD,North Yorkshire,Yorkshire and The Humber,53.73001,-0.989112,200,OK
51.306315,-2.417375,BA2 8LP,Bath and North East Somerset,South West,51.306315,-2.417375,200,OK
52.607291,-2.071989,WV11 3DB,Wolverhampton,West Midlands,52.607291,-2.071989,200,OK
52.927437,-2.787041,SY13 3HZ,Wrexham,,52.927437,-2.787041,200,OK
51.535515,-0.108532,N1 0JA,Islington,London,51.535515,-0.108532,200,OK
51.550071,-0.120636,N7 9JQ,Islington,London,51.550071,-0.120636,200,OK
53.488382,-2.151048,M43 7RE,Tameside,North West,53.488382,-2.151048,200,OK
53.742376,-2.981168,FY8 4RA,Fylde,North West,53.742376,-2.981168,200,OK
51.875873,0.357941,CM6 1UE,Uttlesford,East of England,51.875873,0.357941,200,OK
55.482504,-2.547171,TD8 6HW,Scottish Borders,,55.482504,-2.547171,200,OK
53.081714,-2.44731,CW2 6ND,Cheshire East,North West,53.081597,-2.447354,200,OK
50.152374,-5.067475,TR11 3LQ,Cornwall,South West,50.152374,-5.067475,200,OK
54.710079,-1.736973,DL15 8NS,County Durham,North East,54.710079,-1.736973,200,OK
52.940234,-1.147885,NG2 2FF,Nottingham,East Midlands,52.940234,-1.147885,200,OK
51.282366,0.944317,ME13 9NQ,Swale,South East,51.282366,0.944317,200,OK
52.050207,-0.761781,MK14 7DN,Milton Keynes,South East,52.050207,-0.761781,200,OK
51.068769,-1.797417,SP1 2LX,Wiltshire,South West,51.068769,-1.797417,200,OK
51.306066,-2.210451,BA14 0FT,Wiltshire,South West,51.305715,-2.21065,200,OK
53.570061,-2.315674,M26 2XB,Bury,North West,53.570068,-2.315717,200,OK
50.873166,-1.580017,SO43 7DR,New Forest,South East,50.873166,-1.580017,200,OK
51.787716,0.153119,CM17 0GE,Harlow,East of England,51.787716,0.153119,200,OK
52.599491,-2.012949,WS2 7HZ,Walsall,West Midlands,52.599491,-2.012949,200,OK
52.063519,-1.326727,OX16 3QR,Cherwell,South East,52.063519,-1.326727,200,OK
53.151078,-2.35214,CW11 1YN,Cheshire East,North West,53.151078,-2.35214,200,OK
53.502761,-1.435902,S74 9PA,Barnsley,Yorkshire and The Humber,53.502761,-1.435902,200,OK
53.701423,-2.208173,OL13 8NR,Rossendale,North West,53.701423,-2.208173,200,OK
50.854946,0.56014,TN37 6DY,Hastings,South East,50.854946,0.56014,200,OK
57.155587,-2.129016,AB25 2ZS,Aberdeen City,,57.155587,-2.129016,200,OK
55.839723,-4.412996,PA1 1TD,Renfrewshire,,55.839723,-4.412996,200,OK
53.022953,-2.169107,ST1 3PW,Stoke-on-Trent,West Midlands,53.022917,-2.169107,200,OK
51.589254,-0.374362,HA5 5NP,Harrow,London,51.589254,-0.374362,200,OK
51.662118,-0.45947,WD3 4LN,Three Rivers,East of England,51.662118,-0.45947,200,OK
53.040786,-2.135994,ST2 8DN,Stoke-on-Trent,West Midlands,53.040786,-2.135994,200,OK
53.517499,-2.350513,M27 9UG,Salford,North West,53.517499,-2.350513,200,OK
51.271355,-1.081083,RG21 5HJ,Basingstoke and Deane,South East,51.271355,-1.081083,200,OK
50.996226,0.164674,,,,,,200,OK
51.469656,-0.036472,SE14 6RP,Lewisham,London,51.469656,-0.036472,200,OK
51.970075,0.547224,CO9 3LX,Braintree,East of England,51.970075,0.547224,200,OK
55.065471,-3.578306,DG1 4PG,Dumfries and Galloway,,55.065471,-3.578306,200,OK
53.459843,-0.520497,DN21 4TE,West Lindsey,East Midlands,53.460215,-0.520428,200,OK
52.442255,-0.284043,PE28 5NR,Huntingdonshire,East of England,52.442255,-0.284043,200,OK
50.215776,-5.200418,TR16 6HH,Cornwall,South West,50.215776,-5.200418,200,OK
53.582325,-2.571409,BL6 5ST,Bolton,North West,53.582325,-2.571409,200,OK
55.973666,-4.212253,,,,,,200,OK
54.725906,-1.377753,TS28 5FD,County Durham,North East,54.725906,-1.377753,200,OK
51.542242,-2.556978,BS32 0BY,South Gloucestershire,South West,51.542269,-2.556952,200,OK
53.481653,-2.140913,M43 7DZ,Tameside,North West,53.481644,-2.140913,200,OK
56.000749,-3.911667,FK4 1RJ,Falkirk,,56.000749,-3.911667,200,OK
53.396903,-1.536574,S6 6FY,Sheffield,Yorkshire and The Humber,53.396903,-1.536574,200,OK
51.097531,-0.159311,RH10 7HJ,Crawley,South East,51.097531,-0.159311,200,OK
51.531593,-0.096743,N1 7RJ,Islington,London,51.531593,-0.096743,200,OK
51.492555,0.122832,SE2 9RZ,Bexley,London,51.492555,0.122832,200,OK
53.491989,-3.029308,L23 7TP,Sefton,North West,53.491989,-3.029308,200,OK
55.795491,-3.994393,ML1 1DX,North Lanarkshire,,55.795491,-3.994393,200,OK
51.404049,-0.261591,KT3 3BU,Kingston upon Thames,London,51.404303,-0.261774,200,OK
51.668876,-3.013066,NP44 2PN,Torfaen,,51.668876,-3.013066,200,OK
50.339434,-4.762284,PL25 3HT,Cornwall,South West,50.339434,-4.762284,200,OK
52.566169,-1.158087,LE8 4HH,Blaby,East Midlands,52.566169,-1.158087,200,OK
55.861214,-4.190353,G32 6JQ,Glasgow City,,55.861214,-4.190353,200,OK
50.852672,-1.269836,PO14 4LU,Fareham,South East,50.852672,-1.269836,200,OK
51.1353,0.23404,TN4 8RB,Tunbridge Wells,South East,51.1353,0.23404,200,OK
52.571428,1.120371,NR18 0NL,South Norfolk,East of England,52.571428,1.120371,200,OK
53.491538,-2.156742,M43 7SB,Tameside,North West,53.491583,-2.156727,200,OK
54.703084,-6.681112,BT45 7TX,Mid Ulster,,54.703084,-6.681112,200,OK
52.678365,-0.73775,LE15 6RF,Rutland,East Midlands,52.678365,-0.73775,200,OK
50.836655,-0.320934,BN15 0JE,Adur,South East,50.836655,-0.320934,200,OK
53.523344,-1.134889,DN1 1BB,Doncaster,Yorkshire and The Humber,53.523344,-1.134889,200,OK
54.66472,-2.750935,CA11 7YH,Westmorland and Furness,North West,54.66472,-2.750935,200,OK
53.321434,-1.922332,SK23 9SR,High Peak,East Midlands,53.321641,-1.922391,200,OK
52.370291,-2.235545,DY10 4UH,Wyre Forest,West Midlands,52.369851,-2.235351,200,OK
51.883581,0.867199,CO3 4EN,Colchester,East of England,51.883581,0.867199,200,OK
51.483827,-3.230226,CF5 5AS,Cardiff,,51.483827,-3.230226,200,OK
51.493079,-0.142721,SW1V 1HS,Westminster,London,51.493079,-0.142721,200,OK
51.141357,-0.048033,RH19 2SP,Tandridge,South East,51.141357,-0.048033,200,OK
50.740916,-1.755665,BH23 3AU,"Bournemouth, Christchurch and Poole",South West,50.740916,-1.755665,200,OK
53.250558,-2.122676,SK11 7QE,Cheshire East,North West,53.250558,-2.122676,200,OK
50.631489,-2.492511,DT3 4BG,Dorset,South West,50.631489,-2.492511,200,OK
52.545938,-0.279647,PE2 5PX,Peterborough,East of England,52.545929,-0.279633,200,OK
55.835163,-4.174483,G32 8YL,Glasgow City,,55.835595,-4.174686,200,OK
52.42179,-2.448686,DY14 8NF,Shropshire,West Midlands,52.42179,-2.448686,200,OK
55.860238,-5.080296,PA20 0LL,Argyll and Bute,,55.860238,-5.080296,200,OK
51.448361,0.318963,DA11 9AQ,Dartford,South East,51.448361,0.318963,200,OK
51.765072,-1.187384,OX3 8XD,Oxford,South East,51.765072,-1.187384,200,OK
51.311869,-0.752027,GU16 7SG,Rushmoor,South East,51.311834,-0.752082,200,OK
53.558787,-2.455651,BL3 3RD,Bolton,North West,53.558787,-2.455651,200,OK
54.994555,-1.604636,NE2 2TB,Newcastle upon Tyne,North East,54.994589,-1.604697,200,OK
57.391377,-2.030927,AB41 8HJ,Aberdeenshire,,57.39137,-2.031663,200,OK
51.485033,-3.69376,CF36 5EL,Bridgend,,51.485033,-3.69376,200,OK
52.342426,-0.080068,PE27 3DA,Huntingdonshire,East of England,52.342435,-0.080038,200,OK
53.380551,-2.746711,WA8 9DZ,Halton,North West,53.380551,-2.746711,200,OK
55.886943,-3.516084,EH54 0SA,West Lothian,,55.886943,-3.516084,200,OK
51.645098,-0.408065,WD18 6QF,Watford,East of England,51.645098,-0.408051,200,OK
53.198469,-2.357767,CW4 7EZ,Cheshire East,North West,53.198441,-2.357706,200,OK
54.111517,-6.016298,,,,,,200,OK
54.593335,-2.499011,CA16 6JL,Westmorland and Furness,North West,54.593335,-2.499011,200,OK
51.292208,-0.213783,KT20 6PJ,Reigate and Banstead,South East,51.292208,-0.213783,200,OK
51.311081,0.451699,ME20 7GJ,Tonbridge and Malling,South East,51.311081,0.451699,200,OK
54.96432,-1.640777,NE4 7AT,Newcastle upon Tyne,North East,54.96448,-1.640976,200,OK
53.646846,-2.127487,OL12 9LS,Rochdale,North West,53.646846,-2.127487,200,OK
53.714578,-2.091479,OL14 5BJ,Calderdale,Yorkshire and The Humber,53.714578,-2.091479,200,OK
52.856245,-2.259153,ST21 6DA,Stafford,West Midlands,52.856245,-2.259153,200,OK
53.639326,-2.62424,PR7 3JT,Chorley,North West,53.639326,-2.62424,200,OK
54.543438,-5.912805,BT8 6YX,Lisburn and Castlereagh,,54.543438,-5.912805,200,OK
51.37,-0.076656,CR0 5QJ,Croydon,London,51.37,-0.076656,200,OK
52.417439,-1.543963,CV5 8HU,Coventry,West Midlands,52.417474,-1.543924,200,OK
50.884711,-1.279727,SO31 7HE,Fareham,South East,50.884711,-1.279727,200,OK
52.219651,-0.836914,NN4 7PT,West Northamptonshire,East Midlands,52.219651,-0.836914,200,OK
52.698602,1.687675,NR29 4LJ,Great Yarmouth,East of England,52.698602,1.687675,200,OK
51.466213,-0.354335,TW3 1YY,Hounslow,London,51.466213,-0.354335,200,OK
51.828103,-3.022614,NP7 7RN,Monmouthshire,,51.828103,-3.022614,200,OK
53.394997,-2.292706,M23 9DS,Manchester,North West,53.39504,-2.292676,200,OK
53.521723,-2.267199,M25 0JY,Bury,North West,53.521723,-2.267199,200,OK
51.382147,-0.864774,RG40 4PF,Wokingham,South East,51.381974,-0.86541,200,OK
55.847799,-6.106918,PA46 7RD,Argyll and Bute,,55.847676,-6.105482,200,OK
51.513282,-0.138638,W1F 7QR,Westminster,London,51.513282,-0.138638,200,OK
53.456547,-1.970881,,,,,,200,OK
52.093659,-1.873991,WR11 7JB,Wychavon,West Midlands,52.093388,-1.872809,200,OK
51.282289,1.073795,CT2 8BN,Canterbury,South East,51.282289,1.073795,200,OK
55.868605,-3.047325,EH22 5SU,Midlothian,,55.868605,-3.047325,200,OK
55.818476,-4.19606,G73 3SZ,South Lanarkshire,,55.818476,-4.19606,200,OK
51.910023,-2.050266,GL52 5HE,Cheltenham,South West,51.910023,-2.050266,200,OK
51.53363,0.035792,E13 9JN,Newham,London,51.534106,0.03528,200,OK
54.586028,-5.93801,BT9 6AT,Belfast,,54.586076,-5.938162,200,OK
53.705864,-2.116652,OL14 7HG,Calderdale,Yorkshire and The Humber,53.705864,-2.116652,200,OK
53.59611,-0.652039,DN15 6BB,North Lincolnshire,Yorkshire and The Humber,53.59611,-0.652039,200,OK
60.153938,-1.155093,ZE1 0HG,Shetland Islands,,60.153938,-1.155093,200,OK
53.489166,-2.497662,WN7 3DH,Wigan,North West,53.489166,-2.497662,200,OK
51.757477,-1.270075,OX2 6BG,Oxford,South East,51.75743,-1.269699,200,OK
51.651817,-0.080999,EN2 6BN,Enfield,London,51.65178,-0.080928,200,OK
50.629399,-3.451656,EX6 8PQ,Teignbridge,South West,50.629399,-3.451656,200,OK
55.453945,-4.258894,KA18 1LY,East Ayrshire,,55.453945,-4.258894,200,OK
52.641017,1.546749,NR13 3QU,Broadland,East of England,52.641017,1.546749,200,OK
52.506527,-2.047765,B69 1NQ,Sandwell,West Midlands,52.506527,-2.047765,200,OK
51.345253,-0.722516,GU15 3UQ,Surrey Heath,South East,51.345253,-0.722516,200,OK
52.107675,-1.969897,WR10 3LH,Wychavon,West Midlands,52.107675,-1.969897,200,OK
51.797308,-0.047954,SG13 7TG,East Hertfordshire,East of England,51.797308,-0.047954,200,OK
53.216484,-1.67676,DE45 1DX,Derbyshire Dales,East Midlands,53.215916,-1.676181,200,OK
50.833292,-0.065956,BN2 6RR,Brighton and Hove,South East,50.833292,-0.065956,200,OK
55.821817,-4.143757,G72 7RS,South Lanarkshire,,55.821817,-4.143757,200,OK
53.759992,-1.851589,BD13 2LY,Bradford,Yorkshire and The Humber,53.759992,-1.851589,200,OK
51.418245,-2.618557,BS13 7DR,"Bristol, City of",South West,51.418245,-2.618557,200,OK
51.913953,-0.460731,LU3 3DF,Luton,East of England,51.913953,-0.460731,200,OK
53.372792,-1.49998,S10 2LJ,Sheffield,Yorkshire and The Humber,53.372792,-1.49998,200,OK
51.727731,-0.117679,SG13 8RG,Welwyn Hatfield,East of England,51.726899,-0.117196,200,OK
51.481469,-1.551798,RG17 7TQ,West Berkshire,South East,51.481562,-1.552503,200,OK
52.971875,-1.227958,NG8 3AZ,Nottingham,East Midlands,52.971875,-1.227958,200,OK
52.436607,-1.443224,CV2 2NR,Coventry,West Midlands,52.436607,-1.443224,200,OK
51.169127,-1.776239,SP4 7JD,Wiltshire,South West,51.169127,-1.776239,200,OK
53.614155,-2.339022,BL8 3NJ,Bury,North West,53.614155,-2.339022,200,OK
53.05864,-2.980316,LL12 7UR,Wrexham,,53.059133,-2.980432,200,OK
53.822055,-1.530576,LS7 4JD,Leeds,Yorkshire and The Humber,53.821653,-1.531234,200,OK
52.87091,-1.075169,NG12 5DL,Rushcliffe,East Midlands,52.87091,-1.075169,200,OK
51.669329,-0.042514,EN3 5SY,Enfield,London,51.669376,-0.042456,200,OK
53.447623,-2.281986,M21 9NR,Manchester,North West,53.447623,-2.281986,200,OK
51.710774,-3.696247,SA11 4HR,Neath Port Talbot,,51.71084,-3.696018,200,OK
51.209719,0.060174,TN8 6HR,Sevenoaks,South East,51.209719,0.060174,200,OK
51.585195,-0.231692,NW4 3AF,Barnet,London,51.585105,-0.231695,200,OK
54.108597,-1.505053,HG4 3LS,North Yorkshire,Yorkshire and The Humber,54.108768,-1.50522,200,OK
54.354273,-2.575133,LA10 5JB,Westmorland and Furness,North West,54.354273,-2.575133,200,OK
54.703773,-1.432887,TS29 6QN,County Durham,North East,54.703773,-1.432887,200,OK
52.246856,0.104015,CB24 9NR,South Cambridgeshire,East of England,52.246856,0.104015,200,OK
53.078429,-0.633793,LN5 0SQ,North Kesteven,East Midlands,53.078429,-0.633793,200,OK
50.916349,-1.513445,SO40 8WU,New Forest,South East,50.916828,-1.514066,200,OK
51.851298,-2.199431,GL4 5EG,Gloucester,South West,51.851271,-2.199431,200,OK
53.325755,-1.303083,S21 2BY,North East Derbyshire,East Midlands,53.325812,-1.303188,200,OK
53.267291,-1.619553,S32 3YA,Derbyshire Dales,East Midlands,53.267325,-1.618938,200,OK
51.878901,0.910509,CO2 7SL,Colchester,East of England,51.878901,0.910509,200,OK
56.036589,-3.798027,FK2 8QA,Falkirk,,56.036589,-3.798027,200,OK
53.720453,-2.491343,BB2 4UR,Blackburn with Darwen,North West,53.720444,-2.491358,200,OK
53.584628,-1.778549,HD9 3UT,Kirklees,Yorkshire and The Humber,53.584628,-1.778549,200,OK
50.915812,-1.520507,SO40 8FP,New Forest,South East,50.915794,-1.520535,200,OK
51.522433,-0.093103,EC1Y 8JH,Islington,London,51.522386,-0.092946,200,OK
52.008336,-0.298519,SG16 6EW,Central Bedfordshire,East of England,52.008336,-0.298519,200,OK
51.515033,0.055372,E6 5JQ,Newham,London,51.515033,0.055372,200,OK
56.004768,-3.728338,FK3 8TL,Falkirk,,56.004768,-3.728338,200,OK
50.984526,-1.367697,SO53 2AB,Eastleigh,South East,50.984526,-1.367697,200,OK
56.500685,-3.519047,PH1 4BQ,Perth and Kinross,,56.500685,-3.519047,200,OK
55.998495,-4.570005,G83 8AX,West Dunbartonshire,,55.998495,-4.570005,200,OK
53.335806,-3.356482,LL19 9TU,Flintshire,,53.335806,-3.356482,200,OK
52.039967,1.121497,IP2 9HX,Ipswich,East of England,52.039967,1.121497,200,OK
52.447421,0.62326,IP27 0AG,West Suffolk,East of England,52.447421,0.62326,200,OK
54.980253,-1.525388,NE31 1AY,South Tyneside,North East,54.980253,-1.525388,200,OK
56.493924,-2.926407,DD4 0XB,Dundee City,,56.493924,-2.926407,200,OK
51.428508,0.046981,SE9 4AB,Bromley,London,51.428508,0.046981,200,OK
52.646628,-1.709086,B79 8LS,Tamworth,West Midlands,52.646628,-1.709086,200,OK
51.39192,-0.292321,KT5 8JR,Kingston upon Thames,London,51.391928,-0.292298,200,OK
50.311361,-5.178692,TR5 0XN,Cornwall,South West,50.311361,-5.178692,200,OK
50.430176,-4.142164,PL6 6NH,Plymouth,South West,50.430176,-4.142164,200,OK
50.356172,-4.463514,PL13 2AN,Cornwall,South West,50.356172,-4.463514,200,OK
53.718839,-2.650784,PR5 8BX,South Ribble,North West,53.718839,-2.650784,200,OK
52.640303,-2.920835,SY5 0DQ,Shropshire,West Midlands,52.640303,-2.920835,200,OK
51.481524,-0.430165,UB3 5FD,Hillingdon,London,51.481524,-0.430165,200,OK
51.456141,0.032602,SE9 6BS,Greenwich,London,51.456141,0.032602,200,OK
51.943027,-0.876131,MK18 3JD,Buckinghamshire,South East,51.943027,-0.876131,200,OK
51.496839,-0.308731,W5 4XH,Ealing,London,51.496747,-0.307956,200,OK
51.493126,-0.239722,W6 9UP,Hammersmith and Fulham,London,51.492906,-0.240033,200,OK
52.896837,1.23486,NR11 8RE,North Norfolk,East of England,52.896837,1.23486,200,OK
53.734474,-0.571952,HU15 1AN,East Riding of Yorkshire,Yorkshire and The Humber,53.735013,-0.572646,200,OK
50.851414,0.453057,TN39 4LP,Rother,South East,50.851414,0.453057,200,OK
51.429815,-0.393463,TW13 6RP,Hounslow,London,51.429815,-0.393463,200,OK
50.849042,-0.572528,BN18 9HJ,Arun,South East,50.849042,-0.572528,200,OK
52.62683,-1.112071,LE2 1FF,Leicester,East Midlands,52.627047,-1.112176,200,OK
52.056455,-1.625046,CV36 4ET,Stratford-on-Avon,West Midlands,52.056455,-1.625046,200,OK
51.170263,0.409086,TN12 6NY,Tunbridge Wells,South East,51.170263,0.409086,200,OK
52.092854,-0.267438,SG18 0BQ,Central Bedfordshire,East of England,52.092854,-0.267438,200,OK
53.170847,-1.425871,S45 9QX,North East Derbyshire,East Midlands,53.170847,-1.425871,200,OK
51.5284,-0.13929,NW1 3JP,Camden,London,51.5284,-0.13929,200,OK
50.865873,-1.400831,SO45 6BS,New Forest,South East,50.865873,-1.400831,200,OK
51.63079,-0.128139,N14 6BP,Enfield,London,51.63079,-0.128139,200,OK
51.351406,1.032427,CT5 1QL,Canterbury,South East,51.351406,1.032427,200,OK
53.881177,-1.984949,BD20 7BH,North Yorkshire,Yorkshire and The Humber,53.881177,-1.984949,200,OK
51.128698,-2.978284,TA6 4JN,Somerset,South West,51.128698,-2.978284,200,OK
54.432522,-2.963491,LA22 9DS,Westmorland and Furness,North West,54.432522,-2.963491,200,OK
50.905802,-1.322357,SO19 6AL,Eastleigh,South East,50.905802,-1.322357,200,OK
50.832368,-0.2352,BN42 4AF,Adur,South East,50.832368,-0.2352,200,OK
51.305803,-0.336967,KT22 7NB,Mole Valley,South East,51.306038,-0.337165,200,OK
50.715957,-1.302387,PO30 5NS,Isle of Wight,South East,50.715622,-1.302368,200,OK
55.838939,-4.353545,G53 5YP,Glasgow City,,55.838939,-4.353545,200,OK
57.668194,-2.499597,AB44 1XA,Aberdeenshire,,57.668194,-2.499597,200,OK
53.460805,-2.194417,M12 4UJ,Manchester,North West,53.460805,-2.194417,200,OK
56.482258,-3.065779,DD2 5RF,Dundee City,,56.482258,-3.065779,200,OK
51.676676,-1.288353,OX14 1JB,Vale of White Horse,South East,51.676676,-1.288353,200,OK
52.219109,-0.069697,CB23 6EY,South Cambridgeshire,East of England,52.219135,-0.069652,200,OK
56.479728,-2.945512,DD4 8WA,Dundee City,,56.479728,-2.945512,200,OK
55.568697,-2.647606,TD6 0ES,Scottish Borders,,55.568836,-2.64691,200,OK
52.240649,-0.872657,NN1 5JS,West Northamptonshire,East Midlands,52.240649,-0.872657,200,OK
52.572476,1.728786,NR31 6FB,Great Yarmouth,East of England,52.572476,1.728786,200,OK
52.64171,-1.940326,WS8 7SH,Walsall,West Midlands,52.64171,-1.940326,200,OK
51.935026,0.91759,CO4 5HY,Colchester,East of England,51.935026,0.91759,200,OK
53.370987,-1.513573,S10 3EL,Sheffield,Yorkshire and The Humber,53.370987,-1.513573,200,OK
53.45305,-2.754789,WA10 4HH,St. Helens,North West,53.45305,-2.754789,200,OK
52.689586,-1.99361,WS12 3XS,Cannock Chase,West Midlands,52.689586,-1.99361,200,OK
50.682891,-1.146004,PO36 0HU,Isle of Wight,South East,50.682891,-1.146004,200,OK
51.477467,-0.865289,RG10 9DT,Wokingham,South East,51.477367,-0.865191,200,OK
52.79108,-2.247719,ST20 0HF,Stafford,West Midlands,52.79108,-2.247719,200,OK
52.675755,-2.176015,ST19 9DS,South Staffordshire,West Midlands,52.675755,-2.176015,200,OK
52.56594,-0.242731,PE2 8AT,Peterborough,East of England,52.56594,-0.242731,200,OK
53.515871,-2.028479,OL5 9LN,Tameside,North West,53.515871,-2.028479,200,OK
51.473251,-3.184946,CF11 6QZ,Cardiff,,51.473251,-3.184946,200,OK
53.412631,-2.940462,L7 0HH,Liverpool,North West,53.412631,-2.940462,200,OK
53.591919,-2.276465,BL9 7DF,Bury,North West,53.591935,-2.276538,200,OK
51.575675,-3.014397,NP20 3HE,Newport,,51.575953,-3.014533,200,OK
51.184845,0.942776,TN25 5EN,Ashford,South East,51.184845,0.942776,200,OK
53.78046,-0.419987,HU16 4AY,East Riding of Yorkshire,Yorkshire and The Humber,53.78046,-0.419987,200,OK
51.390031,-3.267271,CF62 5DB,Vale of Glamorgan,,51.390031,-3.267271,200,OK
53.393675,-1.485796,S6 3BG,Sheffield,Yorkshire and The Humber,53.393675,-1.485796,200,OK
51.524297,-0.138045,W1T 5AZ,Camden,London,51.524297,-0.138045,200,OK
51.72212,-0.384345,AL2 3NJ,St Albans,East of England,51.72212,-0.384345,200,OK
55.860535,-3.992947,ML6 9FB,North Lanarkshire,,55.860535,-3.992947,200,OK
52.574664,-2.164203,WV3 7JJ,Wolverhampton,West Midlands,52.574664,-2.164203,200,OK
52.941034,-1.245039,NG9 3FL,Broxtowe,East Midlands,52.941034,-1.245039,200,OK
53.429482,-0.181648,LN8 6DS,East Lindsey,East Midlands,53.429356,-0.181792,200,OK
51.311313,-2.659944,BS40 6JX,Bath and North East Somerset,South West,51.311313,-2.659944,200,OK
51.808199,-2.727459,NP25 5BP,Monmouthshire,,51.808199,-2.727459,200,OK
52.980944,-1.130046,NG3 5GJ,Nottingham,East Midlands,52.980559,-1.130006,200,OK
52.520298,-3.317658,SY16 2DR,Powys,,52.520298,-3.317658,200,OK
52.825064,-0.228894,PE11 3QN,South Holland,East Midlands,52.825064,-0.228894,200,OK
53.460985,-2.169369,M18 7DW,Manchester,North West,53.46094,-2.169791,200,OK
51.428462,-0.549024,TW20 9LS,Runnymede,South East,51.428462,-0.549024,200,OK
50.977753,0.731757,TN31 7PS,Rother,South East,50.977753,0.731757,200,OK
52.636133,-1.172674,LE3 6FH,Leicester,East Midlands,52.636133,-1.172674,200,OK
53.264064,-2.903989,CH65 6PS,Cheshire West and Chester,North West,53.264226,-2.903978,200,OK
54.970003,-1.612578,NE1 1JW,Newcastle upon Tyne,North East,54.970045,-1.612294,200,OK
51.78995,-0.188242,AL7 4LY,Welwyn Hatfield,East of England,51.78995,-0.188242,200,OK
51.680267,-3.752965,,,,,,200,OK
54.672085,-2.747256,CA11 7SQ,Westmorland and Furness,North West,54.672085,-2.747256,200,OK
52.653568,0.68886,PE37 7HS,Breckland,East of England,52.65394,0.689104,200,OK
55.807223,-3.914439,ML1 5PN,North Lanarkshire,,55.807223,-3.914439,200,OK
53.936417,-0.776533,YO42 2HQ,East Riding of Yorkshire,Yorkshire and The Humber,53.936417,-0.776533,200,OK
53.139614,-1.552485,DE4 3FB,Derbyshire Dales,East Midlands,53.139614,-1.552485,200,OK
53.844781,-3.051138,FY2 9PZ,Blackpool,North West,53.844781,-3.051138,200,OK
53.401521,-3.099275,CH46 9RU,Wirral,North West,53.401521,-3.099275,200,OK
52.041085,0.732486,CO10 1UA,Babergh,East of England,52.040979,0.732363,200,OK
51.540083,-0.136423,NW1 0QS,Camden,London,51.540084,-0.136495,200,OK
50.721911,-1.90239,BH4 0GR,"Bournemouth, Christchurch and Poole",South West,50.721911,-1.90239,200,OK
51.594054,-0.263139,NW9 0BF,Brent,London,51.594054,-0.263139,200,OK
55.096711,-1.591454,NE23 3UT,Northumberland,North East,55.096711,-1.591454,200,OK
54.093543,-0.216845,YO16 4DA,East Riding of Yorkshire,Yorkshire and The Humber,54.093543,-0.216845,200,OK
53.076531,-0.778444,NG24 2LQ,Newark and Sherwood,East Midlands,53.076531,-0.778444,200,OK
50.405137,-5.071842,TR7 2LE,Cornwall,South West,50.405137,-5.071842,200,OK
51.388527,1.382424,CT9 1PZ,Thanet,South East,51.388527,1.382424,200,OK
53.489316,-2.90181,L32 2DD,Knowsley,North West,53.489316,-2.90181,200,OK
51.610859,-0.54986,SL9 0DD,Buckinghamshire,South East,51.610859,-0.54986,200,OK
53.396946,-2.202727,SK8 2BP,Stockport,North West,53.396946,-2.202727,200,OK
53.59231,-1.513182,S75 6PD,Barnsley,Yorkshire and The Humber,53.59231,-1.513182,200,OK
51.197222,-0.055063,RH7 6JZ,Tandridge,South East,51.197222,-0.055063,200,OK
50.795864,-1.757181,BH23 8EP,New Forest,South East,50.795864,-1.757181,200,OK
56.376047,-3.986373,PH6 2DA,Perth and Kinross,,56.375906,-3.98677,200,OK
51.709412,-2.274396,GL10 3UN,Stroud,South West,51.709412,-2.274396,200,OK
55.876625,-4.189974,G33 1DS,Glasgow City,,55.876625,-4.189974,200,OK
54.020024,-1.067031,YO32 3LW,York,Yorkshire and The Humber,54.020032,-1.067055,200,OK
52.534252,1.481463,NR14 6ZJ,South Norfolk,East of England,52.53427,1.481479,200,OK
51.558929,-0.191018,NW3 7QJ,Camden,London,51.558911,-0.190428,200,OK
53.342664,-2.227357,SK9 4EY,Cheshire East,North West,53.342664,-2.227357,200,OK
51.46073,0.028873,SE3 9JS,Greenwich,London,51.46075,0.028744,200,OK
52.669565,1.258526,NR6 6QE,Broadland,East of England,52.669669,1.258613,200,OK
52.01664,1.23398,IP10 0EY,East Suffolk,East of England,52.01664,1.23398,200,OK
51.416122,-0.195281,SW19 1SZ,Merton,London,51.416127,-0.195069,200,OK
55.958779,-3.332392,,,,,,200,OK
51.464146,0.093353,DA16 2RJ,Bexley,London,51.464146,0.093353,200,OK
51.168839,0.884758,TN24 9HZ,Ashford,South East,51.168839,0.884758,200,OK
54.955556,-1.769758,NE40 4RP,Gateshead,North East,54.955556,-1.769758,200,OK
53.232001,-1.360965,,,,,,200,OK
52.595313,-1.799464,B75 5RG,Birmingham,West Midlands,52.595313,-1.799464,200,OK
54.550039,-7.595975,BT93 0BL,Fermanagh and Omagh,,54.550039,-7.595975,200,OK
52.899363,-1.427621,,,,,,200,OK
50.701391,-1.290765,PO30 5YT,Isle of Wight,South East,50.701368,-1.291445,200,OK
53.692123,-1.406873,WF6 1PQ,Wakefield,Yorkshire and The Humber,53.692123,-1.406873,200,OK
53.73196,-2.752457,PR4 4BN,South Ribble,North West,53.73196,-2.752457,200,OK
53.480944,-2.337493,M30 0FA,Salford,North West,53.480412,-2.338092,200,OK
53.379699,-1.496517,S10 2SL,Sheffield,Yorkshire and The Humber,53.379699,-1.496517,200,OK
54.754832,-1.361647,,,,,,200,OK
51.432996,-0.366664,TW12 1DX,Richmond upon Thames,London,51.432996,-0.366664,200,OK
53.588897,-2.431744,BL1 3SF,Bolton,North West,53.588897,-2.431744,200,OK
52.478943,-1.903148,B1 1BD,Birmingham,West Midlands,52.47893,-1.902936,200,OK
52.392127,-0.538924,NN14 4JY,North Northamptonshire,East Midlands,52.392127,-0.538924,200,OK
51.554413,-0.364266,UB5 4EU,Ealing,London,51.554413,-0.364266,200,OK
51.85935,-4.208503,SA32 8AY,Carmarthenshire,,51.85935,-4.208503,200,OK
53.390225,-2.964839,L8 8HT,Liverpool,North West,53.390225,-2.964839,200,OK
57.414221,-4.459671,IV4 7HT,Highland,,57.414221,-4.459671,200,OK
51.336852,-0.748062,GU15 3PT,Surrey Heath,South East,51.336481,-0.747853,200,OK
55.615672,-2.813704,TD1 1JD,Scottish Borders,,55.615672,-2.813704,200,OK
52.305075,0.936502,,,,,,200,OK
52.483334,-1.896703,B4 6AR,Birmingham,West Midlands,52.483258,-1.89686,200,OK
51.492399,-0.251274,W4 2LS,Hounslow,London,51.492551,-0.25113,200,OK
51.237415,-0.206254,RH2 9AA,Reigate and Banstead,South East,51.237408,-0.20634,200,OK
53.764204,-1.71174,,,,,,200,OK
50.7538,-3.268667,EX11 1TE,East Devon,South West,50.7538,-3.268667,200,OK
51.297491,-0.825956,GU51 2UF,Hart,South East,51.297491,-0.825956,200,OK
55.56996,-1.806981,NE70 7HP,Northumberland,North East,55.56996,-1.806981,200,OK
51.678112,-0.593707,HP6 6LA,Buckinghamshire,South East,51.678112,-0.593707,200,OK
51.565647,0.196159,RM11 1PX,Havering,London,51.565647,0.196159,200,OK
51.879422,0.905094,CO2 7QP,Colchester,East of England,51.879422,0.905094,200,OK
51.81143,1.030086,CO7 0NA,Tendring,East of England,51.81143,1.030086,200,OK
51.510978,-3.200292,CF14 1RW,Cardiff,,51.510898,-3.200342,200,OK
51.549286,-1.699172,SN4 0BY,Swindon,South West,51.549286,-1.699172,200,OK
55.834245,-4.259773,G42 8EW,Glasgow City,,55.834639,-4.259828,200,OK
51.088133,-2.51534,BA7 7BD,Somerset,South West,51.088133,-2.51534,200,OK
53.290769,-3.064294,CH64 9AD,Cheshire West and Chester,North West,53.290884,-3.064296,200,OK
55.012197,-1.675346,NE3 2RZ,Newcastle upon Tyne,North East,55.012197,-1.675346,200,OK
51.889661,-0.400281,LU2 0QB,Luton,East of England,51.889661,-0.400281,200,OK
51.152785,-1.320802,,,,,,200,OK
51.506984,-0.146964,W1J 5HL,Westminster,London,51.506973,-0.14685,200,OK
52.062232,-0.021952,SG8 5FR,North Hertfordshire,East of England,52.062232,-0.021952,200,OK
51.413818,-0.249702,SW20 0AE,Kingston upon Thames,London,51.414026,-0.2498,200,OK
51.58234,-1.382206,OX12 8QZ,Vale of White Horse,South East,51.582355,-1.381775,200,OK
53.444605,-2.231455,M14 7AA,Manchester,North West,53.444605,-2.231455,200,OK
55.123168,-1.506933,NE24 2EP,Northumberland,North East,55.123168,-1.506933,200,OK
51.088453,1.184403,CT19 6HF,Folkestone and Hythe,South East,51.088453,1.184403,200,OK
53.590172,-2.299991,BL8 9SA,Bury,North West,53.590172,-2.299991,200,OK
53.48274,-2.228498,M4 5AG,Manchester,North West,53.48273,-2.228664,200,OK
51.415027,-0.373589,TW12 2HW,Richmond upon Thames,London,51.414667,-0.372955,200,OK
52.660212,-2.46638,TF4 3LF,Telford and Wrekin,West Midlands,52.660284,-2.466396,200,OK
51.430638,0.129326,DA14 4PX,Bexley,London,51.430638,0.129326,200,OK
53.581689,-2.43161,BL1 2BX,Bolton,North West,53.581689,-2.43161,200,OK
51.648907,-0.409796,WD18 0NG,Watford,East of England,51.648898,-0.409811,200,OK
52.383277,-1.40642,CV8 3FT,Rugby,West Midlands,52.383277,-1.40642,200,OK
53.153537,-2.667802,CW6 9UY,Cheshire West and Chester,North West,53.153538,-2.667772,200,OK
50.803716,-0.441087,BN12 5HD,Arun,South East,50.803716,-0.441087,200,OK
53.948739,-0.883551,YO41 5PY,East Riding of Yorkshire,Yorkshire and The Humber,53.948721,-0.883536,200,OK
50.873369,-1.02864,PO7 7NA,Havant,South East,50.873369,-1.02864,200,OK
53.950858,-2.018416,BD23 2QZ,North Yorkshire,Yorkshire and The Humber,53.950858,-2.018416,200,OK
57.057849,-2.138651,AB12 4ST,Aberdeenshire,,57.058047,-2.138586,200,OK
51.712701,-3.865679,SA8 4AX,Neath Port Talbot,,51.713406,-3.86484,200,OK
53.641783,-2.962661,PR9 7RU,Sefton,North West,53.641783,-2.962661,200,OK
51.438732,-0.165901,SW17 7HQ,Wandsworth,London,51.438732,-0.165901,200,OK
51.598727,0.028537,E18 2RD,Redbridge,London,51.598711,0.028534,200,OK
51.632061,-2.67612,NP16 5JP,Monmouthshire,,51.632256,-2.676599,200,OK
51.324435,-0.754069,GU15 2QA,Surrey Heath,South East,51.324435,-0.754069,200,OK
51.424128,-2.600632,BS4 1EU,"Bristol, City of",South West,51.424128,-2.600632,200,OK
50.782632,-0.822568,PO20 7LH,Chichester,South East,50.782632,-0.822568,200,OK
50.957594,-1.40223,SO16 7LN,Test Valley,South East,50.957594,-1.40223,200,OK
51.133175,1.3435,CT15 5NA,Dover,South East,51.133175,1.3435,200,OK
52.478465,-1.92597,B16 8RU,Birmingham,West Midlands,52.478465,-1.92597,200,OK
51.492043,-0.138164,SW1V 2LZ,Westminster,London,51.492043,-0.138164,200,OK
51.655201,-3.235512,CF82 7HH,Caerphilly,,51.655201,-3.235512,200,OK
51.980887,-4.403759,SA33 6AX,Carmarthenshire,,51.980887,-4.403759,200,OK
53.430336,-2.233589,M20 3DU,Manchester,North West,53.430336,-2.233589,200,OK
51.359806,-2.378164,BA2 2PW,Bath and North East Somerset,South West,51.359806,-2.378164,200,OK
53.769998,-2.697164,PR1 6NS,Preston,North West,53.769998,-2.697164,200,OK
51.474057,-0.093911,SE5 0BX,Southwark,London,51.474058,-0.0939,200,OK
53.479888,-2.263951,M5 4YP,Salford,North West,53.479888,-2.263951,200,OK
53.391941,-2.928607,L15 3JZ,Liverpool,North West,53.391941,-2.928607,200,OK
55.606022,-4.499583,KA1 1RA,East Ayrshire,,55.606022,-4.499583,200,OK
51.130472,-0.177096,RH10 9JX,Crawley,South East,51.130472,-0.177096,200,OK
55.887112,-4.243432,G22 6EN,Glasgow City,,55.887112,-4.243432,200,OK
53.309117,-4.624665,LL65 2DN,Isle of Anglesey,,53.30909,-4.624623,200,OK
51.065765,-0.371873,RH12 3LN,Horsham,South East,51.06585,-0.372458,200,OK
51.721659,-1.205405,OX4 6DX,Oxford,South East,51.721659,-1.205405,200,OK
54.596876,-5.862069,BT4 3FT,Belfast,,54.596876,-5.862069,200,OK
53.733591,-1.864733,HX3 6HG,Calderdale,Yorkshire and The Humber,53.733591,-1.864733,200,OK
52.25368,0.105554,CB24 9JF,South Cambridgeshire,East of England,52.2537,0.105452,200,OK
51.800766,-0.205706,AL8 6NS,Welwyn Hatfield,East of England,51.800772,-0.205682,200,OK
52.547986,-0.291882,PE2 5LA,Peterborough,East of England,52.547986,-0.291882,200,OK
57.751072,-4.021635,IV19 1QJ,Highland,,57.751072,-4.021635,200,OK
51.116076,0.24743,,,,,,200,OK
51.519966,-0.141047,W1W 6SW,Westminster,London,51.519966,-0.141047,200,OK
53.53916,-1.097868,DN2 5SN,Doncaster,Yorkshire and The Humber,53.53916,-1.097868,200,OK
51.544892,-0.171875,NW3 3HR,Camden,London,51.544955,-0.171731,200,OK
53.202614,-2.3662,CW4 7EJ,Cheshire East,North West,53.202614,-2.3662,200,OK
53.367862,-1.492539,S11 8ZD,Sheffield,Yorkshire and The Humber,53.367835,-1.492644,200,OK
50.909552,-1.426385,SO15 1EB,Southampton,South East,50.909552,-1.426385,200,OK
51.842612,-4.32385,SA31 3PQ,Carmarthenshire,,51.842612,-4.32385,200,OK
52.719832,-3.378343,SY21 0NB,Powys,,52.719832,-3.378343,200,OK
51.42249,-0.688581,SL5 8JH,Bracknell Forest,South East,51.42249,-0.688581,200,OK
53.197633,-1.001824,NG22 9UH,Newark and Sherwood,East Midlands,53.196873,-1.002306,200,OK
50.790811,0.045489,BN9 9HX,Lewes,South East,50.790811,0.045489,200,OK
55.808501,-4.238332,G45 9EN,Glasgow City,,55.808678,-4.237754,200,OK
54.571361,-1.140227,TS6 7PS,Redcar and Cleveland,North East,54.571361,-1.140227,200,OK
51.295765,-0.210605,KT20 6DH,Reigate and Banstead,South East,51.295765,-0.210605,200,OK
50.819159,-0.596401,BN18 0HY,Arun,South East,50.819159,-0.596401,200,OK
50.090331,-5.590767,TR19 6EF,Cornwall,South West,50.090331,-5.590767,200,OK
51.696756,-0.729041,HP16 0QD,Buckinghamshire,South East,51.696756,-0.729041,200,OK
57.149724,-2.094735,AB10 1AN,Aberdeen City,,57.1497,-2.094742,200,OK
51.915248,-0.656014,LU7 1WS,Central Bedfordshire,East of England,51.915248,-0.656029,200,OK
51.126494,-3.009104,TA6 3RS,Somerset,South West,51.126494,-3.009104,200,OK
53.368216,-1.386161,S13 8UF,Sheffield,Yorkshire and The Humber,53.368225,-1.386161,200,OK
54.980223,-1.491326,NE32 3JS,South Tyneside,North East,54.980223,-1.491326,200,OK
51.442019,-0.4141,TW13 4JQ,Hounslow,London,51.442422,-0.414604,200,OK
52.6408,1.330397,NR7 9UF,Norwich,East of England,52.6408,1.330397,200,OK
57.475811,-1.962634,,,,,,200,OK
51.73312,-0.511144,HP3 0DN,Dacorum,East of England,51.73312,-0.511144,200,OK
52.759809,-3.075337,SY22 6NR,Powys,,52.759809,-3.075337,200,OK
57.684475,-2.026483,AB43 9SY,Aberdeenshire,,57.684466,-2.026886,200,OK
52.529338,-1.823069,B24 0EE,Birmingham,West Midlands,52.529509,-1.823245,200,OK
50.370777,-4.13458,PL4 0BB,Plymouth,South West,50.370777,-4.13458,200,OK
53.121649,-1.295195,NG17 2TG,Ashfield,East Midlands,53.121649,-1.295195,200,OK
55.982737,-2.895715,EH32 0PU,East Lothian,,55.982737,-2.895715,200,OK
52.506342,-1.748524,B36 0SB,Solihull,West Midlands,52.506342,-1.748524,200,OK
50.342989,-4.786287,PL25 4BZ,Cornwall,South West,50.342989,-4.786287,200,OK
52.404493,0.261032,CB6 1BQ,East Cambridgeshire,East of England,52.404493,0.261032,200,OK
51.505774,-0.607258,SL1 2FY,Slough,South East,51.505774,-0.607258,200,OK
52.224313,0.109581,CB4 3LR,Cambridge,East of England,52.224313,0.109581,200,OK
53.37998,-1.518988,S10 5DT,Sheffield,Yorkshire and The Humber,53.37998,-1.518988,200,OK
53.318439,-3.487605,LL18 2BP,Denbighshire,,53.318637,-3.486185,200,OK
53.52267,-1.629021,S36 6EP,Barnsley,Yorkshire and The Humber,53.522625,-1.628961,200,OK
51.3944,0.923488,,,,,,200,OK
52.241078,-0.891319,NN1 3LU,West Northamptonshire,East Midlands,52.241241,-0.890744,200,OK
55.423219,-5.606788,PA28 6AA,Argyll and Bute,,55.423219,-5.606788,200,OK
53.709894,-1.792149,HD6 2JG,Calderdale,Yorkshire and The Humber,53.709894,-1.792149,200,OK
51.071464,-1.923933,SP3 4BQ,Wiltshire,South West,51.071464,-1.923933,200,OK
53.504296,-2.147351,M35 9GE,Oldham,North West,53.504296,-2.147351,200,OK
53.254187,-2.162031,SK11 8UF,Cheshire East,North West,53.254187,-2.162031,200,OK
55.79501,-4.396634,G78 2AF,East Renfrewshire,,55.79501,-4.396634,200,OK
51.551635,-1.763149,SN3 1HG,Swindon,South West,51.551635,-1.763149,200,OK
54.420564,-6.450204,BT62 3JA,"Armagh City, Banbridge and Craigavon",,54.420667,-6.450601,200,OK
51.51217,-0.132068,W1D 6LH,Westminster,London,51.51217,-0.132068,200,OK
51.320109,-0.61167,GU21 2NJ,Woking,South East,51.320109,-0.61167,200,OK
50.335893,-4.634285,PL23 1AQ,Cornwall,South West,50.335893,-4.634285,200,OK
51.645252,-0.137328,N14 4AS,Enfield,London,51.645252,-0.137328,200,OK
51.518516,-1.542874,RG17 8QN,West Berkshire,South East,51.518265,-1.543006,200,OK
52.55555,-1.192731,LE9 1SU,Blaby,East Midlands,52.55555,-1.192731,200,OK
54.486205,-1.528253,DL2 2AD,Darlington,North East,54.486205,-1.528253,200,OK
51.580614,-0.250618,NW9 7SD,Barnet,London,51.580614,-0.250618,200,OK
51.073836,-2.646539,TA11 6EU,Somerset,South West,51.07337,-2.646161,200,OK
53.976292,-1.09687,YO30 6QA,York,Yorkshire and The Humber,53.976292,-1.09687,200,OK
51.752729,-1.257055,OX1 3DU,Oxford,South East,51.752788,-1.256949,200,OK
51.780262,-1.260213,OX2 7ER,Oxford,South East,51.780262,-1.260213,200,OK
50.919003,-1.437507,SO15 8SB,Southampton,South East,50.919047,-1.437435,200,OK
55.901983,-3.199305,EH10 7AE,City of Edinburgh,,55.901983,-3.199305,200,OK
50.603737,-2.48175,DT4 9LT,Dorset,South West,50.603737,-2.48175,200,OK
50.964422,-0.15072,RH15 8UN,Mid Sussex,South East,50.964422,-0.15072,200,OK
51.634698,-2.782793,NP16 6LN,Monmouthshire,,51.634698,-2.782793,200,OK
53.041782,-2.195209,ST6 3BP,Stoke-on-Trent,West Midlands,53.042276,-2.195464,200,OK
52.761572,-3.082138,SY22 6NZ,Powys,,52.761572,-3.082138,200,OK
53.340011,-2.106413,SK12 1SS,Cheshire East,North West,53.340037,-2.106473,200,OK
52.232359,-0.899224,NN1 1PZ,West Northamptonshire,East Midlands,52.232359,-0.899224,200,OK
50.83137,-0.169815,BN3 3TS,Brighton and Hove,South East,50.831532,-0.169809,200,OK
52.581127,-2.734908,,,,,,200,OK
53.647072,-3.005958,PR8 1EN,Sefton,North West,53.647055,-3.005866,200,OK
54.862104,-1.364862,SR2 0LU,Sunderland,North East,54.862104,-1.364862,200,OK
53.505626,-1.372358,S63 6BB,Rotherham,Yorkshire and The Humber,53.505626,-1.372358,200,OK
51.517809,-0.135456,W1T 1EJ,Westminster,London,51.517809,-0.135456,200,OK
53.180968,-2.833768,CH3 7BD,Cheshire West and Chester,North West,53.180968,-2.833768,200,OK
51.314278,-2.829984,BS25 1LB,North Somerset,South West,51.314278,-2.829984,200,OK
51.609746,-1.829726,SN25 2RU,Swindon,South West,51.609746,-1.829726,200,OK
52.494397,-1.945459,B66 2ND,Sandwell,West Midlands,52.494702,-1.945091,200,OK
51.527462,-0.115469,WC1X 9LW,Camden,London,51.527369,-0.115314,200,OK
53.753764,-1.696028,BD11 2AL,Kirklees,Yorkshire and The Humber,53.7537,-1.695573,200,OK
51.729454,-2.175293,GL5 2UH,Stroud,South West,51.729454,-2.175293,200,OK
51.515163,-0.096188,EC2V 6HH,City of London,London,51.515111,-0.096277,200,OK
51.47598,-0.127283,SW8 2EZ,Lambeth,London,51.47598,-0.127283,200,OK
53.46306,-2.269316,M16 9BG,Trafford,North West,53.46306,-2.269316,200,OK
55.909351,-4.408391,G81 3AU,West Dunbartonshire,,55.909351,-4.408391,200,OK
53.667144,-1.830998,HD3 3QU,Kirklees,Yorkshire and The Humber,53.667144,-1.830998,200,OK
51.524875,-0.196866,W9 2AR,Westminster,London,51.524717,-0.196415,200,OK
50.387359,-4.208239,PL11 2PQ,Cornwall,South West,50.387359,-4.208239,200,OK
51.809426,0.643699,CM8 2SZ,Braintree,East of England,51.809426,0.643699,200,OK
54.770608,-1.337368,SR8 5DT,County Durham,North East,54.770608,-1.337368,200,OK
50.369958,-4.124079,PL4 9HP,Plymouth,South West,50.369958,-4.124079,200,OK
57.479268,-4.225293,IV1 1JN,Highland,,57.479247,-4.22509,200,OK
53.389267,-3.083742,CH43 9UY,Wirral,North West,53.389267,-3.083742,200,OK
52.049621,-0.689363,MK10 7FF,Milton Keynes,South East,52.049621,-0.689363,200,OK
51.811423,-2.716472,NP25 3XH,Monmouthshire,,51.811423,-2.716472,200,OK
51.243017,-1.658396,SP9 7NJ,Wiltshire,South West,51.243017,-1.658396,200,OK
53.006366,-1.180727,NG5 9LJ,Nottingham,East Midlands,53.006366,-1.180727,200,OK
52.592577,1.710518,NR31 0NF,Great Yarmouth,East of England,52.592188,1.710588,200,OK
55.818279,-3.966125,ML1 4PQ,North Lanarkshire,,55.818279,-3.966125,200,OK
53.35325,-1.51062,S11 9HS,Sheffield,Yorkshire and The Humber,53.35325,-1.51062,200,OK
52.436928,-1.908035,B13 8PQ,Birmingham,West Midlands,52.436978,-1.908102,200,OK
51.115965,-3.418992,TA23 0QW,Somerset,South West,51.115965,-3.418992,200,OK
53.192973,-2.77184,CH3 8EP,Cheshire West and Chester,North West,53.192973,-2.77184,200,OK
51.587494,-1.746422,SN3 4XL,Swindon,South West,51.587494,-1.746422,200,OK
56.102873,-3.359473,KY4 9RS,Fife,,56.102873,-3.359473,200,OK
51.782085,0.911187,CO5 8LB,Colchester,East of England,51.782085,0.911187,200,OK
53.707479,-1.256181,WF11 0LA,Wakefield,Yorkshire and The Humber,53.707479,-1.256181,200,OK
52.426285,-1.811172,B92 7DH,Solihull,West Midlands,52.426285,-1.811172,200,OK
53.569821,-0.073707,DN32 7SF,North East Lincolnshire,Yorkshire and The Humber,53.569821,-0.073707,200,OK
53.484316,-2.091554,SK16 4HY,Tameside,North West,53.484316,-2.091554,200,OK
51.522255,-0.725126,SL6 4UZ,Windsor and Maidenhead,South East,51.522255,-0.725126,200,OK
52.36748,-1.43555,CV8 3NH,Rugby,West Midlands,52.36748,-1.43555,200,OK
55.951595,-3.181735,EH8 8FT,City of Edinburgh,,55.951914,-3.182257,200,OK
51.475094,-0.129796,SW8 2PB,Lambeth,London,51.474988,-0.129314,200,OK
53.364984,0.000155,LN11 9BY,East Lindsey,East Midlands,53.36499,0.000199,200,OK
53.28975,-3.700879,LL29 9LN,Conwy,,53.28975,-3.700879,200,OK
50.753077,-1.896196,BH10 5EA,"Bournemouth, Christchurch and Poole",South West,50.753077,-1.896196,200,OK
51.97306,0.594585,CO9 3RD,Braintree,East of England,51.97306,0.594585,200,OK
51.07358,-1.336192,SO22 5JF,Winchester,South East,51.07358,-1.336192,200,OK
53.039849,-3.011837,LL14 4HD,Wrexham,,53.039849,-3.011837,200,OK
54.398498,-5.657263,BT30 9RL,"Newry, Mourne and Down",,54.398498,-5.657263,200,OK
53.497685,-2.493873,WN7 2TL,Wigan,North West,53.498055,-2.493455,200,OK
51.871455,0.906876,CO2 8PY,Colchester,East of England,51.871455,0.906876,200,OK
51.787765,-2.272625,GL10 3DX,Stroud,South West,51.787765,-2.272625,200,OK
56.015469,-3.613022,EH51 0AS,Falkirk,,56.015469,-3.613022,200,OK
52.102647,-3.105154,,,,,,200,OK
57.138136,-2.082032,AB11 9PP,Aberdeen City,,57.138136,-2.082032,200,OK
51.447364,0.062504,SE9 2SU,Greenwich,London,51.447364,0.062504,200,OK
55.024937,-1.555018,NE12 9EB,North Tyneside,North East,55.024937,-1.555018,200,OK
52.725344,-2.115745,ST19 5AA,South Staffordshire,West Midlands,52.725774,-2.115446,200,OK
53.85969,-1.592979,LS16 7PD,Leeds,Yorkshire and The Humber,53.85969,-1.592979,200,OK
50.903702,-3.492329,EX16 5JN,Mid Devon,South West,50.903702,-3.492329,200,OK
51.409861,-3.291059,CF62 7QU,Vale of Glamorgan,,51.409861,-3.291059,200,OK
53.326258,-1.140306,S81 8TR,Bassetlaw,East Midlands,53.326258,-1.140306,200,OK
51.768076,0.13785,CM17 9RU,Harlow,East of England,51.768279,0.137077,200,OK
54.558893,-1.157701,TS6 0DY,Redcar and Cleveland,North East,54.558893,-1.157701,200,OK
51.768715,-3.241132,NP22 3XA,Blaenau Gwent,,51.768733,-3.241118,200,OK
53.528879,-2.401475,M28 3QU,Salford,North West,53.528879,-2.401475,200,OK
54.917091,-6.635522,BT46 5QR,Mid Ulster,,54.916245,-6.635348,200,OK
52.648621,1.220976,NR5 0HU,South Norfolk,East of England,52.648621,1.220976,200,OK
52.314686,-1.947132,B97 6EF,Redditch,West Midlands,52.314686,-1.947132,200,OK
52.056587,-1.349482,OX16 9PG,Cherwell,South East,52.056417,-1.349514,200,OK
51.513015,-0.106236,EC4Y 8AP,City of London,London,51.513225,-0.106317,200,OK
53.67543,-0.450081,DN18 5GZ,North Lincolnshire,Yorkshire and The Humber,53.67543,-0.450081,200,OK
52.066625,1.246261,IP5 2PD,East Suffolk,East of England,52.066676,1.245944,200,OK
53.327191,-2.66371,WA7 6JY,Halton,North West,53.327191,-2.66371,200,OK
51.61056,-0.100865,N13 6DU,Enfield,London,51.610599,-0.101109,200,OK
53.349401,-2.899875,L19 8EE,Liverpool,North West,53.349401,-2.899875,200,OK
51.055286,-1.790157,SP2 8TF,Wiltshire,South West,51.055286,-1.790171,200,OK
51.912743,0.719653,CO6 2LD,Braintree,East of England,51.912743,0.719653,200,OK
51.848035,0.203855,,,,,,200,OK
52.971616,-1.115952,NG4 1JY,Gedling,East Midlands,52.971616,-1.115952,200,OK
53.474503,-2.038199,SK15 2RJ,Tameside,North West,53.474503,-2.038199,200,OK
51.611372,-0.148349,N11 3AZ,Barnet,London,51.611372,-0.148349,200,OK
51.591452,-0.260466,NW9 0JL,Brent,London,51.591521,-0.260897,200,OK
52.571694,-0.244464,PE1 1WG,Peterborough,East of England,52.571694,-0.244464,200,OK
50.825258,-0.478067,BN16 4FH,Arun,South East,50.825258,-0.478067,200,OK
55.118619,-1.541747,NE24 4GJ,Northumberland,North East,55.118619,-1.541747,200,OK
52.639132,-1.074877,LE5 2AB,Leicester,East Midlands,52.639545,-1.074779,200,OK
51.6115,-0.157616,N12 0LX,Barnet,London,51.6115,-0.157616,200,OK
52.011504,-0.506846,MK45 1GJ,Central Bedfordshire,East of England,52.011504,-0.506846,200,OK
53.374814,-1.372433,S13 9NZ,Sheffield,Yorkshire and The Humber,53.374833,-1.372418,200,OK
51.379919,1.357081,CT9 5BX,Thanet,South East,51.379919,1.357081,200,OK
53.482962,-2.163943,M43 6WF,Tameside,North West,53.482962,-2.163943,200,OK
51.021581,-3.068082,TA1 2XA,Somerset,South West,51.021581,-3.068082,200,OK
52.453461,-1.769545,B26 3RX,Birmingham,West Midlands,52.453461,-1.769545,200,OK
52.214597,-4.359474,SA45 9QB,Ceredigion,,52.214215,-4.359673,200,OK
51.426314,-2.461674,BS30 6HY,South Gloucestershire,South West,51.426314,-2.461674,200,OK
51.492823,-0.162549,SW3 2QU,Kensington and Chelsea,London,51.492823,-0.162549,200,OK
53.336333,-1.965991,SK23 7NJ,High Peak,East Midlands,53.336477,-1.966397,200,OK
54.563348,-5.947953,BT9 5QH,Belfast,,54.563348,-5.947953,200,OK
51.740774,-2.281567,GL10 2BJ,Stroud,South West,51.74085,-2.281854,200,OK
54.861502,-1.488739,DH4 4TW,Sunderland,North East,54.861502,-1.488739,200,OK
53.024071,-2.217536,ST5 9LX,Newcastle-under-Lyme,West Midlands,53.02407,-2.217551,200,OK
51.548166,-2.553575,BS32 4NQ,South Gloucestershire,South West,51.548139,-2.553403,200,OK
52.398993,-1.812244,B90 4PT,Solihull,West Midlands,52.398985,-1.81295,200,OK
54.330455,-2.740249,LA9 7FD,Westmorland and Furness,North West,54.330455,-2.740249,200,OK
53.274559,-2.941701,CH66 4LZ,Cheshire West and Chester,North West,53.274391,-2.941428,200,OK
52.792452,-2.140081,ST17 9SL,Stafford,West Midlands,52.792452,-2.140081,200,OK
51.635023,0.043986,IG10 4RE,Epping Forest,East of England,51.635023,0.043986,200,OK
51.570231,-3.020048,NP20 3AY,Newport,,51.570228,-3.020437,200,OK
52.327144,1.093555,,,,,,200,OK
53.838768,-1.563432,LS6 4SD,Leeds,Yorkshire and The Humber,53.838949,-1.562999,200,OK
53.102257,-2.401043,CW1 5QH,Cheshire East,North West,53.102257,-2.401043,200,OK
51.61324,-0.184213,N12 8HJ,Barnet,London,51.613222,-0.184228,200,OK
53.417518,-3.04567,CH44 5UG,Wirral,North West,53.417446,-3.045653,200,OK
52.390636,-1.981867,B31 4NZ,Birmingham,West Midlands,52.390636,-1.981867,200,OK
50.234712,-3.77854,TQ8 8AW,South Hams,South West,50.234712,-3.77854,200,OK
53.436638,-1.972385,SK13 6UT,High Peak,East Midlands,53.436638,-1.972385,200,OK
52.750034,-1.487832,LE65 2LA,North West Leicestershire,East Midlands,52.750034,-1.487832,200,OK
51.464623,0.351794,RM18 7AD,Thurrock,East of England,51.464623,0.351794,200,OK
52.138928,-0.472884,MK40 2QD,Bedford,East of England,52.138999,-0.472837,200,OK
51.662009,-4.068659,SA4 6TZ,Swansea,,51.662009,-4.068659,200,OK
52.254685,-0.951792,NN5 6PP,West Northamptonshire,East Midlands,52.254844,-0.95173,200,OK
51.062297,-1.316261,SO23 9HJ,Winchester,South East,51.06218,-1.316292,200,OK
51.52316,-0.146308,W1B 1LT,Westminster,London,51.52281,-0.145774,200,OK
55.928224,-4.400949,G81 5JN,West Dunbartonshire,,55.928181,-4.401746,200,OK
54.564081,-0.96551,TS12 2NW,Redcar and Cleveland,North East,54.564081,-0.96551,200,OK
51.487404,-0.205705,W14 9XW,Hammersmith and Fulham,London,51.487404,-0.205705,200,OK
51.06613,-1.790122,SP1 2DX,Wiltshire,South West,51.066187,-1.789698,200,OK
50.493103,-4.133166,PL20 7NE,West Devon,South West,50.493103,-4.133166,200,OK
53.00944,-1.73913,DE6 1DX,Derbyshire Dales,East Midlands,53.00944,-1.73913,200,OK
53.822815,-2.671794,PR3 2BT,Preston,North West,53.822815,-2.671794,200,OK
56.183898,-3.964201,FK15 9EU,Stirling,,56.183898,-3.964201,200,OK
51.324661,-2.197279,BA14 7HT,Wiltshire,South West,51.324661,-2.197279,200,OK
53.836288,-1.789534,BD18 3JP,Bradford,Yorkshire and The Humber,53.836288,-1.789534,200,OK
53.060841,-0.813642,NG24 4LX,Newark and Sherwood,East Midlands,53.060841,-0.813642,200,OK
52.324552,1.141355,IP23 7BN,Mid Suffolk,East of England,52.324552,1.141355,200,OK
52.438281,-2.835399,SY7 9QL,Shropshire,West Midlands,52.438304,-2.83534,200,OK
54.968675,-2.405592,NE49 0LL,Northumberland,North East,54.968675,-2.405592,200,OK
51.553245,0.208184,RM12 4YB,Havering,London,51.553245,0.208184,200,OK
51.415294,-0.312375,KT1 4HD,Richmond upon Thames,London,51.415294,-0.312375,200,OK
53.159494,0.315606,PE25 1TF,East Lindsey,East Midlands,53.159494,0.315606,200,OK
51.58629,-2.535968,BS35 3RE,South Gloucestershire,South West,51.58629,-2.535968,200,OK
52.571791,0.859734,IP25 6JB,Breckland,East of England,52.571778,0.85974,200,OK
51.145262,0.092601,TN8 7HT,Sevenoaks,South East,51.145262,0.092601,200,OK
52.054624,-2.706809,HR1 2JU,"Herefordshire, County of",West Midlands,52.054772,-2.707498,200,OK
51.410792,-0.304481,KT1 1NX,Kingston upon Thames,London,51.4108,-0.304394,200,OK
52.924685,-4.416407,LL53 6YF,Gwynedd,,52.924685,-4.416407,200,OK
51.042677,-2.817431,TA10 9TL,Somerset,South West,51.042677,-2.817431,200,OK
50.913504,-1.412894,SO15 2HD,Southampton,South East,50.913443,-1.413336,200,OK
52.415523,-4.078007,SY23 1LX,Ceredigion,,52.415783,-4.077971,200,OK
54.580967,-1.24805,TS2 1HG,Middlesbrough,North East,54.581785,-1.247462,200,OK
57.971702,-7.057805,HS3 3AT,Na h-Eileanan Siar,,57.971693,-7.057821,200,OK
53.509823,-1.073445,DN4 6EU,Doncaster,Yorkshire and The Humber,53.509823,-1.073445,200,OK
52.717983,-2.114082,ST19 5JZ,South Staffordshire,West Midlands,52.717983,-2.114082,200,OK
51.344892,1.391431,CT12 6JH,Thanet,South East,51.344892,1.391431,200,OK
53.41423,-1.513231,S6 4AH,Sheffield,Yorkshire and The Humber,53.41423,-1.513231,200,OK
52.359777,-2.271318,DY11 7FB,Wyre Forest,West Midlands,52.359777,-2.271318,200,OK
53.692905,-2.254835,BB4 7HL,Rossendale,North West,53.692905,-2.254835,200,OK
50.900527,-1.18503,PO17 5HZ,Winchester,South East,50.900527,-1.18503,200,OK
53.774314,-2.704962,PR1 6AD,Preston,North West,53.774314,-2.704962,200,OK
53.952404,-1.088823,YO23 1BW,York,Yorkshire and The Humber,53.952431,-1.088861,200,OK
53.859348,-1.937627,BD22 6JY,Bradford,Yorkshire and The Humber,53.859348,-1.937627,200,OK
53.844001,-2.214307,BB9 8TF,Pendle,North West,53.84378,-2.215022,200,OK
53.082351,-1.3726,DE55 4JJ,Amber Valley,East Midlands,53.082351,-1.3726,200,OK
55.265567,-1.651487,NE61 5BD,Northumberland,North East,55.265567,-1.651487,200,OK
51.466429,-0.220767,SW15 1DW,Wandsworth,London,51.466411,-0.220729,200,OK
53.883868,-3.024567,FY5 2DD,Wyre,North West,53.883868,-3.024567,200,OK
51.536045,0.059231,E6 2ND,Newham,London,51.53637,0.05913,200,OK
53.407746,-1.512388,S6 4AZ,Sheffield,Yorkshire and The Humber,53.407968,-1.511874,200,OK
50.732428,-0.786092,PO20 0BW,Chichester,South East,50.732428,-0.786092,200,OK
52.44248,-1.874746,B13 9PG,Birmingham,West Midlands,52.442894,-1.875068,200,OK
53.494532,-2.880999,L33 1UH,Knowsley,North West,53.494532,-2.880999,200,OK
51.742515,-2.241036,GL5 4HY,Stroud,South West,51.742694,-2.241297,200,OK
52.488768,-1.968558,B67 6DL,Sandwell,West Midlands,52.488768,-1.968558,200,OK
53.692637,-2.099912,OL14 6SX,Calderdale,Yorkshire and The Humber,53.692691,-2.099897,200,OK
54.880935,-1.57121,DH3 2BL,Gateshead,North East,54.880935,-1.57121,200,OK
56.525454,-2.711794,DD7 6LE,Angus,,56.525454,-2.711794,200,OK
54.883881,-6.418675,BT44 8ES,Mid and East Antrim,,54.883881,-6.418675,200,OK
53.98355,-1.247761,YO26 8JN,North Yorkshire,Yorkshire and The Humber,53.983809,-1.247703,200,OK
51.501713,-2.589116,BS7 0TT,"Bristol, City of",South West,51.501713,-2.589116,200,OK
52.036105,-2.727028,HR2 7QD,"Herefordshire, County of",West Midlands,52.036105,-2.727028,200,OK
55.03511,-1.433899,NE30 4PL,North Tyneside,North East,55.03511,-1.433899,200,OK
51.746431,-0.360512,AL3 4JZ,St Albans,East of England,51.746431,-0.360512,200,OK
51.776844,-0.015859,EN11 9FF,Broxbourne,East of England,51.776844,-0.015859,200,OK
51.340267,0.542684,ME5 8PA,Medway,South East,51.340827,0.542615,200,OK
52.046281,-0.771572,MK13 8DN,Milton Keynes,South East,52.046281,-0.771572,200,OK
52.598314,-2.127834,WV10 6HH,Wolverhampton,West Midlands,52.598314,-2.127834,200,OK
52.773005,0.114503,PE12 9AU,South Holland,East Midlands,52.773005,0.114503,200,OK
52.691762,-2.002132,WS11 7YU,Cannock Chase,West Midlands,52.691762,-2.002132,200,OK
53.504648,-2.655262,WN4 0JT,Wigan,North West,53.504648,-2.655262,200,OK
52.46889,1.713122,NR33 9NP,East Suffolk,East of England,52.46889,1.713122,200,OK
52.293725,-1.544856,CV32 5NB,Warwick,West Midlands,52.293725,-1.544856,200,OK
52.557853,-0.263131,PE2 7UH,Peterborough,East of England,52.557889,-0.262525,200,OK
51.616925,-0.158942,N11 3LL,Barnet,London,51.616925,-0.158942,200,OK
53.155186,-2.159863,CW12 3QZ,Cheshire East,North West,53.155186,-2.159863,200,OK
53.555807,-2.447468,BL3 3HH,Bolton,North West,53.555807,-2.447468,200,OK
51.79161,1.164397,CO15 6JN,Tendring,East of England,51.79161,1.164397,200,OK
51.584897,-0.367531,HA2 7QQ,Harrow,London,51.584874,-0.367214,200,OK
57.43876,-6.58435,IV55 8WE,Highland,,57.43876,-6.58435,200,OK
51.550292,-3.395257,CF72 8LH,Rhondda Cynon Taf,,51.550292,-3.395257,200,OK
51.052615,-2.737553,TA11 6AP,Somerset,South West,51.052586,-2.737866,200,OK
55.85549,-4.280788,G51 1HF,Glasgow City,,55.855256,-4.280822,200,OK
51.461165,-2.55124,BS5 7AA,"Bristol, City of",South West,51.461165,-2.55124,200,OK
51.624949,0.341164,CM13 2LT,Brentwood,East of England,51.624949,0.341164,200,OK
53.749988,-0.428895,HU10 6QS,East Riding of Yorkshire,Yorkshire and The Humber,53.749988,-0.428895,200,OK
51.21022,-4.125642,EX34 8FJ,North Devon,South West,51.21022,-4.125642,200,OK
53.261042,-3.031594,CH64 5TU,Cheshire West and Chester,North West,53.261042,-3.031594,200,OK
54.755005,-6.516639,BT41 3SH,Mid Ulster,,54.755005,-6.516639,200,OK
53.252108,-4.132074,LL59 5PN,Isle of Anglesey,,53.252108,-4.132074,200,OK
56.821529,-2.81072,DD9 7UW,Angus,,56.821529,-2.81072,200,OK
55.07034,-3.570824,DG1 3JU,Dumfries and Galloway,,55.070612,-3.569926,200,OK
55.041061,-1.462138,NE25 8AP,North Tyneside,North East,55.041061,-1.462138,200,OK
54.407163,-6.160539,BT25 1PS,"Armagh City, Banbridge and Craigavon",,54.407163,-6.160539,200,OK
53.358178,-2.16166,SK7 2DS,Stockport,North West,53.358195,-2.161614,200,OK
52.199338,-0.877477,NN4 6JP,West Northamptonshire,East Midlands,52.199338,-0.877477,200,OK
52.543848,-1.384788,LE10 0SS,Hinckley and Bosworth,East Midlands,52.544215,-1.384621,200,OK
54.205464,-3.269463,LA18 4LS,Cumberland,North West,54.205464,-3.269463,200,OK
51.313204,-0.618565,GU21 2TL,Woking,South East,51.313204,-0.618565,200,OK
54.530436,-1.168763,TS7 0HT,Redcar and Cleveland,North East,54.530436,-1.168763,200,OK
52.421368,-1.900185,B14 6HE,Birmingham,West Midlands,52.421368,-1.900185,200,OK
51.061955,-1.319277,SO23 8GQ,Winchester,South East,51.061835,-1.318737,200,OK
51.148961,0.867973,TN23 1JZ,Ashford,South East,51.148961,0.867973,200,OK
51.332795,-0.087014,CR2 9JU,Croydon,London,51.332795,-0.087014,200,OK
51.588239,-0.199512,NW11 6AG,Barnet,London,51.588239,-0.199512,200,OK
55.827498,-4.052583,G71 5AG,North Lanarkshire,,55.827498,-4.052583,200,OK
53.540445,-1.608269,S36 7JN,Barnsley,Yorkshire and The Humber,53.540419,-1.60833,200,OK
50.783418,-0.671344,PO21 1LG,Arun,South East,50.783418,-0.671344,200,OK
51.351971,-1.138205,RG26 3LH,Basingstoke and Deane,South East,51.35197,-1.138147,200,OK
55.760619,-4.065802,ML3 8TW,South Lanarkshire,,55.760619,-4.065802,200,OK
54.310309,-5.830043,,,,,,200,OK
53.872989,-3.006856,FY5 4LY,Wyre,North West,53.872989,-3.006856,200,OK
52.835086,0.857053,NR21 8EX,North Norfolk,East of England,52.835086,0.857053,200,OK
52.051223,0.748787,CO10 0PN,Babergh,East of England,52.051223,0.748787,200,OK
53.686725,-1.644131,WF13 2RZ,Kirklees,Yorkshire and The Humber,53.686426,-1.643361,200,OK
53.828815,-1.721431,BD10 9FL,Bradford,Yorkshire and The Humber,53.828641,-1.721543,200,OK
55.803958,-3.911183,ML1 5RR,North Lanarkshire,,55.803958,-3.911183,200,OK
51.500087,-0.034848,SE16 5HE,Southwark,London,51.500087,-0.034848,200,OK
53.001204,-2.159993,ST4 2UU,Stoke-on-Trent,West Midlands,53.001204,-2.159993,200,OK
51.856047,-4.301452,SA31 1LP,Carmarthenshire,,51.856344,-4.302353,200,OK
51.438944,-3.176289,CF64 2AL,Vale of Glamorgan,,51.438953,-3.176303,200,OK
51.58052,-1.784459,SN2 1QG,Swindon,South West,51.58052,-1.784459,200,OK
55.956797,-3.137477,EH7 6PZ,City of Edinburgh,,55.956797,-3.137477,200,OK
56.960504,-2.206118,AB39 2LD,Aberdeenshire,,56.960504,-2.206118,200,OK
51.895689,-2.115814,GL51 6AH,Cheltenham,South West,51.895401,-2.115929,200,OK
54.892863,-4.07576,DG7 2AR,Dumfries and Galloway,,54.892863,-4.07576,200,OK
57.146528,-2.104278,AB10 1NL,Aberdeen City,,57.146617,-2.104444,200,OK
51.478047,-3.177467,CF10 1AD,Cardiff,,51.478047,-3.177467,200,OK
51.431191,-0.725777,RG42 6DH,Bracknell Forest,South East,51.431006,-0.725233,200,OK
55.869089,-4.371034,PA4 0YG,Renfrewshire,,55.869089,-4.371034,200,OK
53.734423,-1.869036,HX3 6PX,Calderdale,Yorkshire and The Humber,53.734423,-1.869036,200,OK
53.677022,-0.381529,DN19 7TJ,North Lincolnshire,Yorkshire and The Humber,53.677022,-0.381529,200,OK
53.369572,-1.207322,S25 2EZ,Rotherham,Yorkshire and The Humber,53.369572,-1.207322,200,OK
52.146342,0.133168,CB22 5FF,South Cambridgeshire,East of England,52.146342,0.133168,200,OK
57.410233,-1.946056,AB42 0TH,Aberdeenshire,,57.410475,-1.946655,200,OK
52.285622,-1.149912,NN11 2HA,West Northamptonshire,East Midlands,52.285622,-1.149912,200,OK
51.552622,0.689051,SS0 0RT,Southend-on-Sea,East of England,51.552656,0.688966,200,OK
53.417791,-2.317719,M33 3NF,Trafford,North West,53.417791,-2.317719,200,OK
52.688263,0.165303,PE14 7AD,King's Lynn and West Norfolk,East of England,52.688244,0.165346,200,OK
50.685196,-1.526894,PO40 9JZ,Isle of Wight,South East,50.685196,-1.526894,200,OK
51.11099,-1.331814,SO21 2QW,Winchester,South East,51.11099,-1.331814,200,OK
51.503044,0.038463,E16 2FP,Newham,London,51.502282,0.038343,200,OK
51.526671,0.061965,E6 6DG,Newham,London,51.526657,0.061734,200,OK
53.398995,-0.823781,DN10 4PT,Bassetlaw,East Midlands,53.399025,-0.823737,200,OK
50.42789,-3.590106,TQ4 7HH,Torbay,South West,50.42789,-3.590106,200,OK
55.937287,-3.483182,EH52 6XL,West Lothian,,55.937287,-3.483182,200,OK
55.852404,-4.439905,PA3 1QS,Renfrewshire,,55.85265,-4.439297,200,OK
51.172701,-2.139442,BA12 7AG,Wiltshire,South West,51.172701,-2.139442,200,OK
52.917807,-1.39628,DE21 7QF,Derby,East Midlands,52.917807,-1.39628,200,OK
52.236281,-0.894602,NN1 1DN,West Northamptonshire,East Midlands,52.236281,-0.894602,200,OK
52.632061,1.314271,NR1 4JH,Norwich,East of England,52.632061,1.314271,200,OK
51.23401,-0.32847,RH4 1YA,Mole Valley,South East,51.233927,-0.32833,200,OK
53.46422,-2.260843,M16 7PQ,Trafford,North West,53.46422,-2.260843,200,OK
52.002373,-0.466703,MK45 5DB,Central Bedfordshire,East of England,52.002373,-0.466703,200,OK
53.323392,-1.362693,S20 5PG,Sheffield,Yorkshire and The Humber,53.323402,-1.362709,200,OK
54.900283,-4.379359,DG8 7JF,Dumfries and Galloway,,54.900303,-4.379271,200,OK
53.53807,-2.791292,WN8 9TG,West Lancashire,North West,53.53807,-2.791292,200,OK
54.665557,-3.359468,CA13 9HU,Cumberland,North West,54.665557,-3.359468,200,OK
50.861013,-2.160233,DT11 7JS,Dorset,South West,50.861013,-2.160233,200,OK
51.36508,0.509794,ME1 2BG,Medway,South East,51.36508,0.509794,200,OK
54.935754,-1.59794,NE9 5JB,Gateshead,North East,54.935618,-1.597707,200,OK
51.596876,-0.394418,HA5 3NR,Harrow,London,51.596876,-0.394418,200,OK
55.772004,-4.193923,G74 4PL,South Lanarkshire,,55.772004,-4.193923,200,OK
55.125614,-1.509584,NE24 2JN,Northumberland,North East,55.125614,-1.509584,200,OK
51.881687,-0.431119,LU1 1ND,Luton,East of England,51.881687,-0.431119,200,OK
51.327076,0.879307,ME13 7TW,Swale,South East,51.326702,0.88059,200,OK
54.126472,-0.97593,YO60 6PX,North Yorkshire,Yorkshire and The Humber,54.126472,-0.97593,200,OK
53.590759,-1.85552,HD9 5JL,Kirklees,Yorkshire and The Humber,53.590723,-1.855505,200,OK
51.7706,-0.928397,HP17 8AX,Buckinghamshire,South East,51.7706,-0.928397,200,OK
52.068321,1.135865,IP1 4BW,Ipswich,East of England,52.068321,1.135865,200,OK
54.941034,-1.366928,SR6 8BB,Sunderland,North East,54.941034,-1.366928,200,OK
51.40247,-1.328095,RG14 1BN,West Berkshire,South East,51.40247,-1.328095,200,OK
54.338845,-2.739447,LA9 6DL,Westmorland and Furness,North West,54.338845,-2.739447,200,OK
54.067779,-2.831787,LA4 6PL,Lancaster,North West,54.067779,-2.831787,200,OK
51.798774,-5.004396,SA61 1DQ,Pembrokeshire,,51.798774,-5.004396,200,OK
50.776566,0.107577,BN25 3EU,Lewes,South East,50.776566,0.107577,200,OK
52.774589,-1.206,LE11 1UW,Charnwood,East Midlands,52.774537,-1.20595,200,OK
52.925743,-1.129397,NG2 6ES,Rushcliffe,East Midlands,52.925743,-1.129397,200,OK
51.626754,-0.115681,N13 4BA,Enfield,London,51.626754,-0.115681,200,OK
55.752967,-3.605355,ML11 8EL,South Lanarkshire,,55.752967,-3.605355,200,OK
56.003169,-2.513844,EH42 1HG,East Lothian,,56.003169,-2.513844,200,OK
53.476942,-2.054579,SK15 2HG,Tameside,North West,53.476942,-2.054579,200,OK
53.631094,-2.334714,BL0 9SJ,Bury,North West,53.631094,-2.334714,200,OK
55.934166,-3.23153,EH11 1QL,City of Edinburgh,,55.934166,-3.23153,200,OK
53.456234,-1.979119,SK13 2EA,High Peak,East Midlands,53.456036,-1.979586,200,OK
51.552075,0.195446,RM12 4PY,Havering,London,51.552075,0.195446,200,OK
51.504593,-3.243522,CF5 2RF,Cardiff,,51.504593,-3.243522,200,OK
52.511858,-1.932751,B20 2HB,Birmingham,West Midlands,52.511858,-1.932751,200,OK
51.875613,-1.096595,OX25 1UL,Cherwell,South East,51.875594,-1.096552,200,OK
51.486055,-3.175153,CF10 3BJ,Cardiff,,51.486245,-3.175109,200,OK
50.744344,-1.978263,BH17 0RW,"Bournemouth, Christchurch and Poole",South West,50.744344,-1.978263,200,OK
53.186082,-0.577843,LN6 8UH,North Kesteven,East Midlands,53.186082,-0.577843,200,OK
57.283298,-2.383697,AB51 3YU,Aberdeenshire,,57.283298,-2.383697,200,OK
52.753915,-1.44347,LE65 1DS,North West Leicestershire,East Midlands,52.753915,-1.44347,200,OK
51.496222,-0.192033,W8 5LH,Kensington and Chelsea,London,51.496222,-0.192033,200,OK
51.601901,-0.086541,N17 7DN,Haringey,London,51.601427,-0.08655,200,OK
51.118685,-0.015625,RH19 4DG,Mid Sussex,South East,51.118685,-0.015625,200,OK
51.063146,-1.307218,SO23 0EP,Winchester,South East,51.063146,-1.307218,200,OK
51.590094,0.450309,SS15 4JB,Basildon,East of England,51.590094,0.450309,200,OK
52.430735,-1.443018,CV2 2PA,Coventry,West Midlands,52.430735,-1.443018,200,OK
53.746844,-0.345574,HU2 8NA,"Kingston upon Hull, City of",Yorkshire and The Humber,53.746985,-0.346024,200,OK
50.818065,0.319795,BN24 5JD,Wealden,South East,50.818065,0.319795,200,OK
51.269615,0.402136,ME19 4RU,Tonbridge and Malling,South East,51.269615,0.402136,200,OK
52.138837,-1.990559,WR11 4SD,Wychavon,West Midlands,52.138837,-1.990559,200,OK
51.410531,-0.06147,SE20 8EZ,Bromley,London,51.410567,-0.06144,200,OK
54.513266,-3.580169,CA28 9UN,Cumberland,North West,54.513266,-3.580169,200,OK
54.662719,-1.626885,DL14 8NJ,County Durham,North East,54.662719,-1.626885,200,OK
50.853561,-0.785948,PO19 5RX,Chichester,South East,50.853561,-0.785948,200,OK
51.270432,-1.120092,RG23 8EA,Basingstoke and Deane,South East,51.270432,-1.120092,200,OK
53.934104,-1.111581,YO24 1UP,York,Yorkshire and The Humber,53.934033,-1.111728,200,OK
51.506666,-0.147183,W1J 7TZ,Westminster,London,51.506666,-0.147183,200,OK
53.741693,-2.497777,BB2 2AE,Blackburn with Darwen,North West,53.741693,-2.497777,200,OK
52.422422,-1.806836,B91 1ES,Solihull,West Midlands,52.422422,-1.806836,200,OK
51.566141,-1.798218,SN2 2AR,Swindon,South West,51.566141,-1.798218,200,OK
52.51339,-1.940912,B21 8EQ,Birmingham,West Midlands,52.51339,-1.940912,200,OK
50.765918,-1.932127,BH11 9PB,"Bournemouth, Christchurch and Poole",South West,50.765918,-1.932127,200,OK
51.496756,-3.184072,CF24 4JY,Cardiff,,51.496698,-3.183552,200,OK
51.789242,-2.613052,GL16 8RD,Forest of Dean,South West,51.789242,-2.613052,200,OK
53.051473,-2.144605,ST2 7DD,Stoke-on-Trent,West Midlands,53.051473,-2.144605,200,OK
50.951274,0.909999,TN29 9EP,Folkestone and Hythe,South East,50.951274,0.909999,200,OK
52.206794,0.86751,IP30 9UN,Mid Suffolk,East of England,52.206794,0.86751,200,OK
51.816235,-0.813293,HP20 2PN,Buckinghamshire,South East,51.816235,-0.813293,200,OK
50.878197,-0.994554,PO9 4EJ,Havant,South East,50.878197,-0.994554,200,OK
54.550014,-1.181275,TS7 9PD,Middlesbrough,North East,54.550014,-1.181275,200,OK
52.713623,-2.751626,SY1 2DS,Shropshire,West Midlands,52.713623,-2.751626,200,OK
53.581299,-2.434959,BL1 2BZ,Bolton,North West,53.581517,-2.434433,200,OK
55.890918,-4.367105,G13 4QY,Glasgow City,,55.890973,-4.367076,200,OK
53.479351,-1.055077,DN11 0HD,Doncaster,Yorkshire and The Humber,53.479351,-1.055077,200,OK
55.492768,-3.693652,ML12 6SB,South Lanarkshire,,55.492768,-3.693652,200,OK
53.50837,-1.378077,S73 0UB,Rotherham,Yorkshire and The Humber,53.50837,-1.378077,200,OK
54.019838,-2.882159,LA3 3LQ,Lancaster,North West,54.019838,-2.882159,200,OK
51.433074,-2.490916,BS30 9AB,South Gloucestershire,South West,51.433074,-2.490916,200,OK
53.504656,-1.161307,DN4 0SG,Doncaster,Yorkshire and The Humber,53.504656,-1.161307,200,OK
53.997893,-1.530508,HG1 5DD,North Yorkshire,Yorkshire and The Humber,53.997893,-1.530508,200,OK
52.886933,-2.464028,TF9 2AQ,Shropshire,West Midlands,52.886933,-2.464028,200,OK
51.422461,-0.847581,RG41 1JT,Wokingham,South East,51.422461,-0.847581,200,OK
51.555641,-0.251187,NW10 1PL,Brent,London,51.555641,-0.251187,200,OK
52.406837,-0.728903,NN16 9DP,North Northamptonshire,East Midlands,52.406837,-0.728903,200,OK
50.945775,-1.128625,SO32 3PG,Winchester,South East,50.945775,-1.128625,200,OK
52.600128,-1.161098,LE2 8LN,Leicester,East Midlands,52.600128,-1.161098,200,OK
51.461122,-2.593328,BS2 8NQ,"Bristol, City of",South West,51.461122,-2.593328,200,OK
51.644472,-3.061978,NP44 6JT,Torfaen,,51.644472,-3.061978,200,OK
56.109255,-3.34553,KY4 9QQ,Fife,,56.109255,-3.34553,200,OK
51.583251,-1.783089,SN2 1QY,Swindon,South West,51.583251,-1.783089,200,OK
53.85404,-1.618512,LS16 7DL,Leeds,Yorkshire and The Humber,53.85404,-1.618512,200,OK
51.676665,0.295531,CM15 0DX,Brentwood,East of England,51.676665,0.295531,200,OK
53.976661,-1.543782,HG2 9QN,North Yorkshire,Yorkshire and The Humber,53.976417,-1.544126,200,OK
52.461705,-1.870629,B11 1LX,Birmingham,West Midlands,52.461705,-1.870629,200,OK
57.525537,-2.777913,AB54 7LW,Moray,,57.525537,-2.777913,200,OK
52.414218,0.746062,IP24 3AY,Breckland,East of England,52.414218,0.746062,200,OK
53.188226,-3.402271,LL16 3HZ,Denbighshire,,53.188558,-3.40306,200,OK
53.374165,-3.164859,CH48 6EB,Wirral,North West,53.374804,-3.164862,200,OK
55.159793,-1.607995,NE62 5PQ,Northumberland,North East,55.159793,-1.607995,200,OK
53.397386,-2.3676,WA14 5QL,Trafford,North West,53.397386,-2.3676,200,OK
53.883721,-3.00579,FY5 4HU,Wyre,North West,53.883721,-3.00579,200,OK
55.94887,-4.557568,G82 2HB,West Dunbartonshire,,55.94887,-4.557568,200,OK
51.492888,-0.157519,SW1W 8EG,Kensington and Chelsea,London,51.492989,-0.157083,200,OK
50.428379,-3.688806,TQ9 5TF,South Hams,South West,50.428379,-3.688806,200,OK
53.636266,-1.81019,HD4 5DY,Kirklees,Yorkshire and The Humber,53.636266,-1.81019,200,OK
51.410075,-2.607634,BS13 9PW,"Bristol, City of",South West,51.410075,-2.607634,200,OK
51.807936,-1.129974,OX33 1BN,Cherwell,South East,51.80815,-1.129723,200,OK
51.859854,0.524012,CM77 7WX,Braintree,East of England,51.859854,0.524012,200,OK
53.090181,-2.820275,CH3 9EN,Cheshire West and Chester,North West,53.090197,-2.820275,200,OK
53.569965,-2.43978,BL3 6JW,Bolton,North West,53.569965,-2.43978,200,OK
53.382168,-3.091425,CH49 9BA,Wirral,North West,53.382168,-3.091425,200,OK
54.953579,-1.550841,NE10 0YR,Gateshead,North East,54.953579,-1.550841,200,OK
51.751877,0.114832,CM18 7HJ,Harlow,East of England,51.751877,0.114832,200,OK
54.033701,-1.034814,YO32 5UQ,York,Yorkshire and The Humber,54.033709,-1.034778,200,OK
55.896367,-3.511126,EH54 6AJ,West Lothian,,55.896367,-3.511126,200,OK
52.783963,-1.227417,LE11 5TE,Charnwood,East Midlands,52.783963,-1.227417,200,OK
53.403467,-3.108501,CH46 8TB,Wirral,North West,53.403892,-3.108301,200,OK
54.08748,-2.678647,LA2 9JF,Lancaster,North West,54.08748,-2.678647,200,OK
53.534834,-2.405409,M28 3GG,Salford,North West,53.534834,-2.405409,200,OK
51.924269,0.383065,CM6 3QN,Uttlesford,East of England,51.924269,0.383065,200,OK
56.484193,-2.932474,DD4 8HA,Dundee City,,56.484193,-2.932474,200,OK
51.659176,-3.933111,SA6 7QF,Swansea,,51.659176,-3.933111,200,OK
50.752738,-1.311509,PO31 7UD,Isle of Wight,South East,50.752738,-1.311509,200,OK
57.149245,-2.109839,AB25 1US,Aberdeen City,,57.149247,-2.109846,200,OK
52.245312,-0.558297,MK44 1EY,Bedford,East of England,52.245312,-0.558297,200,OK
54.906504,-5.039671,DG9 0AP,Dumfries and Galloway,,54.906504,-5.039671,200,OK
52.57872,-1.033351,LE8 9DX,Harborough,East Midlands,52.578711,-1.033366,200,OK
50.821349,-1.770465,BH24 3BU,New Forest,South East,50.821349,-1.770465,200,OK
54.142125,-0.45129,YO25 3QG,North Yorkshire,Yorkshire and The Humber,54.142104,-0.452408,200,OK
52.605548,-1.976803,WS3 1SL,Walsall,West Midlands,52.606007,-1.976596,200,OK
51.858179,-2.192623,GL3 3DR,Gloucester,South West,51.858179,-2.192623,200,OK
51.585907,-1.424277,OX12 8FJ,Vale of White Horse,South East,51.585907,-1.424277,200,OK
53.232055,-4.117697,LL57 1DG,Gwynedd,,53.232055,-4.117697,200,OK
51.531278,0.155863,RM10 9AR,Barking and Dagenham,London,51.531278,0.155863,200,OK
55.009407,-1.459278,NE29 0LB,North Tyneside,North East,55.009407,-1.459278,200,OK
53.471418,-1.076345,DN11 0JU,Doncaster,Yorkshire and The Humber,53.471418,-1.076345,200,OK
53.089675,-1.375826,,,,,,200,OK
52.635901,0.190442,PE14 0EA,King's Lynn and West Norfolk,East of England,52.635873,0.190515,200,OK
55.02437,-1.531107,NE12 9SU,North Tyneside,North East,55.02437,-1.531107,200,OK
56.597801,-2.952515,DD8 1TY,Angus,,56.597801,-2.952515,200,OK
51.429986,-0.095674,SE27 9PN,Lambeth,London,51.429986,-0.095674,200,OK
53.668531,-1.569622,WF5 0TJ,Wakefield,Yorkshire and The Humber,53.668531,-1.569622,200,OK
51.438956,0.152491,DA5 3LZ,Bexley,London,51.439009,0.152563,200,OK
52.340944,1.203676,IP21 5AJ,Mid Suffolk,East of England,52.340944,1.203676,200,OK
51.484501,-0.208771,SW6 7ST,Hammersmith and Fulham,London,51.484501,-0.208771,200,OK
55.764658,-2.017967,,,,,,200,OK
52.583112,-2.348217,WV15 5LL,Shropshire,West Midlands,52.583112,-2.348217,200,OK
51.751865,0.465186,CM1 4BZ,Chelmsford,East of England,51.751865,0.465186,200,OK
53.440452,-1.386626,S61 3RL,Rotherham,Yorkshire and The Humber,53.440452,-1.386626,200,OK
51.452172,-0.994304,RG30 2TZ,Reading,South East,51.452174,-0.994491,200,OK
51.693907,-0.382422,WD25 9NR,Watford,East of England,51.693284,-0.382907,200,OK
52.464724,-1.895775,B5 7PY,Birmingham,West Midlands,52.464724,-1.895775,200,OK
53.399433,-0.774346,DN21 2BE,West Lindsey,East Midlands,53.3999,-0.774287,200,OK
50.391024,-4.110149,,,,,,200,OK
51.195847,-2.301385,BA11 5LQ,Somerset,South West,51.195847,-2.301385,200,OK
53.479698,-1.077657,DN11 0TP,Doncaster,Yorkshire and The Humber,53.479698,-1.077657,200,OK
53.572629,-1.064447,DN3 1LJ,Doncaster,Yorkshire and The Humber,53.572629,-1.064447,200,OK
57.407232,-4.32719,IV2 6EL,Highland,,57.407232,-4.32719,200,OK
57.163404,-2.165054,AB16 7JP,Aberdeen City,,57.163593,-2.165088,200,OK
51.431741,0.072305,SE9 3JU,Greenwich,London,51.431741,0.072305,200,OK
51.225984,1.40412,CT14 6JQ,Dover,South East,51.225984,1.40412,200,OK
53.800638,-0.333481,HU7 3EA,"Kingston upon Hull, City of",Yorkshire and The Humber,53.800638,-0.333481,200,OK
53.390138,-1.476546,S6 3AF,Sheffield,Yorkshire and The Humber,53.390138,-1.476546,200,OK
51.335724,0.736624,ME10 4DU,Swale,South East,51.335724,0.736624,200,OK
55.125523,-1.717189,NE61 6BT,Northumberland,North East,55.125523,-1.717189,200,OK
52.506939,-1.885038,B6 6JD,Birmingham,West Midlands,52.506459,-1.884593,200,OK
54.55281,-5.984359,BT10 0GH,Belfast,,54.55281,-5.984359,200,OK
50.385115,-3.914788,PL21 0YD,South Hams,South West,50.385115,-3.914788,200,OK
54.789767,-6.949613,BT79 8LX,Derry City and Strabane,,54.789767,-6.949613,200,OK
51.373144,-0.2745,,,,,,200,OK
52.42404,-1.403015,CV7 9JR,Rugby,West Midlands,52.42404,-1.40303,200,OK
51.339648,-0.452265,KT11 1EA,Elmbridge,South East,51.339648,-0.452265,200,OK
50.858605,-1.191657,PO16 7PA,Fareham,South East,50.858605,-1.191657,200,OK
52.524091,-1.21103,LE9 6TL,Harborough,East Midlands,52.524091,-1.21103,200,OK
53.317888,-1.913032,SK23 0NE,High Peak,East Midlands,53.31787,-1.913033,200,OK
51.541136,0.686368,SS0 8BH,Southend-on-Sea,East of England,51.541136,0.686368,200,OK
51.478325,-0.652348,SL4 4LD,Windsor and Maidenhead,South East,51.478325,-0.652348,200,OK
53.788564,-1.376678,LS25 2QL,Leeds,Yorkshire and The Humber,53.788564,-1.376678,200,OK
52.663786,-2.47062,TF4 3AL,Telford and Wrekin,West Midlands,52.663786,-2.47062,200,OK
55.929832,-4.163872,G66 4AS,East Dunbartonshire,,55.929832,-4.163872,200,OK
51.620906,-3.944706,SA1 5HG,Swansea,,51.620906,-3.944706,200,OK
53.401586,-2.93199,L15 4AA,Liverpool,North West,53.401586,-2.93199,200,OK
51.66044,-1.296183,OX14 5QA,Vale of White Horse,South East,51.66044,-1.296183,200,OK
51.022311,-3.362275,TA4 2QU,Somerset,South West,51.02244,-3.361238,200,OK
55.943791,-3.045719,EH21 7AE,East Lothian,,55.943791,-3.045719,200,OK
51.530314,-2.422535,BS37 4LX,South Gloucestershire,South West,51.530332,-2.422535,200,OK
54.333024,-1.438423,DL7 8DD,North Yorkshire,Yorkshire and The Humber,54.333024,-1.438423,200,OK
55.196582,-6.282454,,,,,,200,OK
51.58539,-2.782566,NP26 3UA,Monmouthshire,,51.58539,-2.782566,200,OK
55.778486,-4.139782,G74 3PH,South Lanarkshire,,55.778479,-4.140212,200,OK
53.316919,-1.526766,S17 4DQ,Sheffield,Yorkshire and The Humber,53.316919,-1.526766,200,OK
53.366868,-2.728453,WA8 6FS,Halton,North West,53.366868,-2.728453,200,OK
53.956082,-1.039472,YO10 3BJ,York,Yorkshire and The Humber,53.956082,-1.039472,200,OK
52.460643,-1.778441,B26 3TS,Birmingham,West Midlands,52.460643,-1.778441,200,OK
51.197951,0.065031,TN8 5QF,Sevenoaks,South East,51.197951,0.065031,200,OK
52.910474,-2.154305,ST15 8LL,Stafford,West Midlands,52.910474,-2.154305,200,OK
51.861762,-2.243231,GL1 1RE,Gloucester,South West,51.861762,-2.243231,200,OK
51.405441,0.194038,BR8 7WX,Sevenoaks,South East,51.405441,0.194038,200,OK
53.734024,-2.479872,BB2 3LH,Blackburn with Darwen,North West,53.733549,-2.480263,200,OK
52.144448,-0.473841,MK41 7RU,Bedford,East of England,52.14447,-0.473878,200,OK
51.880631,0.167671,,,,,,200,OK
50.345271,-5.154753,TR6 0PS,Cornwall,South West,50.345271,-5.154753,200,OK
52.564741,-2.163193,WV4 4EJ,Wolverhampton,West Midlands,52.564741,-2.163193,200,OK
56.333815,-2.877706,KY16 9RT,Fife,,56.333806,-2.87771,200,OK
50.940252,0.269231,TN21 9AT,Wealden,South East,50.939751,0.269349,200,OK
53.731434,-1.723211,BD19 6HY,Kirklees,Yorkshire and The Humber,53.731434,-1.723211,200,OK
53.99593,-1.529477,HG1 5AL,North Yorkshire,Yorkshire and The Humber,53.99572,-1.528778,200,OK
52.685322,1.216071,NR8 6FB,Broadland,East of England,52.685322,1.216071,200,OK
53.286325,-2.93146,CH66 1NX,Cheshire West and Chester,North West,53.286702,-2.932683,200,OK
50.35295,-4.103793,PL9 9NN,Plymouth,South West,50.35295,-4.103793,200,OK
52.184127,0.167627,CB1 8HD,Cambridge,East of England,52.184127,0.167627,200,OK
51.518296,-0.058538,E1 1BA,Tower Hamlets,London,51.518986,-0.058898,200,OK
51.383398,-2.818617,BS49 4HF,North Somerset,South West,51.383426,-2.818148,200,OK
51.513315,-2.606298,BS10 6QS,"Bristol, City of",South West,51.513315,-2.606298,200,OK
51.431066,-2.870353,BS21 7UJ,North Somerset,South West,51.431066,-2.870353,200,OK
51.81146,-0.296558,AL4 8FL,St Albans,East of England,51.81146,-0.296558,200,OK
52.594866,-0.244689,PE1 3PR,Peterborough,East of England,52.594866,-0.244689,200,OK
51.88455,0.581156,CM7 9EX,Braintree,East of England,51.88455,0.581156,200,OK
57.607768,-3.622846,IV36 1ES,Moray,,57.607929,-3.622937,200,OK
50.870208,-2.964895,TA20 2AL,Somerset,South West,50.87054,-2.964993,200,OK
51.55797,0.707041,SS2 6AX,Southend-on-Sea,East of England,51.55797,0.707041,200,OK
51.389312,1.413637,CT9 3NP,Thanet,South East,51.389312,1.413637,200,OK
51.387879,-2.170261,SN12 8EU,Wiltshire,South West,51.387879,-2.170261,200,OK
51.524712,-0.39357,UB4 9DR,Hillingdon,London,51.524712,-0.39357,200,OK
53.481612,-1.328349,S64 8EX,Rotherham,Yorkshire and The Humber,53.481612,-1.328349,200,OK
56.423509,-2.865959,DD6 9PE,Fife,,56.423509,-2.865959,200,OK
53.79818,-2.718146,PR2 3LJ,Preston,North West,53.79818,-2.718146,200,OK
51.439393,0.153145,DA5 3LY,Bexley,London,51.439393,0.153145,200,OK
52.567206,-2.070772,WV14 7PJ,Wolverhampton,West Midlands,52.567386,-2.07036,200,OK
51.604979,0.234912,RM3 9PH,Havering,London,51.604943,0.235037,200,OK
53.350062,-1.987642,SK23 7QR,High Peak,East Midlands,53.350062,-1.987642,200,OK
52.955002,-1.214266,NG8 2BH,Nottingham,East Midlands,52.955002,-1.214266,200,OK
51.527925,-0.181853,W9 1RU,Westminster,London,51.527925,-0.181853,200,OK
51.386602,-0.795782,RG40 3AQ,Wokingham,South East,51.386602,-0.795782,200,OK
50.919979,-3.381351,EX16 7SF,Mid Devon,South West,50.92012,-3.381027,200,OK
