lat,lon,postcode,admin_district,region,latitude,longitude,estado_api,descripcion_estado
51.665276,-1.174365,OX10 7NF,South Oxfordshire,South East,51.66535,-1.174739,200,OK
51.121052,-0.003563,RH19 4TA,Mid Sussex,South East,51.121052,-0.003563,200,OK
54.277377,-0.427944,YO12 5BX,North Yorkshire,Yorkshire and The Humber,54.277377,-0.427944,200,OK
52.984313,-1.07936,NG4 4NZ,Gedling,East Midlands,52.984293,-1.079364,200,OK
54.598436,-5.926921,BT1 4FT,Belfast,,54.59835,-5.927142,200,OK
51.453317,-0.183754,SW18 2DX,Wandsworth,London,51.453317,-0.183754,200,OK
55.549364,-4.636921,KA10 7BQ,South Ayrshire,,55.549364,-4.636921,200,OK
54.869585,-1.440582,SR3 3SD,Sunderland,North East,54.869513,-1.440708,200,OK
56.218384,-2.83422,,,,,,200,OK
52.790703,1.232393,NR11 6FG,Broadland,East of England,52.790694,1.232393,200,OK
51.536924,-0.072831,E8 4FP,Hackney,London,51.536924,-0.072831,200,OK
53.194791,-2.441258,CW10 9NY,Cheshire East,North West,53.194791,-2.441258,200,OK
52.353287,-1.963676,B48 7PW,Bromsgrove,West Midlands,52.353287,-1.963676,200,OK
51.439672,-0.655083,,,,,,200,OK
52.663464,1.262228,NR6 5SR,Broadland,East of England,52.663651,1.262301,200,OK
58.441379,-3.088322,KW1 5EL,Highland,,58.441607,-3.08837,200,OK
52.916553,-1.19661,NG9 1NL,Broxtowe,East Midlands,52.916553,-1.19661,200,OK
51.371884,-2.793012,BS49 5AW,North Somerset,South West,51.371882,-2.793017,200,OK
53.498134,-1.276171,S64 0DR,Doncaster,Yorkshire and The Humber,53.498134,-1.276171,200,OK
52.613498,-2.091509,WV11 1EX,Wolverhampton,West Midlands,52.613498,-2.091509,200,OK
51.697789,-2.222223,GL6 0NS,Stroud,South West,51.697789,-2.222223,200,OK
53.191001,-3.413932,LL16 5TX,Denbighshire,,53.190728,-3.413954,200,OK
55.842904,-3.195457,EH26 0ND,Midlothian,,55.842904,-3.195457,200,OK
51.538937,-2.15035,SN14 6HQ,Wiltshire,South West,51.538937,-2.15035,200,OK
51.290609,-1.050841,RG24 8LP,Basingstoke and Deane,South East,51.290609,-1.050841,200,OK
50.347303,-4.72844,PL24 2HA,Cornwall,South West,50.347303,-4.72844,200,OK
53.14804,-1.570549,DE4 3NE,Derbyshire Dales,East Midlands,53.14804,-1.570549,200,OK
53.549597,-2.104962,OL1 3RB,Oldham,North West,53.549597,-2.104962,200,OK
53.695367,-2.690026,PR25 3EA,South Ribble,North West,53.695367,-2.690026,200,OK
54.61759,-5.953196,BT14 6JB,Belfast,,54.61759,-5.953196,200,OK
53.447925,-2.389282,M41 6JU,Trafford,North West,53.447925,-2.389282,200,OK
57.157267,-2.179673,AB16 6RF,Aberdeen City,,57.157234,-2.179678,200,OK
53.276438,-2.758887,WA6 9LD,Cheshire West and Chester,North West,53.276438,-2.758887,200,OK
51.726543,-3.133601,NP13 1DS,Blaenau Gwent,,51.726993,-3.132627,200,OK
53.007182,-2.206319,ST4 7PA,Stoke-on-Trent,West Midlands,53.007182,-2.206319,200,OK
55.965204,-3.262378,EH4 5QA,City of Edinburgh,,55.965204,-3.262378,200,OK
52.617315,0.584705,PE37 8BB,Breckland,East of England,52.617315,0.584705,200,OK
53.498221,-2.257735,M7 2XN,Salford,North West,53.498176,-2.25772,200,OK
51.603848,0.530654,SS12 9QP,Basildon,East of England,51.603848,0.530654,200,OK
53.383286,-3.099858,CH49 0UJ,Wirral,North West,53.383286,-3.099858,200,OK
54.780083,-1.676522,DH7 9QD,County Durham,North East,54.780083,-1.676522,200,OK
52.145313,0.144285,CB22 5DW,South Cambridgeshire,East of England,52.145313,0.144285,200,OK
53.137798,-1.192385,NG18 2RB,Mansfield,East Midlands,53.137798,-1.192385,200,OK
51.252339,-3.000429,TA8 2PB,Somerset,South West,51.252339,-3.000429,200,OK
51.491435,-3.175767,CF24 4BP,Cardiff,,51.491435,-3.175767,200,OK
54.856871,-1.475383,DH4 4EP,Sunderland,North East,54.856871,-1.475383,200,OK
51.570193,-0.201942,NW11 8TE,Barnet,London,51.570187,-0.201903,200,OK
55.127397,-1.515083,NE24 1DL,Northumberland,North East,55.127397,-1.515083,200,OK
52.571137,-2.040527,WS10 8NP,Walsall,West Midlands,52.571137,-2.040527,200,OK
51.403548,-0.462545,TW17 0EY,Spelthorne,South East,51.403548,-0.462545,200,OK
51.237691,-0.562239,GU1 3LD,Guildford,South East,51.237691,-0.562239,200,OK
53.065357,-3.020703,LL11 4YQ,Wrexham,,53.065368,-3.020479,200,OK
50.836782,-0.068694,BN2 6SP,Brighton and Hove,South East,50.83676,-0.068823,200,OK
50.744002,-1.594602,SO41 0LW,New Forest,South East,50.744679,-1.595177,200,OK
51.117719,-0.183957,RH10 8BH,Crawley,South East,51.117719,-0.183957,200,OK
51.583936,-0.353478,HA1 4NE,Harrow,London,51.583893,-0.353457,200,OK
51.724046,-1.429054,OX29 7RT,West Oxfordshire,South East,51.723952,-1.429228,200,OK
55.945218,-4.8199,PA16 0LG,Inverclyde,,55.945196,-4.819831,200,OK
53.054428,-0.513189,LN5 0DL,North Kesteven,East Midlands,53.054428,-0.513189,200,OK
51.119823,0.249012,TN2 5QH,Tunbridge Wells,South East,51.119823,0.249012,200,OK
53.712771,-1.629719,WF17 5HJ,Kirklees,Yorkshire and The Humber,53.712771,-1.629719,200,OK
54.038147,-1.03888,YO32 5UJ,York,Yorkshire and The Humber,54.038155,-1.038859,200,OK
51.41103,-2.546999,BS14 8AD,"Bristol, City of",South West,51.411423,-2.547148,200,OK
54.507871,-1.313841,TS17 0FH,Stockton-on-Tees,North East,54.507871,-1.313841,200,OK
53.55654,-2.205559,M24 5RW,Rochdale,North West,53.55654,-2.205559,200,OK
55.827714,-4.218152,G73 2LB,South Lanarkshire,,55.82734,-4.217223,200,OK
51.358089,-2.119726,SN12 6FJ,Wiltshire,South West,51.358089,-2.119726,200,OK
52.658627,-0.300643,PE6 9DA,Peterborough,East of England,52.658635,-0.300598,200,OK
55.205694,-6.527161,BT57 8PT,Causeway Coast and Glens,,55.205694,-6.527161,200,OK
54.761936,-5.709819,BT38 9NU,Mid and East Antrim,,54.761936,-5.709819,200,OK
51.622751,0.530666,SS11 7JQ,Chelmsford,East of England,51.622751,0.530666,200,OK
55.173424,-1.565157,NE63 0LH,Northumberland,North East,55.173424,-1.565157,200,OK
53.564094,-2.334077,M26 4BW,Bury,North West,53.564023,-2.334001,200,OK
54.864816,-4.081793,DG6 4PU,Dumfries and Galloway,,54.864816,-4.081793,200,OK
53.407238,-1.447214,S4 8GB,Sheffield,Yorkshire and The Humber,53.40731,-1.447348,200,OK
51.42161,-2.217112,,,,,,200,OK
53.459813,-3.001374,L20 4NJ,Sefton,North West,53.459813,-3.001374,200,OK
53.085841,-2.456491,CW2 8AT,Cheshire East,North West,53.085841,-2.456491,200,OK
54.375655,-6.79454,BT60 4NU,"Armagh City, Banbridge and Craigavon",,54.375655,-6.79454,200,OK
51.719192,-0.830529,HP27 0DR,Buckinghamshire,South East,51.719398,-0.830422,200,OK
51.384505,-0.672422,SL5 9LB,Bracknell Forest,South East,51.384505,-0.672422,200,OK
51.998393,-0.783619,MK4 3BW,Milton Keynes,South East,51.998393,-0.783619,200,OK
52.330006,0.340384,CB7 5AA,East Cambridgeshire,East of England,52.330006,0.340384,200,OK
52.093076,0.076639,SG8 7WA,South Cambridgeshire,East of England,52.093121,0.076597,200,OK
51.555687,-0.214227,NW2 3EE,Barnet,London,51.555699,-0.21364,200,OK
54.919134,-4.463197,DG8 6AX,Dumfries and Galloway,,54.919134,-4.463197,200,OK
53.295612,-2.234533,SK9 7AJ,Cheshire East,North West,53.295612,-2.234533,200,OK
52.514593,-1.739327,B46 1RB,North Warwickshire,West Midlands,52.514593,-1.739327,200,OK
53.913465,-1.751103,LS29 7SN,Bradford,Yorkshire and The Humber,53.913465,-1.751103,200,OK
53.802433,-1.542061,LS2 8PA,Leeds,Yorkshire and The Humber,53.802602,-1.542033,200,OK
51.266706,0.530736,ME15 7RQ,Maidstone,South East,51.266706,0.530736,200,OK
53.238682,-0.535314,LN2 1QP,Lincoln,East Midlands,53.238682,-0.535314,200,OK
52.278456,-1.534694,CV31 3EY,Warwick,West Midlands,52.278456,-1.534694,200,OK
52.77531,-2.407858,TF10 8HN,Telford and Wrekin,West Midlands,52.77531,-2.407858,200,OK
51.588036,0.178152,RM1 4RU,Havering,London,51.588036,0.178152,200,OK
50.926158,-1.435016,SO15 5QQ,Southampton,South East,50.926158,-1.435016,200,OK
53.816442,-1.457141,LS14 6HP,Leeds,Yorkshire and The Humber,53.816404,-1.456964,200,OK
53.532372,-1.108423,DN2 5LX,Doncaster,Yorkshire and The Humber,53.532372,-1.108423,200,OK
51.601589,0.155739,RM5 2LT,Havering,London,51.601589,0.155739,200,OK
52.398333,-0.711274,NN15 7DZ,North Northamptonshire,East Midlands,52.398383,-0.711243,200,OK
50.856283,-1.414365,SO45 4PB,New Forest,South East,50.856399,-1.414113,200,OK
51.378817,-0.857025,RG40 4EE,Wokingham,South East,51.379606,-0.856776,200,OK
51.378105,-2.357711,BA1 1JH,Bath and North East Somerset,South West,51.378088,-2.357237,200,OK
51.482433,-3.238801,CF5 4BU,Cardiff,,51.482433,-3.238801,200,OK
52.721587,-2.105445,ST19 5ES,South Staffordshire,West Midlands,52.721587,-2.105445,200,OK
52.175378,-2.210702,WR5 3AS,Worcester,West Midlands,52.175378,-2.210702,200,OK
55.82298,-4.266783,G42 9SH,Glasgow City,,55.82298,-4.266783,200,OK
54.980128,-1.527983,NE31 1DA,South Tyneside,North East,54.980128,-1.527983,200,OK
51.525009,-0.651389,SL1 6HA,Slough,South East,51.525009,-0.651389,200,OK
51.555248,0.235387,RM14 2PT,Havering,London,51.555238,0.235529,200,OK
50.777947,-0.950807,PO11 9QH,Havant,South East,50.777947,-0.950807,200,OK
51.670847,0.445366,CM4 9QT,Chelmsford,East of England,51.670847,0.445366,200,OK
50.911544,-1.395267,SO14 0AW,Southampton,South East,50.911544,-1.395267,200,OK
57.070088,-4.108742,,,,,,200,OK
51.53176,-0.478471,UB8 2DD,Hillingdon,London,51.53176,-0.478471,200,OK
50.761869,-1.668232,BH25 5GG,New Forest,South East,50.761869,-1.668232,200,OK
54.000718,-0.430545,YO25 6NU,East Riding of Yorkshire,Yorkshire and The Humber,54.001016,-0.43,200,OK
51.520852,-0.136268,W1T 4AS,Camden,London,51.520883,-0.1364,200,OK
51.39836,0.03846,BR1 2BS,Bromley,London,51.39836,0.03846,200,OK
50.914988,-1.41646,SO15 5BP,Southampton,South East,50.91498,-1.416551,200,OK
53.575895,-1.690942,HD8 8XH,Kirklees,Yorkshire and The Humber,53.575895,-1.690942,200,OK
51.353991,-0.179527,SM2 5JB,Sutton,London,51.353991,-0.179527,200,OK
50.874435,0.014422,BN7 2LP,Lewes,South East,50.874435,0.014422,200,OK
50.838013,-0.40816,BN13 2PT,Worthing,South East,50.838013,-0.40816,200,OK
53.600317,-3.04335,PR8 3JR,Sefton,North West,53.600317,-3.04335,200,OK
53.313926,-1.550035,S17 3BD,Sheffield,Yorkshire and The Humber,53.313926,-1.550035,200,OK
51.127108,0.258341,TN4 8YU,Tunbridge Wells,South East,51.127108,0.258341,200,OK
53.750168,-1.875416,HX2 9AY,Calderdale,Yorkshire and The Humber,53.750168,-1.875416,200,OK
51.388275,-0.09824,CR0 2XJ,Croydon,London,51.388275,-0.09824,200,OK
56.179621,-4.384887,FK8 3SR,Stirling,,56.179621,-4.384887,200,OK
51.592623,-0.220795,NW4 1QT,Barnet,London,51.592623,-0.220795,200,OK
55.823064,-4.224068,G73 2RL,South Lanarkshire,,55.823026,-4.224193,200,OK
51.428665,-0.351441,TW11 0JF,Richmond upon Thames,London,51.428665,-0.351441,200,OK
51.560441,-0.420342,HA4 6PY,Hillingdon,London,51.560585,-0.41963,200,OK
51.063367,-1.322382,SO22 5BQ,Winchester,South East,51.063367,-1.322382,200,OK
53.194175,-2.89511,CH1 4FF,Cheshire West and Chester,North West,53.194175,-2.89511,200,OK
51.004105,-0.933597,GU31 4DX,East Hampshire,South East,51.003979,-0.933585,200,OK
51.770022,-0.932693,HP17 8DF,Buckinghamshire,South East,51.770022,-0.932693,200,OK
51.518153,-0.140184,W1W 7QA,Westminster,London,51.518153,-0.140184,200,OK
51.553828,0.080473,IG1 1JU,Redbridge,London,51.553828,0.080473,200,OK
53.392868,-2.853513,L27 1YH,Liverpool,North West,53.392868,-2.853513,200,OK
52.580882,-2.066072,WV13 3EP,Wolverhampton,West Midlands,52.580882,-2.066072,200,OK
53.495749,-2.330617,M30 9DA,Salford,North West,53.495749,-2.330617,200,OK
51.859356,-2.228072,GL1 4BQ,Gloucester,South West,51.859356,-2.228072,200,OK
51.535101,0.19701,RM13 7DE,Havering,London,51.535231,0.196871,200,OK
52.674705,-1.085262,LE4 8NS,Charnwood,East Midlands,52.674705,-1.085262,200,OK
53.026003,-1.062015,NG14 6DW,Gedling,East Midlands,53.026003,-1.062015,200,OK
55.942263,-4.153052,G66 1QA,East Dunbartonshire,,55.942258,-4.153039,200,OK
51.510334,-0.148399,W1K 3NF,Westminster,London,51.510334,-0.148399,200,OK
51.467077,-0.36598,TW3 3GL,Hounslow,London,51.46725,-0.366111,200,OK
50.814866,-1.06764,PO2 0EZ,Portsmouth,South East,50.814866,-1.06764,200,OK
51.582026,-0.502917,UB9 5JT,Buckinghamshire,South East,51.582026,-0.502917,200,OK
55.867717,-3.949667,ML6 7AQ,North Lanarkshire,,55.867612,-3.950387,200,OK
53.054291,-2.191819,ST6 7BE,Stoke-on-Trent,West Midlands,53.054291,-2.191819,200,OK
51.450354,-0.682717,SL4 4PX,Bracknell Forest,South East,51.450354,-0.682717,200,OK
53.432216,-2.3249,M33 6JD,Trafford,North West,53.432216,-2.3249,200,OK
53.714227,-2.789899,PR4 5QA,South Ribble,North West,53.714046,-2.789847,200,OK
51.813738,-0.792324,HP21 7JJ,Buckinghamshire,South East,51.813738,-0.792324,200,OK
54.923279,-1.434798,SR5 5TY,Sunderland,North East,54.923279,-1.434798,200,OK
50.854645,0.560094,TN37 6EA,Hastings,South East,50.854616,0.560463,200,OK
51.48865,0.368012,RM16 4SP,Thurrock,East of England,51.48865,0.368012,200,OK
54.847011,-1.520505,DH4 6TY,County Durham,North East,54.847011,-1.520505,200,OK
54.295783,-1.551327,DL7 9UB,North Yorkshire,Yorkshire and The Humber,54.295934,-1.550864,200,OK
51.503388,-1.120613,RG8 9NQ,West Berkshire,South East,51.503388,-1.120613,200,OK
51.583754,-3.016021,NP20 4JA,Newport,,51.584114,-3.015971,200,OK
56.306016,-3.272192,KY14 7HS,Fife,,56.306016,-3.272192,200,OK
60.148245,-1.092674,ZE2 9ES,Shetland Islands,,60.148227,-1.092638,200,OK
50.635883,-4.362526,PL15 7AR,Cornwall,South West,50.635883,-4.362526,200,OK
51.391577,-2.696799,BS40 9XE,North Somerset,South West,51.391749,-2.696144,200,OK
53.822839,-1.72981,BD2 2JJ,Bradford,Yorkshire and The Humber,53.822839,-1.72981,200,OK
51.56157,-3.26748,CF15 7TH,Rhondda Cynon Taf,,51.56157,-3.26748,200,OK
51.467339,-2.277792,SN14 8SQ,Wiltshire,South West,51.467267,-2.277906,200,OK
51.415205,-0.053708,SE20 7NY,Bromley,London,51.415205,-0.053708,200,OK
54.697149,-6.210695,BT41 4PT,Antrim and Newtownabbey,,54.696334,-6.210902,200,OK
56.237229,-4.214778,FK17 8JT,Stirling,,56.237229,-4.214778,200,OK
53.691908,-2.680353,PR25 4HR,South Ribble,North West,53.691917,-2.680338,200,OK
52.554387,-1.903896,B43 7EL,Walsall,West Midlands,52.554387,-1.903896,200,OK
53.419423,-1.281119,S66 1ES,Rotherham,Yorkshire and The Humber,53.419423,-1.281119,200,OK
51.574202,-3.220111,CF83 1UB,Caerphilly,,51.574202,-3.220111,200,OK
51.92641,-4.89692,SA62 5DL,Pembrokeshire,,51.92641,-4.89692,200,OK
51.566133,-1.779001,SN1 2AX,Swindon,South West,51.566133,-1.779001,200,OK
53.834882,-2.601526,PR3 3HA,Ribble Valley,North West,53.834882,-2.601526,200,OK
53.559871,-2.368209,BL3 1LW,Bolton,North West,53.559871,-2.368209,200,OK
50.852843,0.560663,TN37 6AP,Hastings,South East,50.852843,0.560663,200,OK
53.25855,-2.120885,SK10 1JG,Cheshire East,North West,53.258416,-2.120147,200,OK
51.883094,-0.518189,LU6 3HW,Central Bedfordshire,East of England,51.883094,-0.518189,200,OK
54.928622,-6.931271,BT47 4PG,Causeway Coast and Glens,,54.928622,-6.931271,200,OK
51.760206,-1.266539,OX2 6AE,Oxford,South East,51.760206,-1.266539,200,OK
54.195161,-2.919672,LA11 6BF,Westmorland and Furness,North West,54.195161,-2.919672,200,OK
51.501714,-3.595712,CF31 5DW,Bridgend,,51.501714,-3.595712,200,OK
53.336982,-3.003149,CH63 9JX,Wirral,North West,53.337685,-3.00291,200,OK
51.167634,0.192116,TN11 8AW,Tunbridge Wells,South East,51.167634,0.192116,200,OK
51.438155,-1.030695,RG31 7XS,West Berkshire,South East,51.438164,-1.030695,200,OK
53.791616,-1.863135,BD13 3PZ,Bradford,Yorkshire and The Humber,53.791616,-1.863135,200,OK
51.503736,-0.323778,W13 9EW,Ealing,London,51.503736,-0.323778,200,OK
50.496625,-4.644518,PL30 4DB,Cornwall,South West,50.496615,-4.644556,200,OK
53.008254,-1.747721,DE6 1AY,Derbyshire Dales,East Midlands,53.008254,-1.747721,200,OK
52.169772,0.107819,CB2 9FT,Cambridge,East of England,52.169772,0.107819,200,OK
53.549809,-2.326163,M26 1BG,Bury,North West,53.549834,-2.326115,200,OK
53.099166,-1.343683,DE55 3NH,Bolsover,East Midlands,53.099166,-1.343683,200,OK
54.316602,-7.592275,BT74 4BT,Fermanagh and Omagh,,54.316575,-7.592321,200,OK
55.915878,-3.289671,EH14 2SQ,City of Edinburgh,,55.915843,-3.290454,200,OK
51.643537,0.609432,CM3 5LP,Chelmsford,East of England,51.643537,0.609432,200,OK
53.567489,-2.312619,M26 2YA,Bury,North West,53.567444,-2.312649,200,OK
51.373749,-0.183672,SM1 3NS,Sutton,London,51.373749,-0.183672,200,OK
51.881096,0.868173,CO3 4QH,Colchester,East of England,51.881096,0.868173,200,OK
52.560251,-1.896243,B43 7DX,Walsall,West Midlands,52.560251,-1.896243,200,OK
54.121451,-3.223622,LA14 5HX,Westmorland and Furness,North West,54.121451,-3.223622,200,OK
51.485042,-3.15961,CF24 0JZ,Cardiff,,51.485042,-3.15961,200,OK
52.439525,-1.486399,CV6 7NB,Coventry,West Midlands,52.439606,-1.486472,200,OK
51.447662,-0.213106,SW19 6SJ,Wandsworth,London,51.447662,-0.213106,200,OK
52.486368,-0.534391,PE8 5AD,North Northamptonshire,East Midlands,52.486368,-0.534391,200,OK
53.869036,-2.388181,BB7 1RB,Ribble Valley,North West,53.869036,-2.388181,200,OK
53.534331,-2.643228,WN3 5TU,Wigan,North West,53.534331,-2.643228,200,OK
54.486408,-6.743216,,,,,,200,OK
51.535235,-2.563193,BS34 6DY,South Gloucestershire,South West,51.535235,-2.563193,200,OK
51.109817,-1.048163,GU34 5HS,East Hampshire,South East,51.109817,-1.048163,200,OK
50.749414,-2.761126,,,,,,200,OK
55.623585,-4.663891,KA12 0UA,North Ayrshire,,55.623585,-4.663891,200,OK
53.464248,-3.007278,L21 3TY,Sefton,North West,53.464248,-3.007278,200,OK
51.574384,-0.20195,NW11 8HJ,Barnet,London,51.574218,-0.202061,200,OK
50.60479,-2.454714,DT4 8UZ,Dorset,South West,50.604788,-2.454697,200,OK
53.576126,-2.29885,BL9 9SF,Bury,North West,53.576126,-2.29885,200,OK
51.579057,-1.842652,SN5 5LA,Wiltshire,South West,51.578967,-1.842407,200,OK
58.981247,-2.954348,KW15 1PE,Orkney Islands,,58.981247,-2.954348,200,OK
51.517791,-0.106327,EC1N 2PB,City of London,London,51.517864,-0.106367,200,OK
56.102809,-3.16051,KY1 1QP,Fife,,56.102809,-3.16051,200,OK
56.006842,-3.880941,FK4 1PB,Falkirk,,56.006995,-3.8809,200,OK
52.933265,-1.451305,DE21 6GN,Derby,East Midlands,52.933265,-1.451305,200,OK
51.25315,-0.604732,GU3 3AN,Guildford,South East,51.25315,-0.604732,200,OK
52.924639,-1.281515,NG9 7BD,Broxtowe,East Midlands,52.924343,-1.281515,200,OK
52.406463,-1.889944,B14 5NL,Birmingham,West Midlands,52.406463,-1.889944,200,OK
51.448639,-2.520108,BS15 3QD,South Gloucestershire,South West,51.448639,-2.520108,200,OK
51.614207,-3.029612,NP20 7AF,Newport,,51.614207,-3.029612,200,OK
51.016054,-4.223183,EX39 3BA,Torridge,South West,51.016054,-4.223183,200,OK
51.352335,-2.377715,BA2 2AQ,Bath and North East Somerset,South West,51.352335,-2.377715,200,OK
52.905313,-1.97498,ST10 4QB,East Staffordshire,West Midlands,52.905313,-1.97498,200,OK
51.814396,-0.828908,HP19 7QS,Buckinghamshire,South East,51.814396,-0.828908,200,OK
51.656077,-2.734532,NP16 6BP,Monmouthshire,,51.656077,-2.734532,200,OK
54.957154,-1.872125,NE42 6LA,Northumberland,North East,54.957154,-1.872125,200,OK
52.510063,-3.314773,SY16 1NS,Powys,,52.510063,-3.314773,200,OK
51.471269,-2.555653,BS5 6LG,"Bristol, City of",South West,51.471269,-2.555653,200,OK
51.459862,-0.908951,RG5 3AP,Wokingham,South East,51.459862,-0.908951,200,OK
52.81729,-2.123483,ST16 2RS,Stafford,West Midlands,52.81729,-2.123483,200,OK
53.537733,-1.153577,DN5 9QL,Doncaster,Yorkshire and The Humber,53.537733,-1.153577,200,OK
51.196863,-0.806889,GU10 4SE,Waverley,South East,51.196863,-0.806889,200,OK
50.900836,-3.879908,EX18 7JX,Mid Devon,South West,50.900836,-3.879908,200,OK
51.576866,0.194143,RM1 2TB,Havering,London,51.576866,0.194143,200,OK
51.474657,0.163762,DA8 3EG,Bexley,London,51.474657,0.163762,200,OK
53.577588,-1.41121,S72 8SN,Barnsley,Yorkshire and The Humber,53.577588,-1.41121,200,OK
51.442832,-0.471931,TW15 3FJ,Spelthorne,South East,51.442832,-0.471931,200,OK
55.545492,-2.016375,NE71 6NR,Northumberland,North East,55.545492,-2.016375,200,OK
52.737126,-1.343815,LE67 5GW,North West Leicestershire,East Midlands,52.737144,-1.343806,200,OK
52.502406,-1.179154,,,,,,200,OK
51.406099,-1.325755,RG14 1JB,West Berkshire,South East,51.40598,-1.325638,200,OK
53.310937,-4.632644,LL65 1UF,Isle of Anglesey,,53.310937,-4.632644,200,OK
53.557944,-1.05914,DN3 2TQ,Doncaster,Yorkshire and The Humber,53.557944,-1.05914,200,OK
53.783589,-2.383552,BB5 5TE,Hyndburn,North West,53.783589,-2.383491,200,OK
51.994028,-0.732847,MK2 2SF,Milton Keynes,South East,51.993944,-0.732616,200,OK
52.301898,1.363249,IP13 8DQ,Mid Suffolk,East of England,52.301898,1.363249,200,OK
51.62466,0.023972,IG9 5JQ,Redbridge,London,51.624854,0.023649,200,OK
55.779205,-3.906128,ML2 8LS,North Lanarkshire,,55.779205,-3.906128,200,OK
52.218505,0.11607,CB4 3EZ,Cambridge,East of England,52.218505,0.11607,200,OK
51.517537,-0.151249,W1U 2QN,Westminster,London,51.517485,-0.151255,200,OK
53.30915,-1.37194,S21 4JE,North East Derbyshire,East Midlands,53.30915,-1.37194,200,OK
54.23194,-1.327659,YO7 3NH,North Yorkshire,Yorkshire and The Humber,54.23194,-1.327659,200,OK
51.289151,-2.480416,BA3 2QD,Bath and North East Somerset,South West,51.289151,-2.480416,200,OK
52.039829,1.204297,IP3 8TP,East Suffolk,East of England,52.039829,1.204297,200,OK
54.479496,-3.530772,CA22 2JR,Cumberland,North West,54.479496,-3.530772,200,OK
54.877645,-1.513502,DH4 7SF,Sunderland,North East,54.877645,-1.513502,200,OK
51.045033,-0.889751,GU33 7AY,East Hampshire,South East,51.045033,-0.889751,200,OK
51.132287,-0.76723,GU10 2PF,Waverley,South East,51.132287,-0.76723,200,OK
56.200774,-3.137356,KY7 6AS,Fife,,56.200774,-3.137356,200,OK
50.860556,-0.622917,BN18 0NA,Arun,South East,50.860556,-0.622917,200,OK
51.42394,-0.127311,SW16 3HG,Lambeth,London,51.423744,-0.126859,200,OK
53.827621,-0.435397,HU17 8FD,East Riding of Yorkshire,Yorkshire and The Humber,53.827621,-0.435397,200,OK
51.790659,-3.878901,SA18 1HY,Neath Port Talbot,,51.790659,-3.878901,200,OK
51.041623,-1.738998,SP5 3DR,Wiltshire,South West,51.041623,-1.738998,200,OK
54.884303,-1.432522,SR3 4JQ,Sunderland,North East,54.884303,-1.432522,200,OK
53.378014,-3.044311,CH43 5UE,Wirral,North West,53.378014,-3.044311,200,OK
54.665537,-3.494595,CA14 1LX,Cumberland,North West,54.665537,-3.494595,200,OK
54.582694,-5.941643,BT9 6DN,Belfast,,54.582694,-5.941643,200,OK
55.310799,-4.39943,KA6 7TP,East Ayrshire,,55.311051,-4.398926,200,OK
50.915842,-1.403917,SO15 2SJ,Southampton,South East,50.915869,-1.403931,200,OK
51.909685,0.991228,CO7 7SR,Tendring,East of England,51.909685,0.991228,200,OK
56.425396,-2.97941,DD6 8LU,Fife,,56.425396,-2.97941,200,OK
52.967093,-2.088697,ST3 7QR,Stoke-on-Trent,West Midlands,52.967093,-2.088697,200,OK
51.700929,0.107593,CM16 5DP,Epping Forest,East of England,51.701013,0.107452,200,OK
51.839374,-3.155114,NP8 1LF,Powys,,51.839374,-3.155114,200,OK
53.789675,-2.243901,BB11 1PZ,Burnley,North West,53.789675,-2.243901,200,OK
55.207673,-6.655695,BT56 8QA,Causeway Coast and Glens,,55.207673,-6.655695,200,OK
53.255827,-2.923152,CH66 2GL,Cheshire West and Chester,North West,53.255848,-2.922763,200,OK
50.900962,-1.371783,SO19 2EU,Southampton,South East,50.900962,-1.371783,200,OK
51.692874,-0.16408,EN6 5QE,Hertsmere,East of England,51.692874,-0.16408,200,OK
55.914902,-4.433205,G81 4NW,West Dunbartonshire,,55.915021,-4.433085,200,OK
51.783416,-3.245319,NP22 4QW,Blaenau Gwent,,51.783416,-3.245319,200,OK
50.721928,-1.862918,BH1 3JY,"Bournemouth, Christchurch and Poole",South West,50.721928,-1.862918,200,OK
50.936147,-1.418245,SO16 7AR,Southampton,South East,50.936147,-1.418245,200,OK
54.482877,-3.537798,CA22 2EX,Cumberland,North West,54.482882,-3.538076,200,OK
51.020584,0.265367,TN20 6TR,Wealden,South East,51.020452,0.265218,200,OK
51.55286,-0.055581,E5 8JB,Hackney,London,51.55286,-0.055581,200,OK
52.624795,-2.306918,WV7 3BU,Shropshire,West Midlands,52.624795,-2.306918,200,OK
51.759028,-1.256416,OX1 3PP,Oxford,South East,51.759028,-1.256416,200,OK
53.814302,-3.049084,FY1 4QJ,Blackpool,North West,53.814344,-3.048945,200,OK
51.49124,-0.072883,SE1 5PS,Southwark,London,51.49124,-0.072883,200,OK
52.237625,-0.894129,NN1 9SD,West Northamptonshire,East Midlands,52.237625,-0.894129,200,OK
55.562902,-2.70916,TD6 0SU,Scottish Borders,,55.562902,-2.70916,200,OK
53.110046,-2.430694,CW1 4HJ,Cheshire East,North West,53.110046,-2.430694,200,OK
53.67348,-1.945575,HX6 4DP,Calderdale,Yorkshire and The Humber,53.672874,-1.944517,200,OK
55.027377,-1.571354,NE12 7DQ,North Tyneside,North East,55.02774,-1.572523,200,OK
53.375331,-3.038623,CH43 5XQ,Wirral,North West,53.375511,-3.039575,200,OK
52.944591,-0.158991,PE20 3EG,Boston,East Midlands,52.944583,-0.15905,200,OK
54.510195,-6.794193,BT70 3PT,Mid Ulster,,54.510195,-6.794193,200,OK
53.667969,-1.41375,WF4 1WX,Wakefield,Yorkshire and The Humber,53.667969,-1.41375,200,OK
51.593952,-0.565759,SL9 8RH,Buckinghamshire,South East,51.593952,-0.565759,200,OK
52.685405,-1.39758,LE67 6JG,North West Leicestershire,East Midlands,52.685405,-1.39758,200,OK
57.58549,-2.822626,,,,,,200,OK
51.61302,-1.226178,OX11 7SW,South Oxfordshire,South East,51.61302,-1.226178,200,OK
55.027627,-1.529521,NE27 0DQ,North Tyneside,North East,55.027627,-1.529521,200,OK
51.420336,0.393778,DA12 4SG,Gravesham,South East,51.420336,0.393778,200,OK
51.613171,0.026884,IG8 0NF,Redbridge,London,51.613171,0.026884,200,OK
53.752989,-1.883552,HX2 9UG,Calderdale,Yorkshire and The Humber,53.752989,-1.883552,200,OK
52.839238,-1.343643,DE74 2PP,North West Leicestershire,East Midlands,52.839243,-1.34285,200,OK
50.940878,-1.376555,SO18 2HX,Southampton,South East,50.940599,-1.376487,200,OK
51.534834,-0.066198,E2 8RZ,Hackney,London,51.534834,-0.066198,200,OK
57.066011,-3.082755,,,,,,200,OK
52.537066,-1.518361,CV10 0QE,Nuneaton and Bedworth,West Midlands,52.537066,-1.518361,200,OK
54.566864,-2.758852,CA10 2QG,Westmorland and Furness,North West,54.566801,-2.758835,200,OK
52.706851,-2.75626,SY1 1JH,Shropshire,West Midlands,52.706697,-2.756406,200,OK
52.933164,1.150502,NR25 7HN,North Norfolk,East of England,52.933324,1.149218,200,OK
51.638694,-0.469903,WD3 1AN,Three Rivers,East of England,51.63883,-0.469971,200,OK
52.069711,1.132985,IP1 4EN,Ipswich,East of England,52.069711,1.132985,200,OK
53.524215,-2.393074,M28 3LP,Salford,North West,53.524215,-2.393074,200,OK
50.609546,-2.464172,DT4 0HS,Dorset,South West,50.609535,-2.464155,200,OK
51.379018,-0.340652,KT7 0DQ,Elmbridge,South East,51.379018,-0.340652,200,OK
50.69207,-1.177787,PO33 4AU,Isle of Wight,South East,50.69207,-1.177787,200,OK
51.467153,-0.35279,TW3 1YT,Hounslow,London,51.467153,-0.35279,200,OK
51.557452,-1.786443,SN1 5QT,Swindon,South West,51.557452,-1.786443,200,OK
50.887068,0.585845,TN35 4PF,Rother,South East,50.887068,0.585845,200,OK
54.97186,-1.520816,NE31 1JX,South Tyneside,North East,54.971972,-1.519612,200,OK
51.933641,-1.255876,,,,,,200,OK
53.792828,-3.014236,FY4 5BU,Blackpool,North West,53.792828,-3.014236,200,OK
54.953559,-1.72124,NE21 5DR,Gateshead,North East,54.953559,-1.72124,200,OK
53.679189,-1.762325,HD2 1JQ,Kirklees,Yorkshire and The Humber,53.679189,-1.762325,200,OK
51.250789,-1.178941,RG23 7NA,Basingstoke and Deane,South East,51.250845,-1.179241,200,OK
52.547912,-2.056805,DY4 0AL,Sandwell,West Midlands,52.547912,-2.056805,200,OK
51.629764,-0.065385,N9 9PT,Enfield,London,51.629819,-0.06547,200,OK
52.985919,-2.133408,ST3 1RP,Stoke-on-Trent,West Midlands,52.985919,-2.133408,200,OK
51.516036,-0.186449,W2 6HJ,Westminster,London,51.516036,-0.186449,200,OK
52.911084,-1.467954,DE23 8JX,Derby,East Midlands,52.911084,-1.467954,200,OK
53.777928,-0.38507,HU6 8JT,"Kingston upon Hull, City of",Yorkshire and The Humber,53.777928,-0.38507,200,OK
50.630791,-3.392383,EX8 4DA,East Devon,South West,50.630791,-3.392383,200,OK
53.724735,-2.284945,BB4 8PG,Rossendale,North West,53.724735,-2.284945,200,OK
50.910779,0.501986,TN33 0UH,Rother,South East,50.910779,0.501986,200,OK
53.370772,0.008859,LN11 7FB,East Lindsey,East Midlands,53.370772,0.008859,200,OK
50.766341,-1.918273,BH11 9HN,"Bournemouth, Christchurch and Poole",South West,50.766341,-1.918273,200,OK
53.380356,-2.200875,SK8 5EP,Stockport,North West,53.380356,-2.200875,200,OK
53.590292,-1.201038,DN6 8RU,Doncaster,Yorkshire and The Humber,53.590292,-1.201038,200,OK
53.992332,-1.559565,HG1 2NP,North Yorkshire,Yorkshire and The Humber,53.992332,-1.559565,200,OK
57.605716,-3.631542,IV36 1HY,Moray,,57.605716,-3.631542,200,OK
53.356753,-1.30695,S26 2GL,Rotherham,Yorkshire and The Humber,53.356753,-1.30695,200,OK
51.763159,-3.159152,NP13 3HE,Blaenau Gwent,,51.763183,-3.158558,200,OK
51.5146,-0.124302,WC2H 9BQ,Camden,London,51.5146,-0.124302,200,OK
51.575939,0.183449,RM1 1NX,Havering,London,51.5759,0.183229,200,OK
51.58685,-0.170711,N2 0EY,Barnet,London,51.58685,-0.170711,200,OK
52.999123,-1.184961,NG6 9HW,Nottingham,East Midlands,52.999123,-1.184961,200,OK
53.838054,-1.832196,BD16 1LY,Bradford,Yorkshire and The Humber,53.838054,-1.832196,200,OK
51.355456,-0.194065,SM2 6RN,Sutton,London,51.355456,-0.194065,200,OK
50.745678,-4.499901,EX22 6UW,Cornwall,South West,50.745678,-4.499901,200,OK
51.374125,-2.350741,BA2 4NF,Bath and North East Somerset,South West,51.374125,-2.350741,200,OK
52.805313,-2.134871,ST16 1AQ,Stafford,West Midlands,52.805313,-2.134871,200,OK
53.688252,-2.699916,PR25 1HA,South Ribble,North West,53.688252,-2.699916,200,OK
52.68209,0.757191,PE32 2DQ,Breckland,East of England,52.68209,0.757191,200,OK
52.940424,-1.158283,NG2 1PG,Nottingham,East Midlands,52.940424,-1.158283,200,OK
51.809072,0.148304,CM21 9FJ,East Hertfordshire,East of England,51.808946,0.148284,200,OK
51.701729,-0.908404,OX39 4QJ,South Oxfordshire,South East,51.701729,-0.908404,200,OK
53.819793,-2.406348,BB7 9SL,Ribble Valley,North West,53.819793,-2.406348,200,OK
55.945457,-4.773401,PA15 4ED,Inverclyde,,55.94546,-4.77335,200,OK
55.131479,-1.534167,NE24 5TE,Northumberland,North East,55.131374,-1.533289,200,OK
52.023224,-0.803554,MK8 0DB,Milton Keynes,South East,52.023224,-0.803554,200,OK
52.136389,-0.433803,MK41 9RR,Bedford,East of England,52.136389,-0.433803,200,OK
50.727258,-2.948509,DT7 3EX,Dorset,South West,50.727258,-2.948509,200,OK
53.530513,-2.475487,M46 9LR,Wigan,North West,53.530513,-2.475487,200,OK
52.45578,0.059458,PE16 6AT,Fenland,East of England,52.45578,0.059458,200,OK
53.421307,-1.193149,S66 7NE,Rotherham,Yorkshire and The Humber,53.421236,-1.193151,200,OK
52.487585,-1.911046,B18 6NA,Birmingham,West Midlands,52.487595,-1.911518,200,OK
51.147448,-0.974491,GU34 1FP,East Hampshire,South East,51.147389,-0.97432,200,OK
53.14286,-1.175516,NG18 3DA,Mansfield,East Midlands,53.14286,-1.175516,200,OK
50.148754,-5.067943,TR11 4DT,Cornwall,South West,50.148754,-5.067943,200,OK
57.152812,-2.108693,AB25 3LH,Aberdeen City,,57.152425,-2.10927,200,OK
54.13507,-0.80656,YO17 7BL,North Yorkshire,Yorkshire and The Humber,54.13502,-0.806056,200,OK
51.653441,-0.564908,HP8 4SN,Buckinghamshire,South East,51.653441,-0.564908,200,OK
52.678084,-0.571988,PE9 4DW,Rutland,East Midlands,52.678084,-0.571988,200,OK
51.484629,0.025385,SE7 7UD,Greenwich,London,51.484629,0.025385,200,OK
53.925146,-3.014568,FY7 6EX,Wyre,North West,53.925146,-3.014568,200,OK
53.192274,-2.900877,CH1 4JA,Cheshire West and Chester,North West,53.192274,-2.900877,200,OK
51.676263,-0.602239,HP6 5AH,Buckinghamshire,South East,51.676267,-0.602217,200,OK
53.421898,-1.236716,S66 8HE,Rotherham,Yorkshire and The Humber,53.421898,-1.236716,200,OK
51.551429,0.002199,E15 1TZ,Newham,London,51.551429,0.002199,200,OK
51.504895,-0.508861,SL0 9BP,Buckinghamshire,South East,51.504895,-0.508861,200,OK
51.673521,-3.220493,,,,,,200,OK
53.56221,-0.104856,DN34 4QR,North East Lincolnshire,Yorkshire and The Humber,53.56221,-0.104856,200,OK
51.272219,-1.081166,RG21 5HL,Basingstoke and Deane,South East,51.272219,-1.081166,200,OK
51.267269,-0.251749,KT20 7NS,Reigate and Banstead,South East,51.267269,-0.251749,200,OK
51.481546,-2.61001,BS9 4HZ,"Bristol, City of",South West,51.481546,-2.61001,200,OK
50.86682,-2.156028,DT11 7TA,Dorset,South West,50.86682,-2.156028,200,OK
50.824555,-0.154364,BN1 2PE,Brighton and Hove,South East,50.824555,-0.154364,200,OK
51.499771,-0.107463,SE1 8RD,Southwark,London,51.499782,-0.107494,200,OK
52.384028,-1.522415,CV3 6LU,Coventry,West Midlands,52.384028,-1.522415,200,OK
51.715489,-1.195916,OX4 7YX,Oxford,South East,51.715489,-1.195916,200,OK
55.029516,-7.121577,BT47 3YE,Causeway Coast and Glens,,55.029621,-7.12245,200,OK
56.326941,-3.395746,,,,,,200,OK
54.678455,-5.893539,BT37 0UW,Antrim and Newtownabbey,,54.678553,-5.89403,200,OK
51.516802,-0.089115,EC2R 6LL,City of London,London,51.516597,-0.089126,200,OK
55.552071,-2.837815,TD7 4DT,Scottish Borders,,55.552071,-2.837815,200,OK
53.750124,-0.757566,DN14 7XN,East Riding of Yorkshire,Yorkshire and The Humber,53.750124,-0.757566,200,OK
51.270334,0.484855,ME16 0UR,Maidstone,South East,51.270334,0.484855,200,OK
53.775453,-1.559349,LS11 7LZ,Leeds,Yorkshire and The Humber,53.775453,-1.559349,200,OK
51.326093,-0.638846,GU24 9DJ,Surrey Heath,South East,51.326093,-0.638846,200,OK
55.389382,-4.445797,,,,,,200,OK
51.91641,-0.468441,LU3 3DZ,Luton,East of England,51.91641,-0.468441,200,OK
51.694302,-0.431472,WD4 8PX,Three Rivers,East of England,51.694302,-0.431472,200,OK
53.318729,-1.514152,S17 4JL,Sheffield,Yorkshire and The Humber,53.318729,-1.514152,200,OK
53.456384,-2.204607,M13 0WW,Manchester,North West,53.456384,-2.204607,200,OK
56.509605,-2.961432,DD3 0QE,Angus,,56.509605,-2.961432,200,OK
52.409234,-1.837412,B90 2LH,Solihull,West Midlands,52.409234,-1.837412,200,OK
55.316406,-2.964724,TD9 0PT,Scottish Borders,,55.316406,-2.964724,200,OK
54.661899,-3.518322,CA14 1NY,Cumberland,North West,54.661899,-3.518322,200,OK
52.377955,-1.238399,CV21 3FD,Rugby,West Midlands,52.377955,-1.238399,200,OK
50.744427,-3.468095,EX4 9HT,Exeter,South West,50.744427,-3.468095,200,OK
51.439581,0.245678,DA2 6GB,Dartford,South East,51.439581,0.245678,200,OK
50.933567,-1.425762,SO16 6RE,Southampton,South East,50.933567,-1.425762,200,OK
51.615932,-3.002816,NP20 6JR,Newport,,51.615932,-3.002816,200,OK
53.527205,-2.338389,M27 6PN,Salford,North West,53.527134,-2.338298,200,OK
53.642805,-2.979717,PR8 6DZ,Sefton,North West,53.642805,-2.979717,200,OK
51.800949,-0.799946,HP21 9PP,Buckinghamshire,South East,51.800932,-0.800214,200,OK
55.921457,-4.31693,G61 2TJ,East Dunbartonshire,,55.921457,-4.31693,200,OK
52.856895,-3.035065,SY11 2UE,Shropshire,West Midlands,52.856895,-3.035065,200,OK
52.488507,-1.905831,B19 3JX,Birmingham,West Midlands,52.488507,-1.905831,200,OK
51.089187,-0.732484,GU27 1LL,Waverley,South East,51.089187,-0.732484,200,OK
57.478018,-4.224883,IV1 1QQ,Highland,,57.478087,-4.224603,200,OK
51.266281,0.394981,ME19 4PE,Tonbridge and Malling,South East,51.266281,0.394981,200,OK
51.611486,-3.032237,NP20 7AX,Newport,,51.611486,-3.032237,200,OK
51.65295,-0.447876,WD3 3PP,Three Rivers,East of England,51.65295,-0.447876,200,OK
51.512239,-0.138104,W1F 9QF,Westminster,London,51.512314,-0.138134,200,OK
52.175294,-1.869998,B50 4HB,Stratford-on-Avon,West Midlands,52.175294,-1.869998,200,OK
52.858476,-1.687593,DE13 9JE,East Staffordshire,West Midlands,52.858476,-1.687593,200,OK
57.565574,-2.425297,AB53 5QY,Aberdeenshire,,57.56507,-2.425793,200,OK
50.818491,-1.168983,PO13 0LU,Gosport,South East,50.818491,-1.168983,200,OK
51.518198,-0.152087,W1U 3DB,Westminster,London,51.518198,-0.152087,200,OK
51.374282,-0.475881,KT15 2QX,Runnymede,South East,51.374139,-0.476082,200,OK
51.26186,-0.600641,GU3 3HS,Guildford,South East,51.262177,-0.600325,200,OK
51.691609,-2.363694,GL11 5QE,Stroud,South West,51.691309,-2.36301,200,OK
51.023983,-2.859877,TA10 0DY,Somerset,South West,51.023983,-2.859877,200,OK
53.050243,-3.733052,LL24 0HL,Conwy,,53.050243,-3.733052,200,OK
51.304583,-0.045004,CR6 9DH,Tandridge,South East,51.304583,-0.045004,200,OK
53.370952,-2.720496,WA8 6LW,Halton,North West,53.370952,-2.720496,200,OK
52.0565,1.185897,IP4 5JA,Ipswich,East of England,52.0565,1.185897,200,OK
51.757511,-3.724673,SA10 9ES,Neath Port Talbot,,51.757511,-3.724673,200,OK
51.697477,-0.816113,HP27 0QQ,Buckinghamshire,South East,51.697452,-0.81633,200,OK
52.129583,-0.778176,MK16 8UA,Milton Keynes,South East,52.13001,-0.778588,200,OK
54.629471,-3.209643,,,,,,200,OK
52.524641,-1.78285,B35 6PA,Birmingham,West Midlands,52.524641,-1.78285,200,OK
53.820101,-1.727231,BD2 2EU,Bradford,Yorkshire and The Humber,53.820101,-1.727231,200,OK
54.549485,-1.233044,TS4 3JT,Middlesbrough,North East,54.549485,-1.233044,200,OK
52.34391,-0.172507,PE29 1HS,Huntingdonshire,East of England,52.34391,-0.172507,200,OK
55.94155,-2.949534,EH33 2DG,East Lothian,,55.94155,-2.949534,200,OK
51.461619,-2.536794,BS5 7HF,"Bristol, City of",South West,51.461699,-2.536579,200,OK
53.544123,-2.640222,WN3 4BW,Wigan,North West,53.544123,-2.640222,200,OK
51.279617,0.519256,ME14 1ST,Maidstone,South East,51.279143,0.518701,200,OK
53.860785,-3.040303,FY5 1SA,Blackpool,North West,53.860785,-3.040303,200,OK
51.241628,-0.399311,RH5 6SS,Guildford,South East,51.241628,-0.399311,200,OK
53.696071,-2.324325,BB4 6TF,Rossendale,North West,53.696071,-2.324325,200,OK
51.978091,1.324662,IP11 0XA,East Suffolk,East of England,51.978091,1.324662,200,OK
50.967042,-1.343123,SO50 6RS,Eastleigh,South East,50.966801,-1.343244,200,OK
53.150192,-2.368729,CW11 1BG,Cheshire East,North West,53.150192,-2.368729,200,OK
52.719069,-1.039594,LE7 4ZA,Charnwood,East Midlands,52.719069,-1.039579,200,OK
54.88889,-2.918933,CA1 2DS,Cumberland,North West,54.88889,-2.918933,200,OK
51.652398,-3.978852,SA5 5NN,Swansea,,51.652069,-3.979492,200,OK
52.034832,-2.422335,HR8 2EY,"Herefordshire, County of",West Midlands,52.034842,-2.422334,200,OK
55.844032,-4.476537,PA3 3BB,Renfrewshire,,55.844032,-4.476537,200,OK
55.015683,-7.319317,BT48 7QW,Derry City and Strabane,,55.015683,-7.319317,200,OK
55.807348,-4.167809,G72 8SR,South Lanarkshire,,55.807348,-4.167809,200,OK
54.58776,-5.808583,BT16 2HG,Lisburn and Castlereagh,,54.58776,-5.808583,200,OK
52.826747,-1.173037,LE12 6NE,Rushcliffe,East Midlands,52.826747,-1.173037,200,OK
52.56975,-1.682064,B78 2JR,North Warwickshire,West Midlands,52.56975,-1.682064,200,OK
50.723849,-1.255278,PO33 4NS,Isle of Wight,South East,50.723857,-1.255339,200,OK
51.333036,-2.184023,BA14 7RL,Wiltshire,South West,51.333036,-2.184023,200,OK
51.91922,-0.657422,LU7 1HW,Central Bedfordshire,East of England,51.919194,-0.657452,200,OK
54.544019,-3.56171,CA28 6XG,Cumberland,North West,54.544019,-3.56171,200,OK
53.846227,-3.048271,FY2 9LQ,Blackpool,North West,53.846638,-3.048479,200,OK
51.350626,0.691337,,,,,,200,OK
52.23126,0.146638,CB4 0FJ,South Cambridgeshire,East of England,52.230817,0.146572,200,OK
51.484124,-0.388524,TW5 9HQ,Hounslow,London,51.484085,-0.38833,200,OK
57.368691,-3.281209,,,,,,200,OK
51.752223,-1.276794,OX2 0BN,Oxford,South East,51.752247,-1.276432,200,OK
52.402128,-1.497189,CV1 2AG,Coventry,West Midlands,52.402128,-1.497189,200,OK
51.128422,-2.99662,TA6 5HP,Somerset,South West,51.128422,-2.99662,200,OK
51.475739,0.327884,RM17 6QU,Thurrock,East of England,51.475739,0.327884,200,OK
51.836988,-1.151142,OX5 2RE,Cherwell,South East,51.836988,-1.151142,200,OK
51.577978,-0.287103,HA3 9TN,Brent,London,51.577978,-0.287103,200,OK
52.604261,1.186496,NR9 3RE,South Norfolk,East of England,52.604261,1.186496,200,OK
51.29996,-2.322965,BA2 7LQ,Somerset,South West,51.29996,-2.322994,200,OK
52.731454,-2.746749,SY1 3SA,Shropshire,West Midlands,52.731454,-2.746749,200,OK
54.632868,-2.723315,CA10 2EF,Westmorland and Furness,North West,54.632868,-2.723315,200,OK
53.758576,-0.273649,HU9 5UH,"Kingston upon Hull, City of",Yorkshire and The Humber,53.758576,-0.273649,200,OK
50.607515,-2.454087,DT4 8AY,Dorset,South West,50.607515,-2.454087,200,OK
51.968345,0.975683,CO7 6JL,Babergh,East of England,51.968342,0.975784,200,OK
52.506045,-1.811155,B36 8QT,Birmingham,West Midlands,52.506045,-1.811155,200,OK
51.618645,-0.045635,N18 3BA,Enfield,London,51.618999,-0.045244,200,OK
57.669214,-2.983075,AB56 1EF,Moray,,57.669214,-2.983075,200,OK
53.452711,-2.918714,L11 2SQ,Liverpool,North West,53.452711,-2.918714,200,OK
51.853814,-1.430812,OX29 8QF,West Oxfordshire,South East,51.853922,-1.430723,200,OK
50.351157,-3.580811,TQ6 9RT,South Hams,South West,50.351229,-3.580855,200,OK
51.581844,-0.264441,NW9 8AS,Brent,London,51.581844,-0.264441,200,OK
52.823467,1.398065,NR28 9YD,North Norfolk,East of England,52.823467,1.398065,200,OK
53.742182,-0.336705,HU1 2JN,"Kingston upon Hull, City of",Yorkshire and The Humber,53.742182,-0.336705,200,OK
54.594015,-5.696447,BT23 4AA,Ards and North Down,,54.594015,-5.696447,200,OK
55.944693,-4.154884,G66 1SY,East Dunbartonshire,,55.944693,-4.154884,200,OK
50.895856,-1.069025,PO7 6FZ,Winchester,South East,50.895856,-1.069025,200,OK
52.482971,-1.733564,B37 7PZ,Solihull,West Midlands,52.482971,-1.733564,200,OK
55.92258,-3.212888,EH10 5NB,City of Edinburgh,,55.92258,-3.212888,200,OK
52.055911,1.264553,IP5 3UW,East Suffolk,East of England,52.055911,1.264553,200,OK
50.978901,-3.224081,TA21 8NW,Somerset,South West,50.978901,-3.224081,200,OK
55.066589,-1.634365,NE13 6BP,Northumberland,North East,55.066589,-1.634365,200,OK
52.769038,0.392731,PE30 2HL,King's Lynn and West Norfolk,East of England,52.769087,0.392777,200,OK
54.024401,-1.650232,HG3 2JJ,North Yorkshire,Yorkshire and The Humber,54.024401,-1.650232,200,OK
52.763241,0.146016,PE12 9AJ,South Holland,East Midlands,52.763241,0.146016,200,OK
50.928633,-1.806613,SP6 1FJ,New Forest,South East,50.928633,-1.806613,200,OK
53.693672,-0.871772,DN14 5US,East Riding of Yorkshire,Yorkshire and The Humber,53.693672,-0.871772,200,OK
53.689589,-1.418238,WF6 1DE,Wakefield,Yorkshire and The Humber,53.689526,-1.418239,200,OK
52.344007,0.510703,IP28 7ET,West Suffolk,East of England,52.344007,0.510703,200,OK
56.215104,-3.043808,KY8 5HN,Fife,,56.215104,-3.043808,200,OK
54.875276,-1.76674,DH9 9EB,County Durham,North East,54.875276,-1.76674,200,OK
51.435993,-0.921101,RG6 7NS,Wokingham,South East,51.435993,-0.921101,200,OK
52.996118,-2.164862,ST4 3QL,Stoke-on-Trent,West Midlands,52.996118,-2.164862,200,OK
51.706065,-0.373984,AL2 3UH,St Albans,East of England,51.706065,-0.373984,200,OK
52.69056,-1.500896,DE12 7EH,North West Leicestershire,East Midlands,52.69056,-1.500896,200,OK
53.585898,-2.47088,BL1 5TW,Bolton,North West,53.585898,-2.47088,200,OK
56.891357,-4.841936,PH31 4AE,Highland,,56.890858,-4.842144,200,OK
55.004118,-1.548401,NE28 8PW,North Tyneside,North East,55.004118,-1.548401,200,OK
57.143981,-2.152623,AB15 6FT,Aberdeen City,,57.143972,-2.152623,200,OK
56.006353,-4.753444,G84 8PW,Argyll and Bute,,56.006662,-4.753691,200,OK
54.593394,-5.702548,BT23 4JF,Ards and North Down,,54.593394,-5.702548,200,OK
51.794253,-2.134307,GL6 7ET,Stroud,South West,51.794253,-2.134307,200,OK
54.927689,-4.723491,DG8 0ES,Dumfries and Galloway,,54.927689,-4.723491,200,OK
51.477801,-0.64358,SL4 4JP,Windsor and Maidenhead,South East,51.477801,-0.64358,200,OK
51.473423,-0.061251,SE15 2QU,Southwark,London,51.473423,-0.061251,200,OK
53.033151,-1.405405,DE5 8JN,Amber Valley,East Midlands,53.033187,-1.405389,200,OK
53.850223,-1.689296,LS19 6BD,Leeds,Yorkshire and The Humber,53.850223,-1.689296,200,OK
51.545824,0.094561,IG11 8UR,Barking and Dagenham,London,51.545834,0.094475,200,OK
57.465216,-4.277163,IV3 8LW,Highland,,57.465216,-4.277163,200,OK
51.730711,0.490871,CM2 6DG,Chelmsford,East of England,51.730711,0.490871,200,OK
51.475814,-3.150656,,,,,,200,OK
53.587367,-1.449097,S71 3RP,Barnsley,Yorkshire and The Humber,53.587367,-1.449097,200,OK
50.830501,-0.374108,BN14 9LQ,Worthing,South East,50.830688,-0.373973,200,OK
53.688397,-1.531806,WF2 9UF,Wakefield,Yorkshire and The Humber,53.688288,-1.531534,200,OK
51.410406,-3.486253,CF61 1SS,Vale of Glamorgan,,51.410406,-3.486253,200,OK
54.172955,-0.718166,YO17 8JU,North Yorkshire,Yorkshire and The Humber,54.172955,-0.718166,200,OK
51.229045,0.634827,ME17 3PH,Maidstone,South East,51.229045,0.634827,200,OK
52.941754,-0.799312,NG13 0FS,Melton,East Midlands,52.941793,-0.799232,200,OK
53.527499,-2.572088,WN2 3UR,Wigan,North West,53.527499,-2.572088,200,OK
50.688088,-3.469931,EX3 0LQ,Exeter,South West,50.688033,-3.469844,200,OK
51.562579,-0.045618,E5 9HP,Waltham Forest,London,51.562579,-0.045618,200,OK
52.920923,-1.233535,NG9 5HD,Broxtowe,East Midlands,52.920923,-1.233535,200,OK
51.53405,0.11624,RM9 4BY,Barking and Dagenham,London,51.533953,0.116177,200,OK
53.405916,-2.949505,L7 1QQ,Liverpool,North West,53.406237,-2.949873,200,OK
52.975095,-3.180322,LL20 8AH,Denbighshire,,52.975176,-3.180369,200,OK
50.864679,-0.978702,PO9 2DT,Havant,South East,50.864679,-0.978702,200,OK
51.402409,-3.263578,CF63 4JF,Vale of Glamorgan,,51.402636,-3.264112,200,OK
52.781074,-2.112157,ST17 9JF,Stafford,West Midlands,52.781074,-2.112157,200,OK
53.165918,-1.195418,NG19 8EQ,Mansfield,East Midlands,53.165918,-1.195418,200,OK
51.350158,-0.250204,KT17 1UD,Epsom and Ewell,South East,51.350268,-0.250391,200,OK
53.261783,-2.506814,CW9 5GD,Cheshire West and Chester,North West,53.261853,-2.507384,200,OK
50.821165,-0.527753,BN17 6LS,Arun,South East,50.821165,-0.527753,200,OK
50.822714,-1.203236,PO14 2AH,Fareham,South East,50.822714,-1.203236,200,OK
51.415814,-2.748619,BS48 3LD,North Somerset,South West,51.415814,-2.748619,200,OK
54.984761,-1.695944,NE15 7RE,Newcastle upon Tyne,North East,54.984761,-1.695944,200,OK
51.194356,0.061349,TN8 5RL,Sevenoaks,South East,51.194356,0.061349,200,OK
51.122365,-0.08919,RH10 4HB,Mid Sussex,South East,51.122356,-0.089162,200,OK
53.258715,-1.925984,SK17 6XZ,High Peak,East Midlands,53.258715,-1.925984,200,OK
51.458957,-0.994932,RG30 1FF,Reading,South East,51.459235,-0.99456,200,OK
53.481673,-2.103679,OL7 0SW,Tameside,North West,53.481673,-2.103679,200,OK
52.023598,-3.214743,LD3 0SB,Powys,,52.023598,-3.214743,200,OK
54.904924,-1.380392,SR1 1AH,Sunderland,North East,54.904932,-1.380406,200,OK
51.598857,-0.066357,N17 0LL,Haringey,London,51.598857,-0.066357,200,OK
52.213304,-1.983416,WR7 4EH,Wychavon,West Midlands,52.213304,-1.983416,200,OK
52.565306,-2.075254,WV14 0BQ,Wolverhampton,West Midlands,52.565267,-2.076104,200,OK
50.919367,-1.249445,SO32 2HE,Winchester,South East,50.919367,-1.249445,200,OK
50.102182,-5.275205,TR13 8TQ,Cornwall,South West,50.102182,-5.275205,200,OK
52.613652,-2.098237,WV10 8PZ,Wolverhampton,West Midlands,52.613652,-2.098237,200,OK
52.932501,-4.064461,LL48 6LE,Gwynedd,,52.932501,-4.064461,200,OK
51.244859,-0.775045,GU11 3PG,Rushmoor,South East,51.244859,-0.775045,200,OK
53.855612,-1.429984,LS14 3BY,Leeds,Yorkshire and The Humber,53.855612,-1.429984,200,OK
53.809831,-1.776804,BD9 4RA,Bradford,Yorkshire and The Humber,53.809831,-1.776804,200,OK
51.534023,-2.492939,BS36 2DQ,South Gloucestershire,South West,51.534023,-2.492939,200,OK
51.112882,0.748667,TN26 3JT,Ashford,South East,51.112882,0.748667,200,OK
53.625525,-2.189187,OL12 7NX,Rochdale,North West,53.625525,-2.189187,200,OK
51.377179,0.488569,ME1 3AR,Medway,South East,51.377179,0.488569,200,OK
51.215685,-0.330508,RH4 2PB,Mole Valley,South East,51.216139,-0.330807,200,OK
52.928194,-1.426229,DE21 6JY,Derby,East Midlands,52.928194,-1.426229,200,OK
52.543206,-2.010662,B71 2PT,Sandwell,West Midlands,52.543206,-2.010662,200,OK
51.396164,-0.446721,TW17 8DP,Spelthorne,South East,51.396164,-0.446721,200,OK
51.557816,0.445761,SS16 5LS,Basildon,East of England,51.5575,0.446264,200,OK
54.668572,-6.770238,BT80 9QJ,Mid Ulster,,54.668572,-6.770238,200,OK
52.995336,-1.137519,NG5 6AA,Gedling,East Midlands,52.995966,-1.137521,200,OK
50.946521,-0.042312,BN8 4QL,Lewes,South East,50.946521,-0.042312,200,OK
51.58119,-0.210139,NW11 9QY,Barnet,London,51.58119,-0.210139,200,OK
50.354837,-4.928875,TR2 4UD,Cornwall,South West,50.354837,-4.928875,200,OK
50.850981,-1.296171,SO31 9BL,Fareham,South East,50.850981,-1.296171,200,OK
51.514755,-0.149921,W1U 1JB,Westminster,London,51.514755,-0.149921,200,OK
51.451605,0.208255,DA1 5AN,Dartford,South East,51.451605,0.208255,200,OK
51.772911,1.098267,CO15 2GE,Tendring,East of England,51.772911,1.098267,200,OK
55.615585,-4.273392,KA17 0BQ,East Ayrshire,,55.615593,-4.273363,200,OK
51.498831,-0.021099,E14 9EZ,Tower Hamlets,London,51.498831,-0.021099,200,OK
50.864347,-1.214833,PO15 6NX,Fareham,South East,50.864347,-1.214833,200,OK
51.215556,-0.797873,GU9 7NG,Waverley,South East,51.215521,-0.797959,200,OK
51.488918,0.340843,RM17 5RY,Thurrock,East of England,51.488918,0.340843,200,OK
54.137398,-1.016333,YO60 6PE,North Yorkshire,Yorkshire and The Humber,54.137414,-1.016283,200,OK
51.552331,-0.06661,E8 2RL,Hackney,London,51.552331,-0.06661,200,OK
50.323209,-3.799936,TQ7 4QQ,South Hams,South West,50.323209,-3.799936,200,OK
57.15743,-2.277619,AB32 6FF,Aberdeenshire,,57.15743,-2.277619,200,OK
51.6096,-3.027934,NP20 7TU,Newport,,51.6096,-3.027934,200,OK
53.452445,-2.621028,WA12 8LQ,St. Helens,North West,53.452445,-2.621028,200,OK
55.883559,-4.253607,G22 5ET,Glasgow City,,55.883559,-4.253607,200,OK
52.675475,0.154967,PE13 3JL,Fenland,East of England,52.675475,0.154967,200,OK
51.36507,0.05579,BR6 8RE,Bromley,London,51.36507,0.05579,200,OK
57.126041,-2.145942,AB15 7PL,Aberdeen City,,57.126023,-2.145942,200,OK
51.521909,-0.137119,W1T 4BZ,Camden,London,51.521909,-0.137119,200,OK
51.818987,-2.289192,GL2 4YF,Stroud,South West,51.818734,-2.28951,200,OK
51.554106,-4.172613,SA3 1LU,Swansea,,51.554106,-4.172613,200,OK
50.337915,-4.635394,PL23 1DT,Cornwall,South West,50.337915,-4.635394,200,OK
54.543481,-1.582575,DL2 2GQ,Darlington,North East,54.543481,-1.582575,200,OK
51.015082,-3.09738,TA1 3NB,Somerset,South West,51.015082,-3.09738,200,OK
50.487781,-3.537814,TQ2 8AR,Torbay,South West,50.487781,-3.537814,200,OK
51.231128,-0.197873,RH2 7HB,Reigate and Banstead,South East,51.231068,-0.19815,200,OK
51.667784,-3.872466,SA7 9JU,Swansea,,51.667808,-3.872468,200,OK
52.823152,-3.431195,SY10 0HF,Powys,,52.823152,-3.431195,200,OK
51.498489,0.104477,SE2 8DH,Greenwich,London,51.498489,0.104477,200,OK
51.429983,-0.150499,SW17 6LA,Wandsworth,London,51.429983,-0.150499,200,OK
55.916676,-4.416624,G81 3NB,West Dunbartonshire,,55.916676,-4.416624,200,OK
51.664254,-0.064018,EN1 4DQ,Enfield,London,51.664254,-0.064018,200,OK
52.520787,0.248183,PE14 9RD,King's Lynn and West Norfolk,East of England,52.520787,0.248183,200,OK
53.762633,-0.404226,HU5 5RA,"Kingston upon Hull, City of",Yorkshire and The Humber,53.762633,-0.404226,200,OK
53.905048,-2.781456,PR3 1FP,Wyre,North West,53.905048,-2.781456,200,OK
53.953599,-1.238609,YO26 7NF,North Yorkshire,Yorkshire and The Humber,53.953599,-1.238609,200,OK
53.684557,-2.686443,PR25 3BT,South Ribble,North West,53.684574,-2.686443,200,OK
52.908848,-0.634579,NG31 9AA,South Kesteven,East Midlands,52.908848,-0.634579,200,OK
53.301412,-3.740732,LL28 4DH,Conwy,,53.301412,-3.740732,200,OK
53.551911,-0.097135,DN33 1BN,North East Lincolnshire,Yorkshire and The Humber,53.551911,-0.097135,200,OK
51.46222,0.107474,DA16 1TN,Bexley,London,51.462314,0.107766,200,OK
55.843645,-4.192304,G31 4QG,Glasgow City,,55.843425,-4.192515,200,OK
52.691231,-1.990784,WS12 3TU,Cannock Chase,West Midlands,52.691231,-1.990784,200,OK
50.725952,-3.065326,EX24 6PW,East Devon,South West,50.725952,-3.065326,200,OK
51.491648,-0.368847,UB2 4JW,Ealing,London,51.491622,-0.368913,200,OK
51.570114,-0.079492,N16 5HX,Hackney,London,51.570142,-0.07952,200,OK
52.287848,-1.583719,CV34 5BS,Warwick,West Midlands,52.287848,-1.583719,200,OK
56.470425,-2.918482,DD4 7PW,Dundee City,,56.470425,-2.918482,200,OK
51.798503,-3.176488,NP23 4JZ,Blaenau Gwent,,51.798503,-3.176488,200,OK
51.504372,-3.230376,CF14 2FY,Cardiff,,51.5047,-3.229924,200,OK
53.873356,-2.397331,BB7 2DR,Ribble Valley,North West,53.873356,-2.397331,200,OK
51.065582,-1.317785,SO23 8TA,Winchester,South East,51.065582,-1.317785,200,OK
52.227024,1.180904,IP14 6QA,Mid Suffolk,East of England,52.227024,1.180904,200,OK
53.39495,-2.064954,SK6 6AB,Stockport,North West,53.39495,-2.064954,200,OK
53.20081,-2.507757,CW7 3BZ,Cheshire West and Chester,North West,53.20081,-2.507757,200,OK
52.498883,-0.716174,NN17 2DN,North Northamptonshire,East Midlands,52.498883,-0.716174,200,OK
55.889877,-4.249509,G22 6SJ,Glasgow City,,55.889877,-4.249509,200,OK
52.950417,-2.830234,SY13 3DW,Wrexham,,52.950417,-2.830234,200,OK
50.908046,0.050737,,,,,,200,OK
52.485378,-1.917545,B1 3DQ,Birmingham,West Midlands,52.485378,-1.917545,200,OK
51.59412,-1.434452,OX12 9BQ,Vale of White Horse,South East,51.59412,-1.434452,200,OK
56.071771,-3.458832,KY12 7JR,Fife,,56.071775,-3.458828,200,OK
54.283157,-0.405419,YO11 1SB,North Yorkshire,Yorkshire and The Humber,54.283157,-0.405419,200,OK
53.509711,-2.351835,M27 0JX,Salford,North West,53.509711,-2.351835,200,OK
51.799644,-4.973225,SA61 1ST,Pembrokeshire,,51.799513,-4.973072,200,OK
53.669579,-2.956436,PR9 8QX,Sefton,North West,53.669623,-2.956558,200,OK
54.52738,-1.350363,TS16 0DB,Stockton-on-Tees,North East,54.527326,-1.350364,200,OK
53.707675,-0.11131,HU12 9BQ,East Riding of Yorkshire,Yorkshire and The Humber,53.707675,-0.11131,200,OK
57.505113,-1.812315,AB42 2GB,Aberdeenshire,,57.505113,-1.812315,200,OK
53.700596,-1.290637,WF8 2WH,Wakefield,Yorkshire and The Humber,53.700596,-1.290637,200,OK
52.025745,0.242334,CB10 2BS,Uttlesford,East of England,52.025745,0.242334,200,OK
52.475908,-2.134972,DY5 3SL,Dudley,West Midlands,52.47589,-2.134972,200,OK
51.453879,-1.049072,RG31 5HB,West Berkshire,South East,51.453879,-1.049072,200,OK
57.235619,-2.445556,AB51 5SS,Aberdeenshire,,57.235619,-2.445556,200,OK
53.147657,-1.027325,NG22 8ST,Newark and Sherwood,East Midlands,53.147657,-1.027325,200,OK
51.442957,-3.166118,CF64 1DZ,Vale of Glamorgan,,51.44302,-3.166177,200,OK
53.37982,-2.657342,WA5 2NL,Warrington,North West,53.37982,-2.657342,200,OK
51.415229,0.385774,DA12 5TQ,Gravesham,South East,51.415229,0.385774,200,OK
52.586008,-2.194946,WV6 8DU,Wolverhampton,West Midlands,52.586008,-2.194946,200,OK
51.055198,-1.334258,SO22 4DG,Winchester,South East,51.055198,-1.334258,200,OK
56.67942,-3.005466,DD8 4HA,Angus,,56.67942,-3.00545,200,OK
52.262346,-2.166987,WR9 0RA,Wychavon,West Midlands,52.262103,-2.167191,200,OK
52.369206,-0.260273,PE28 4DW,Huntingdonshire,East of England,52.369197,-0.260259,200,OK
51.706196,0.05062,EN9 2AA,Epping Forest,East of England,51.706196,0.05062,200,OK
53.321936,-2.739472,WA7 4RT,Halton,North West,53.321936,-2.739472,200,OK
51.541291,-0.014542,,,,,,200,OK
52.635635,-1.968631,WS3 5BB,Walsall,West Midlands,52.635635,-1.968631,200,OK
54.602836,-3.12634,CA12 4GE,Cumberland,North West,54.602763,-3.126341,200,OK
53.766883,-2.689014,PR1 6QN,Preston,North West,53.766883,-2.689014,200,OK
52.474245,-1.997586,B68 9EH,Sandwell,West Midlands,52.474245,-1.997586,200,OK
51.774654,0.465993,CM1 7ET,Chelmsford,East of England,51.774654,0.465993,200,OK
51.322336,-0.06506,CR2 9DR,Croydon,London,51.322336,-0.06506,200,OK
54.733267,-6.259484,BT41 4NQ,Antrim and Newtownabbey,,54.733267,-6.259484,200,OK
53.918725,-1.475411,LS22 4BS,North Yorkshire,Yorkshire and The Humber,53.918725,-1.475411,200,OK
52.067312,-2.118117,,,,,,200,OK
52.054222,-1.333285,OX16 9BQ,Cherwell,South East,52.054222,-1.333285,200,OK
51.574193,-3.01422,NP20 3HA,Newport,,51.574193,-3.01422,200,OK
51.76298,-0.231724,AL10 0DH,Welwyn Hatfield,East of England,51.763049,-0.23177,200,OK
53.538558,-2.275167,M25 2WP,Bury,North West,53.538558,-2.275167,200,OK
55.094239,-1.580746,NE23 1PN,Northumberland,North East,55.094014,-1.580701,200,OK
54.902574,-1.541412,NE37 1HJ,Sunderland,North East,54.902574,-1.541412,200,OK
52.37015,1.239806,IP21 4JJ,South Norfolk,East of England,52.37015,1.239806,200,OK
50.341535,-4.77902,PL25 4LL,Cornwall,South West,50.341535,-4.77902,200,OK
51.551458,-1.10287,,,,,,200,OK
52.315884,-0.163216,PE29 2DF,Huntingdonshire,East of England,52.315884,-0.163216,200,OK
53.515964,-1.123758,DN4 5BZ,Doncaster,Yorkshire and The Humber,53.515173,-1.123445,200,OK
50.949656,-2.627731,BA21 4QP,Somerset,South West,50.949339,-2.628012,200,OK
53.421964,-1.059375,DN11 8RB,Bassetlaw,East Midlands,53.421964,-1.059375,200,OK
54.476561,-1.182418,TS9 5HH,North Yorkshire,Yorkshire and The Humber,54.476561,-1.182418,200,OK
52.456505,-1.884375,B12 8SX,Birmingham,West Midlands,52.456505,-1.884375,200,OK
54.104156,-6.490881,BT35 9XP,"Newry, Mourne and Down",,54.104156,-6.490881,200,OK
53.70372,-2.640977,PR6 7JJ,Chorley,North West,53.70372,-2.640977,200,OK
53.867023,-0.499034,HU17 7SB,East Riding of Yorkshire,Yorkshire and The Humber,53.867023,-0.499034,200,OK
51.453124,0.635018,ME3 9RD,Medway,South East,51.453124,0.635018,200,OK
53.225191,-1.706712,DE45 1QJ,Derbyshire Dales,East Midlands,53.225191,-1.706712,200,OK
52.474545,-1.842987,B10 9PD,Birmingham,West Midlands,52.474533,-1.842967,200,OK
56.722254,-3.507365,PH10 7LY,Perth and Kinross,,56.722254,-3.507365,200,OK
51.373899,-0.096235,CR0 0YN,Croydon,London,51.373971,-0.096278,200,OK
54.247949,-6.524343,BT60 2LG,"Armagh City, Banbridge and Craigavon",,54.247949,-6.524343,200,OK
53.802546,-1.893727,BD13 4BN,Bradford,Yorkshire and The Humber,53.802546,-1.893727,200,OK
52.07033,-0.773086,MK14 6GQ,Milton Keynes,South East,52.07033,-0.773086,200,OK
54.940269,-1.678017,NE16 4PG,Gateshead,North East,54.940269,-1.678017,200,OK
51.604985,-0.178069,N12 0JP,Barnet,London,51.604985,-0.178069,200,OK
53.904518,-0.170075,HU18 1SG,East Riding of Yorkshire,Yorkshire and The Humber,53.904518,-0.170075,200,OK
51.467387,-0.341969,TW7 6LE,Hounslow,London,51.467387,-0.341969,200,OK
52.992492,-4.426042,LL54 5HH,Gwynedd,,52.992492,-4.426042,200,OK
51.592986,-0.367241,HA5 5SX,Harrow,London,51.593685,-0.36648,200,OK
50.727263,-0.7858,PO20 0TN,Chichester,South East,50.727263,-0.7858,200,OK
54.586767,-5.805836,BT16 2FH,Lisburn and Castlereagh,,54.586767,-5.805836,200,OK
54.959144,-1.851739,NE42 5JZ,Northumberland,North East,54.959144,-1.851739,200,OK
51.914404,-2.21016,GL2 9LJ,Tewkesbury,South West,51.914404,-2.21016,200,OK
50.942516,0.327821,,,,,,200,OK
52.44929,-0.932215,LE16 9SW,West Northamptonshire,East Midlands,52.44929,-0.932215,200,OK
54.005061,-0.435463,YO25 6PG,East Riding of Yorkshire,Yorkshire and The Humber,54.005097,-0.435477,200,OK
50.851547,0.558631,TN38 0DH,Hastings,South East,50.851584,0.558577,200,OK
52.899822,-1.476673,DE23 8RR,Derby,East Midlands,52.899822,-1.476673,200,OK
53.028047,-2.47325,CW5 7QX,Cheshire East,North West,53.028047,-2.47325,200,OK
52.056479,-1.753549,GL55 6LE,Cotswold,South West,52.056479,-1.753549,200,OK
51.599446,-2.717505,,,,,,200,OK
51.953956,-2.060741,GL52 8FA,Tewkesbury,South West,51.953956,-2.060741,200,OK
53.743767,-0.430204,HU10 6UH,East Riding of Yorkshire,Yorkshire and The Humber,53.743767,-0.430204,200,OK
50.401651,-5.108914,TR8 5RW,Cornwall,South West,50.401651,-5.108914,200,OK
52.624169,1.279822,NR2 2BB,Norwich,East of England,52.624169,1.279822,200,OK
51.623148,-0.05684,N9 0GH,Enfield,London,51.623148,-0.05684,200,OK
52.122048,-1.735607,CV37 8TD,Stratford-on-Avon,West Midlands,52.122048,-1.735607,200,OK
51.399401,-0.139858,CR4 1NG,Merton,London,51.399401,-0.139858,200,OK
52.464469,-2.171882,DY8 4QU,Dudley,West Midlands,52.464469,-2.171882,200,OK
52.250542,-1.393481,CV47 0HN,Stratford-on-Avon,West Midlands,52.250542,-1.393481,200,OK
52.744661,-1.36564,LE67 5HE,North West Leicestershire,East Midlands,52.744661,-1.36564,200,OK
51.418947,-0.305625,KT2 5AU,Kingston upon Thames,London,51.418947,-0.305625,200,OK
52.47989,-0.940046,LE16 9PP,Harborough,East Midlands,52.479498,-0.94035,200,OK
51.573974,-2.433141,BS37 7QF,South Gloucestershire,South West,51.573974,-2.433141,200,OK
52.691947,-1.082801,LE7 2FT,Charnwood,East Midlands,52.691878,-1.083173,200,OK
52.501556,-1.999367,B69 4EP,Sandwell,West Midlands,52.501556,-1.999367,200,OK
51.324835,-1.057885,RG26 5JU,Basingstoke and Deane,South East,51.324835,-1.057885,200,OK
54.998939,-1.585428,NE7 7QY,Newcastle upon Tyne,North East,54.998939,-1.585428,200,OK
54.334654,-2.728035,LA9 6JD,Westmorland and Furness,North West,54.334654,-2.728035,200,OK
53.778477,-1.789413,BD7 4EE,Bradford,Yorkshire and The Humber,53.778477,-1.789413,200,OK
54.618858,-5.915912,BT3 9AR,Belfast,,54.619687,-5.915529,200,OK
53.541374,-2.414435,BL4 9TB,Bolton,North West,53.541374,-2.414435,200,OK
52.670226,-0.732469,LE15 6BH,Rutland,East Midlands,52.670236,-0.732542,200,OK
52.602453,-2.057452,WV11 3NN,Wolverhampton,West Midlands,52.602453,-2.057452,200,OK
50.716627,-2.435144,DT1 1JH,Dorset,South West,50.7166,-2.435156,200,OK
53.373789,-1.06003,S81 8EF,Bassetlaw,East Midlands,53.373789,-1.06003,200,OK
51.870158,0.963497,CO7 9HS,Colchester,East of England,51.870158,0.963497,200,OK
50.685968,-1.531336,PO40 9LU,Isle of Wight,South East,50.685968,-1.531336,200,OK
53.756932,-0.326945,HU8 8AP,"Kingston upon Hull, City of",Yorkshire and The Humber,53.756932,-0.326945,200,OK
52.134616,0.32076,CB21 4DX,South Cambridgeshire,East of England,52.134616,0.32076,200,OK
53.369683,-2.705761,,,,,,200,OK
52.490041,-1.912897,B18 6JY,Birmingham,West Midlands,52.490041,-1.912897,200,OK
51.438509,-0.200873,SW19 8BB,Merton,London,51.438537,-0.200934,200,OK
51.522923,0.603884,SS8 8JF,Castle Point,East of England,51.522923,0.603884,200,OK
52.181508,0.150325,CB1 7SR,Cambridge,East of England,52.181455,0.150293,200,OK
52.295985,-0.614649,NN10 6RW,North Northamptonshire,East Midlands,52.295985,-0.614649,200,OK
52.947266,-1.168523,NG7 1LH,Nottingham,East Midlands,52.947266,-1.168523,200,OK
54.005045,-2.08313,BD23 3PX,North Yorkshire,Yorkshire and The Humber,54.005045,-2.08313,200,OK
55.903392,-4.293423,G23 5QB,Glasgow City,,55.903392,-4.293423,200,OK
55.429668,-2.776404,TD9 8AR,Scottish Borders,,55.429668,-2.776404,200,OK
50.738219,-2.024903,BH16 5JL,Dorset,South West,50.738219,-2.024903,200,OK
51.281426,-0.953474,RG27 9SL,Hart,South East,51.281426,-0.953474,200,OK
52.700148,1.689434,NR29 4HF,Great Yarmouth,East of England,52.700148,1.689434,200,OK
55.846124,-4.324026,G52 1HH,Glasgow City,,55.846124,-4.324026,200,OK
50.770729,0.113527,BN25 4LF,Lewes,South East,50.770729,0.113527,200,OK
53.515413,-2.197744,M40 9QH,Manchester,North West,53.515458,-2.198256,200,OK
52.558702,-1.884151,B44 9QJ,Birmingham,West Midlands,52.558702,-1.884151,200,OK
50.920811,-1.421096,SO15 5FH,Southampton,South East,50.920811,-1.421125,200,OK
52.370736,-0.777765,NN14 1NR,North Northamptonshire,East Midlands,52.370736,-0.777765,200,OK
50.507286,-4.987038,PL28 8PU,Cornwall,South West,50.507286,-4.987038,200,OK
52.153337,-0.679157,MK46 5DS,Milton Keynes,South East,52.153337,-0.679157,200,OK
53.382527,-0.331781,LN8 3AX,West Lindsey,East Midlands,53.382527,-0.331781,200,OK
55.859559,-4.317941,G51 3NW,Glasgow City,,55.859371,-4.318362,200,OK
51.479748,-3.175538,CF10 2LE,Cardiff,,51.479719,-3.175782,200,OK
50.981259,-1.399918,SO53 4QL,Test Valley,South East,50.981259,-1.399918,200,OK
53.391215,-3.072092,CH43 7NT,Wirral,North West,53.390843,-3.072474,200,OK
51.720311,-0.064462,EN7 6DW,Broxbourne,East of England,51.720311,-0.064462,200,OK
51.509756,-0.308411,W5 5BS,Ealing,London,51.509719,-0.308232,200,OK
51.659208,-2.450912,GL13 9JU,Stroud,South West,51.659208,-2.450912,200,OK
52.553858,1.23894,NR14 8FQ,South Norfolk,East of England,52.553858,1.23894,200,OK
55.952467,-3.986442,G67 1AE,North Lanarkshire,,55.952467,-3.986442,200,OK
53.864221,-0.670763,YO43 3EQ,East Riding of Yorkshire,Yorkshire and The Humber,53.864221,-0.670763,200,OK
51.402386,-0.073558,SE25 4BJ,Croydon,London,51.401995,-0.073891,200,OK
52.954261,-1.139616,NG1 1EE,Nottingham,East Midlands,52.954186,-1.139305,200,OK
51.233348,-0.753863,GU11 3RG,Rushmoor,South East,51.233348,-0.753863,200,OK
50.986816,-2.808485,TA12 6AX,Somerset,South West,50.986816,-2.808485,200,OK
51.330328,1.365285,CT12 5HB,Thanet,South East,51.330328,1.365285,200,OK
51.490204,-0.193625,SW5 9BY,Kensington and Chelsea,London,51.490204,-0.193625,200,OK
51.549808,-0.182726,NW3 6EH,Camden,London,51.549924,-0.182649,200,OK
52.811613,1.393043,NR28 9YA,North Norfolk,East of England,52.811613,1.393043,200,OK
52.094764,-2.437408,HR8 1QB,"Herefordshire, County of",West Midlands,52.094764,-2.437408,200,OK
54.185914,-1.010769,YO62 4LN,North Yorkshire,Yorkshire and The Humber,54.185938,-1.01075,200,OK
50.843147,-0.168417,BN3 6PT,Brighton and Hove,South East,50.843147,-0.168417,200,OK
50.914295,-2.849675,TA17 8SX,Somerset,South West,50.914295,-2.849675,200,OK
52.728207,-1.385588,LE67 3LD,North West Leicestershire,East Midlands,52.728171,-1.385678,200,OK
53.39308,-3.092441,CH49 4QU,Wirral,North West,53.39308,-3.092441,200,OK
51.491367,-0.197338,SW5 9TJ,Kensington and Chelsea,London,51.491367,-0.197338,200,OK
52.587934,-0.267876,PE3 7HG,Peterborough,East of England,52.587934,-0.267876,200,OK
51.649662,-0.151256,EN4 9ER,Barnet,London,51.649662,-0.151256,200,OK
52.852878,0.500616,PE31 6QD,King's Lynn and West Norfolk,East of England,52.852878,0.500616,200,OK
51.822627,-1.54288,OX29 9NQ,West Oxfordshire,South East,51.822652,-1.542343,200,OK
54.200735,-2.948447,LA11 6ST,Westmorland and Furness,North West,54.200735,-2.948447,200,OK
53.689295,-1.793371,HD6 3LZ,Calderdale,Yorkshire and The Humber,53.689295,-1.793371,200,OK
51.244125,-2.982351,TA8 2SS,Somerset,South West,51.244125,-2.982351,200,OK
52.345148,0.218353,CB6 3LE,East Cambridgeshire,East of England,52.345148,0.218353,200,OK
51.429359,0.195199,DA2 7DB,Dartford,South East,51.429359,0.195199,200,OK
50.887934,-1.004723,PO7 8RJ,Havant,South East,50.887934,-1.004723,200,OK
52.061867,-1.330662,OX16 5QF,Cherwell,South East,52.061831,-1.330648,200,OK
51.467159,-0.264103,SW14 8NL,Richmond upon Thames,London,51.467159,-0.264103,200,OK
52.477335,-0.902206,LE16 8EJ,Harborough,East Midlands,52.477335,-0.902206,200,OK
51.90857,-4.838495,SA63 4TS,Pembrokeshire,,51.90857,-4.838495,200,OK
54.862571,-1.683839,DH9 6QX,County Durham,North East,54.862571,-1.683839,200,OK
51.560023,-2.664866,BS35 4PL,South Gloucestershire,South West,51.560023,-2.664866,200,OK
51.01172,-3.12891,TA1 5LY,Somerset,South West,51.011338,-3.128487,200,OK
51.630497,-0.792125,HP12 4HH,Buckinghamshire,South East,51.630257,-0.792126,200,OK
52.46476,-1.773813,B26 3YD,Birmingham,West Midlands,52.46476,-1.773813,200,OK
57.487683,-4.133537,IV2 7TL,Highland,,57.487975,-4.133271,200,OK
53.874507,-1.46797,LS17 9DZ,Leeds,Yorkshire and The Humber,53.874507,-1.46797,200,OK
53.362278,-2.047685,SK12 2JU,Cheshire East,North West,53.362278,-2.047685,200,OK
57.289546,-2.871971,AB54 4JJ,Aberdeenshire,,57.289182,-2.872659,200,OK
51.747526,-4.913567,SA62 4HU,Pembrokeshire,,51.747526,-4.913567,200,OK
53.369281,-1.385274,S13 8TZ,Sheffield,Yorkshire and The Humber,53.368715,-1.385267,200,OK
50.68554,-4.691716,PL35 0AU,Cornwall,South West,50.68554,-4.691716,200,OK
51.8974,0.911284,CO1 1QD,Colchester,East of England,51.897039,0.91097,200,OK
52.627031,1.321739,NR1 4AL,Norwich,East of England,52.627096,1.321618,200,OK
52.112532,-2.304816,WR14 2EB,Malvern Hills,West Midlands,52.112532,-2.304816,200,OK
53.692025,-0.961002,DN14 8QT,East Riding of Yorkshire,Yorkshire and The Humber,53.692025,-0.961002,200,OK
53.404207,-2.522661,,,,,,200,OK
51.818577,-0.807414,HP20 1EA,Buckinghamshire,South East,51.81845,-0.807316,200,OK
51.569258,-0.003424,E11 1EG,Waltham Forest,London,51.569258,-0.003424,200,OK
51.446887,-0.326983,TW1 3NL,Richmond upon Thames,London,51.446887,-0.326983,200,OK
50.910636,-1.442387,,,,,,200,OK
50.895986,-2.574413,DT9 6LH,Dorset,South West,50.895986,-2.574413,200,OK
54.634503,-5.683238,BT19 7ZX,Ards and North Down,,54.634503,-5.683238,200,OK
51.34354,0.593586,ME8 9SQ,Medway,South East,51.34354,0.593586,200,OK
53.815411,-0.342146,HU7 5XE,East Riding of Yorkshire,Yorkshire and The Humber,53.815411,-0.342146,200,OK
52.54231,-1.940151,B43 5NJ,Sandwell,West Midlands,52.54231,-1.940151,200,OK
51.454755,-0.997759,RG30 2UR,Reading,South East,51.454755,-0.997759,200,OK
51.125243,-0.17513,RH10 8GD,Crawley,South East,51.125243,-0.17513,200,OK
52.450742,-1.808066,B26 1ES,Birmingham,West Midlands,52.450742,-1.808066,200,OK
52.404887,-1.562525,CV4 9FJ,Coventry,West Midlands,52.404887,-1.562525,200,OK
51.536543,0.780414,SS3 8UJ,Southend-on-Sea,East of England,51.536543,0.780414,200,OK
55.004194,-1.47331,NE29 7AZ,North Tyneside,North East,55.004194,-1.47331,200,OK
51.47965,-0.373207,TW5 0PU,Hounslow,London,51.47965,-0.373207,200,OK
50.657992,-1.227275,PO30 3AR,Isle of Wight,South East,50.657992,-1.227275,200,OK
51.644309,-3.028105,NP44 3PF,Torfaen,,51.644309,-3.028105,200,OK
54.856599,-5.073129,,,,,,200,OK
53.231946,-1.307557,S44 6BN,Bolsover,East Midlands,53.231946,-1.307557,200,OK
53.859792,-0.672652,YO43 3FR,East Riding of Yorkshire,Yorkshire and The Humber,53.859792,-0.672652,200,OK
51.695653,0.128431,,,,,,200,OK
52.554628,1.234548,NR14 8GL,South Norfolk,East of England,52.554628,1.234548,200,OK
50.963898,-1.367991,SO50 5DT,Eastleigh,South East,50.963898,-1.367991,200,OK
51.597496,-3.070266,NP10 9JR,Newport,,51.597496,-3.070266,200,OK
53.325225,-3.112477,CH60 9JQ,Wirral,North West,53.325067,-3.112082,200,OK
52.539204,-0.300761,PE2 5SX,Peterborough,East of England,52.539204,-0.300761,200,OK
52.662703,1.724769,NR30 5PJ,Great Yarmouth,East of England,52.662703,1.724769,200,OK
52.563756,-0.794699,LE16 8DJ,Harborough,East Midlands,52.563756,-0.794699,200,OK
51.393449,-0.893844,,,,,,200,OK
57.599685,-2.125519,,,,,,200,OK
51.526705,-0.087057,EC1V 9NX,Hackney,London,51.526726,-0.08671,200,OK
51.371651,-0.302199,KT9 1RX,Kingston upon Thames,London,51.371651,-0.302199,200,OK
51.456042,0.1899,DA1 4RX,Bexley,London,51.456042,0.1899,200,OK
52.665916,-0.72795,LE15 6HT,Rutland,East Midlands,52.665916,-0.72795,200,OK
54.351922,-6.654629,BT61 7HR,"Armagh City, Banbridge and Craigavon",,54.351922,-6.654629,200,OK
53.22266,-2.854049,CH2 4JU,Cheshire West and Chester,North West,53.22266,-2.854049,200,OK
52.244392,-1.396962,CV47 0FB,Stratford-on-Avon,West Midlands,52.244499,-1.396814,200,OK
53.290094,-2.924251,CH66 1LQ,Cheshire West and Chester,North West,53.290094,-2.924251,200,OK
51.22499,1.402099,CT14 4BW,Dover,South East,51.22499,1.402099,200,OK
50.405203,-4.122812,PL6 5NG,Plymouth,South West,50.405203,-4.122812,200,OK
51.593243,-0.032288,E17 6EH,Waltham Forest,London,51.593324,-0.032818,200,OK
52.803428,-4.687892,LL53 8AP,Gwynedd,,52.803428,-4.687892,200,OK
53.53366,-2.55461,WN2 4XD,Wigan,North West,53.53366,-2.55461,200,OK
51.511798,-0.154566,W1K 6PB,Westminster,London,51.511696,-0.154354,200,OK
53.441873,-2.189466,M19 3NP,Manchester,North West,53.441873,-2.189466,200,OK
52.198807,0.139806,CB1 2BQ,Cambridge,East of England,52.198941,0.13962,200,OK
52.5997,-2.061464,WV11 3LU,Wolverhampton,West Midlands,52.5997,-2.061464,200,OK
52.295014,-1.969325,B97 5TE,Redditch,West Midlands,52.295014,-1.969325,200,OK
53.739706,-2.477208,BB2 3AL,Blackburn with Darwen,North West,53.739797,-2.476997,200,OK
55.167527,-1.549853,NE63 0YB,Northumberland,North East,55.167527,-1.549853,200,OK
53.78911,-3.018537,FY4 5RB,Blackpool,North West,53.78911,-3.018537,200,OK
51.813958,1.024829,CO7 0PN,Tendring,East of England,51.813848,1.024198,200,OK
53.742134,-2.944273,FY8 5AE,Fylde,North West,53.742134,-2.944273,200,OK
51.335836,0.550824,ME5 8UN,Medway,South East,51.335836,0.550824,200,OK
53.381014,-1.279601,S66 9BH,Rotherham,Yorkshire and The Humber,53.381014,-1.279601,200,OK
51.656363,-0.042567,EN3 7JN,Enfield,London,51.656444,-0.042941,200,OK
52.622908,-0.547473,PE9 3RS,Rutland,East Midlands,52.622908,-0.547473,200,OK
53.532058,-2.282983,M25 1RB,Bury,North West,53.532058,-2.282983,200,OK
52.415044,-4.087367,SY23 2AY,Ceredigion,,52.415044,-4.087367,200,OK
54.918583,-1.437701,SR5 3AL,Sunderland,North East,54.918592,-1.437841,200,OK
57.439934,-2.163034,AB41 8YJ,Aberdeenshire,,57.439934,-2.163034,200,OK
51.356415,-1.156992,RG26 4YD,Basingstoke and Deane,South East,51.356346,-1.157381,200,OK
53.223886,-2.124305,SK11 0JG,Cheshire East,North West,53.223886,-2.124305,200,OK
52.625751,-1.670445,B77 2SG,Tamworth,West Midlands,52.625751,-1.670445,200,OK
51.826683,-3.009043,NP7 5RH,Monmouthshire,,51.82667,-3.008991,200,OK
53.789575,-1.0666,YO8 3AH,North Yorkshire,Yorkshire and The Humber,53.789575,-1.0666,200,OK
55.90123,-4.199152,G64 1BN,East Dunbartonshire,,55.90123,-4.199152,200,OK
51.679645,0.301108,CM15 0HJ,Brentwood,East of England,51.679645,0.301108,200,OK
51.386159,-0.333768,KT7 0BN,Elmbridge,South East,51.386159,-0.333768,200,OK
54.147827,-3.229205,LA14 4QS,Westmorland and Furness,North West,54.147827,-3.229205,200,OK
51.482531,-3.167862,CF24 0EL,Cardiff,,51.482777,-3.167704,200,OK
53.424431,-2.854718,L36 3AB,Knowsley,North West,53.424598,-2.854886,200,OK
51.926866,-0.183286,SG1 4LU,Stevenage,East of England,51.926812,-0.183279,200,OK
51.490138,-0.049219,SE16 2QY,Southwark,London,51.490138,-0.049219,200,OK
53.595894,-2.445353,BL1 8AU,Bolton,North West,53.595894,-2.445353,200,OK
52.601963,-2.178982,WV6 8FB,Wolverhampton,West Midlands,52.601963,-2.178982,200,OK
51.359187,-0.218634,SM3 8BW,Sutton,London,51.359187,-0.218634,200,OK
53.73672,-2.963723,FY8 5JP,Fylde,North West,53.73672,-2.963723,200,OK
50.399189,-4.203385,,,,,,200,OK
54.832288,-1.370312,SR7 8JD,County Durham,North East,54.832288,-1.370312,200,OK
52.55155,-2.111348,WV4 6NA,Wolverhampton,West Midlands,52.55155,-2.111348,200,OK
53.408922,-2.480854,WA3 6EY,Warrington,North West,53.408922,-2.480854,200,OK
53.201776,-1.160254,NG20 0DJ,Mansfield,East Midlands,53.201776,-1.160254,200,OK
51.392351,0.093092,BR5 1GX,Bromley,London,51.392351,0.093092,200,OK
51.606586,0.138168,IG7 4GS,Redbridge,London,51.606586,0.138168,200,OK
54.701222,-1.586637,DL16 6EP,County Durham,North East,54.701222,-1.586637,200,OK
55.873948,-3.976515,ML6 6PP,North Lanarkshire,,55.873948,-3.976515,200,OK
50.24587,-5.276788,TR16 4EH,Cornwall,South West,50.24587,-5.276788,200,OK
53.541818,-2.109711,OL1 1SB,Oldham,North West,53.541951,-2.109498,200,OK
50.394768,-4.054288,PL7 4DE,Plymouth,South West,50.394768,-4.054288,200,OK
52.825668,-1.431557,DE73 8GA,South Derbyshire,East Midlands,52.825395,-1.430923,200,OK
50.50549,-4.302951,PL17 7SP,Cornwall,South West,50.505498,-4.302994,200,OK
50.918213,-1.384255,SO18 1QW,Southampton,South East,50.918213,-1.384255,200,OK
52.941037,1.206794,NR26 8RH,North Norfolk,East of England,52.941037,1.206794,200,OK
51.550165,-2.41832,BS37 5XA,South Gloucestershire,South West,51.550165,-2.41832,200,OK
51.63301,-0.125287,N14 6PT,Enfield,London,51.63301,-0.125287,200,OK
51.87525,0.88935,,,,,,200,OK
51.787246,-3.247918,NP22 4EB,Blaenau Gwent,,51.787246,-3.247918,200,OK
53.715161,-1.792169,HD6 2NP,Calderdale,Yorkshire and The Humber,53.715161,-1.792169,200,OK
54.271193,-2.953688,LA12 8NL,Westmorland and Furness,North West,54.271193,-2.953688,200,OK
51.573076,0.093837,IG2 7EP,Redbridge,London,51.572856,0.093552,200,OK
55.645914,-4.529288,KA3 2NE,East Ayrshire,,55.645729,-4.529117,200,OK
50.915089,-1.435193,SO15 8QY,Southampton,South East,50.915089,-1.435193,200,OK
51.710501,-0.545973,HP3 0NQ,Dacorum,East of England,51.710501,-0.545973,200,OK
51.256187,0.544247,ME15 7JW,Maidstone,South East,51.256187,0.544247,200,OK
53.803127,-2.231726,BB10 1XA,Burnley,North West,53.803127,-2.231726,200,OK
51.538736,-0.474172,UB8 2BP,Hillingdon,London,51.538736,-0.474172,200,OK
51.7072,-1.131618,OX44 9JP,South Oxfordshire,South East,51.707165,-1.131633,200,OK
55.006063,-1.620721,NE3 1HE,Newcastle upon Tyne,North East,55.006304,-1.620015,200,OK
52.399505,-0.731553,NN16 8DD,North Northamptonshire,East Midlands,52.399638,-0.731697,200,OK
51.595896,-0.057642,N17 9SR,Haringey,London,51.59595,-0.057514,200,OK
51.540479,0.155793,RM10 8SA,Barking and Dagenham,London,51.540738,0.155878,200,OK
53.34406,-1.375123,S12 4LD,Sheffield,Yorkshire and The Humber,53.343791,-1.375006,200,OK
51.976739,-3.713382,SA20 0SF,Carmarthenshire,,51.976739,-3.713382,200,OK
50.839422,-0.816325,PO19 3DF,Chichester,South East,50.839422,-0.816325,200,OK
51.503542,-0.110448,SE1 8RT,Lambeth,London,51.503542,-0.110462,200,OK
51.539389,-0.248522,NW10 4DT,Brent,London,51.539389,-0.248522,200,OK
55.739654,-4.208229,G75 9LR,South Lanarkshire,,55.739654,-4.208229,200,OK
51.022158,-0.456361,RH14 9LW,Horsham,South East,51.022158,-0.456361,200,OK
51.543228,-0.440998,UB10 9HB,Hillingdon,London,51.543228,-0.440998,200,OK
51.77233,-3.760662,SA9 1ES,Powys,,51.77233,-3.760662,200,OK
51.413526,-3.268284,CF62 9AP,Vale of Glamorgan,,51.413526,-3.268284,200,OK
54.728259,-1.961243,DL13 2SF,County Durham,North East,54.728259,-1.961243,200,OK
52.926061,-1.494936,DE22 3FS,Derby,East Midlands,52.926061,-1.494936,200,OK
53.407235,-2.985306,L1 6BW,Liverpool,North West,53.407324,-2.985383,200,OK
52.282122,-1.589035,CV34 4RA,Warwick,West Midlands,52.282137,-1.589008,200,OK
52.278915,-0.595143,NN10 0UP,North Northamptonshire,East Midlands,52.278915,-0.595143,200,OK
53.95139,-1.037188,YO10 5HS,York,Yorkshire and The Humber,53.951399,-1.037211,200,OK
52.966229,-1.166581,NG7 6GB,Nottingham,East Midlands,52.966229,-1.166581,200,OK
51.378723,-2.389354,BA2 1BS,Bath and North East Somerset,South West,51.378738,-2.389239,200,OK
51.754235,-0.4767,HP1 1HU,Dacorum,East of England,51.754235,-0.4767,200,OK
53.724428,-1.860731,HX1 9SA,Calderdale,Yorkshire and The Humber,53.724428,-1.860731,200,OK
53.001783,-2.182466,ST4 1EH,Stoke-on-Trent,West Midlands,53.001783,-2.182466,200,OK
51.483433,-0.131043,SW11 7DP,Wandsworth,London,51.4835,-0.131257,200,OK
53.205634,-0.5499,LN5 8QE,Lincoln,East Midlands,53.205634,-0.5499,200,OK
50.799782,-3.191039,EX14 1LR,East Devon,South West,50.799721,-3.190852,200,OK
53.701887,-1.869682,HX3 0TQ,Calderdale,Yorkshire and The Humber,53.701887,-1.869682,200,OK
51.558642,0.178307,RM7 0XQ,Barking and Dagenham,London,51.558642,0.178307,200,OK
51.567804,-0.414215,HA4 6AU,Hillingdon,London,51.567804,-0.414215,200,OK
51.663459,0.373285,CM4 9AX,Brentwood,East of England,51.663459,0.373285,200,OK
54.810653,-6.519018,BT45 8GZ,Mid Ulster,,54.810653,-6.519018,200,OK
50.78392,-1.061858,PO4 9QF,Portsmouth,South East,50.78392,-1.061858,200,OK
53.545305,-2.410972,,,,,,200,OK
53.494661,-2.300371,M6 7DN,Salford,North West,53.494661,-2.300371,200,OK
51.50939,-0.125178,WC2N 4DN,Westminster,London,51.50939,-0.125178,200,OK
54.57765,-6.016217,BT11 8PB,Belfast,,54.57765,-6.016217,200,OK
51.5662,0.51797,SS13 2DF,Basildon,East of England,51.5662,0.51797,200,OK
51.615043,-3.959531,SA1 4NA,Swansea,,51.615043,-3.959531,200,OK
53.813734,-1.519734,LS8 5RU,Leeds,Yorkshire and The Humber,53.813734,-1.519734,200,OK
51.523616,-0.171314,NW8 8PX,Westminster,London,51.523616,-0.171314,200,OK
54.511937,-1.556833,DL1 5TN,Darlington,North East,54.511937,-1.556833,200,OK
50.679531,-1.408896,PO30 4JL,Isle of Wight,South East,50.679531,-1.408896,200,OK
56.060634,-3.529673,KY12 8QZ,Fife,,56.060634,-3.529673,200,OK
52.511768,-1.985074,B70 6LD,Sandwell,West Midlands,52.511768,-1.985074,200,OK
54.105784,-1.007258,YO60 6RT,North Yorkshire,Yorkshire and The Humber,54.105784,-1.007258,200,OK
51.528788,-0.192905,W9 1LG,Westminster,London,51.528788,-0.192905,200,OK
52.541434,-2.015925,B70 0QT,Sandwell,West Midlands,52.541434,-2.015925,200,OK
53.473241,-1.601039,S36 1GN,Sheffield,Yorkshire and The Humber,53.473241,-1.601039,200,OK
53.386678,-3.035095,CH43 4YD,Wirral,North West,53.386633,-3.035034,200,OK
50.358711,-4.063908,PL9 8EE,Plymouth,South West,50.358711,-4.063908,200,OK
52.675574,-1.923183,WS7 4UY,Lichfield,West Midlands,52.675574,-1.923183,200,OK
51.547811,-0.00608,E20 1AL,Newham,London,51.547811,-0.00608,200,OK
52.586102,-1.091433,LE18 3WD,Oadby and Wigston,East Midlands,52.586111,-1.091477,200,OK
51.82078,-4.089455,SA14 7NL,Carmarthenshire,,51.820764,-4.089368,200,OK
53.288496,-2.934342,CH66 1TB,Cheshire West and Chester,North West,53.288278,-2.933453,200,OK
51.945665,0.644809,CO9 2EE,Braintree,East of England,51.945665,0.644809,200,OK
54.56138,-0.90774,TS13 4EY,Redcar and Cleveland,North East,54.56138,-0.90774,200,OK
50.91931,-1.407002,SO15 2PY,Southampton,South East,50.91931,-1.407002,200,OK
53.398848,-2.985443,L1 8DB,Liverpool,North West,53.398757,-2.985365,200,OK
51.429329,-2.663369,BS41 9LA,North Somerset,South West,51.429329,-2.663369,200,OK
51.902693,-2.115149,GL51 7SE,Cheltenham,South West,51.902693,-2.115149,200,OK
50.263968,-5.051727,TR1 2RA,Cornwall,South West,50.263735,-5.052049,200,OK
53.115544,-2.443628,CW1 4NS,Cheshire East,North West,53.115544,-2.443628,200,OK
51.557464,-0.326838,HA0 2RS,Brent,London,51.557464,-0.326838,200,OK
52.018579,-0.785447,MK5 6EA,Milton Keynes,South East,52.018579,-0.785447,200,OK
57.628782,-2.813759,AB56 5UT,Moray,,57.628782,-2.813759,200,OK
53.474059,-1.128465,DN11 9DX,Doncaster,Yorkshire and The Humber,53.474184,-1.128448,200,OK
51.592082,-0.083301,N17 6NP,Haringey,London,51.592082,-0.083301,200,OK
56.340267,-2.789352,KY16 9QT,Fife,,56.340267,-2.789352,200,OK
57.123092,-2.148045,AB15 7PX,Aberdeen City,,57.123092,-2.148045,200,OK
53.276392,-2.937243,CH66 3NZ,Cheshire West and Chester,North West,53.276521,-2.936645,200,OK
54.056155,-2.812414,LA1 2QG,Lancaster,North West,54.056155,-2.812414,200,OK
51.357424,-0.686232,GU19 5NW,Surrey Heath,South East,51.357424,-0.686232,200,OK
53.561792,-2.647947,WN6 8QU,Wigan,North West,53.561792,-2.647947,200,OK
53.788519,-2.743011,PR2 7DD,Preston,North West,53.788519,-2.743011,200,OK
53.39494,-2.2135,SK8 1DL,Stockport,North West,53.394697,-2.213363,200,OK
53.245998,-2.889416,CH2 4DB,Cheshire West and Chester,North West,53.245998,-2.889416,200,OK
52.681361,-0.471437,PE9 4EL,Rutland,East Midlands,52.681361,-0.471437,200,OK
53.223774,-4.244387,LL60 6AH,Isle of Anglesey,,53.223752,-4.244616,200,OK
50.100532,-5.275638,TR13 8EE,Cornwall,South West,50.100532,-5.275638,200,OK
50.768979,-2.772632,DT6 5PQ,Dorset,South West,50.768979,-2.772632,200,OK
52.543513,-0.266219,PE7 8GD,Peterborough,East of England,52.543513,-0.266219,200,OK
54.905083,-1.378298,SR1 1LE,Sunderland,North East,54.905146,-1.378313,200,OK
51.912729,0.924549,CO4 9RH,Colchester,East of England,51.912729,0.924549,200,OK
52.898681,-2.130909,ST15 8FF,Stafford,West Midlands,52.898681,-2.130909,200,OK
53.788507,-1.396802,LS25 1BJ,Leeds,Yorkshire and The Humber,53.788507,-1.396802,200,OK
51.201807,-3.483637,TA24 5ER,Somerset,South West,51.201807,-3.483637,200,OK
51.707632,-2.668563,NP16 7NH,Forest of Dean,South West,51.707953,-2.667977,200,OK
53.531004,-2.582078,WN2 3DZ,Wigan,North West,53.531004,-2.582078,200,OK
53.54666,-0.038669,DN35 9PN,North East Lincolnshire,Yorkshire and The Humber,53.54666,-0.038669,200,OK
51.723072,-0.618836,HP5 2LQ,Buckinghamshire,South East,51.723072,-0.618836,200,OK
55.022829,-1.518612,NE27 0NY,North Tyneside,North East,55.022829,-1.518612,200,OK
50.79456,-1.877901,BH22 8NG,Dorset,South West,50.79456,-1.877901,200,OK
51.377507,-0.280127,KT5 9NY,Kingston upon Thames,London,51.377708,-0.279717,200,OK
53.707098,-2.104839,OL14 7NX,Calderdale,Yorkshire and The Humber,53.707098,-2.104839,200,OK
51.390245,-2.37643,BA1 2YF,Bath and North East Somerset,South West,51.390245,-2.37643,200,OK
51.756756,-0.490945,HP1 3QP,Dacorum,East of England,51.756756,-0.490945,200,OK
51.1272,1.09071,CT18 8HP,Folkestone and Hythe,South East,51.1272,1.09071,200,OK
51.947364,-2.044393,GL52 9HL,Tewkesbury,South West,51.947364,-2.044393,200,OK
53.404263,-0.455321,LN8 2AL,West Lindsey,East Midlands,53.404263,-0.455336,200,OK
53.455958,-2.355502,M41 0SL,Trafford,North West,53.455958,-2.355502,200,OK
53.524593,-1.211627,DN5 7EB,Doncaster,Yorkshire and The Humber,53.524604,-1.211615,200,OK
51.183579,0.267569,TN9 2LZ,Tonbridge and Malling,South East,51.183579,0.267569,200,OK
53.722815,-0.516405,HU14 3BB,East Riding of Yorkshire,Yorkshire and The Humber,53.722815,-0.516405,200,OK
53.131012,-3.153039,CH7 4DZ,Flintshire,,53.131012,-3.153039,200,OK
53.529866,-0.056782,DN36 4YT,North East Lincolnshire,Yorkshire and The Humber,53.529866,-0.056782,200,OK
53.30452,-3.82561,LL30 1JL,Conwy,,53.30452,-3.82561,200,OK
51.440436,-0.928147,RG6 7DD,Wokingham,South East,51.440436,-0.928147,200,OK
54.602554,-5.869185,BT4 2EN,Belfast,,54.602554,-5.869185,200,OK
51.88735,0.846059,CO3 0GJ,Colchester,East of England,51.88735,0.846059,200,OK
51.00636,-2.482348,DT9 4NN,Somerset,South West,51.00636,-2.482348,200,OK
51.444201,-0.010484,SE6 2EZ,Lewisham,London,51.444201,-0.010484,200,OK
51.338841,-1.989378,SN10 5EE,Wiltshire,South West,51.338841,-1.989378,200,OK
51.324882,-0.130459,CR5 2JB,Croydon,London,51.324882,-0.130459,200,OK
57.650231,-1.921576,,,,,,200,OK
51.564992,-0.285802,HA9 8LL,Brent,London,51.564992,-0.285802,200,OK
50.17158,-5.128122,TR10 9TA,Cornwall,South West,50.17158,-5.128122,200,OK
51.336582,-2.981662,BS23 4BE,North Somerset,South West,51.337283,-2.981353,200,OK
51.403544,-0.590193,GU25 4PB,Runnymede,South East,51.403544,-0.590193,200,OK
52.582088,1.087689,NR18 9EN,South Norfolk,East of England,52.581983,1.088175,200,OK
52.183377,-4.049113,SA48 8PS,Ceredigion,,52.183377,-4.049113,200,OK
53.734283,0.030536,HU19 2DR,East Riding of Yorkshire,Yorkshire and The Humber,53.734283,0.030536,200,OK
53.44945,-2.349289,M41 0XW,Trafford,North West,53.449297,-2.349378,200,OK
52.135519,-1.742858,,,,,,200,OK
53.964185,-0.972629,YO19 5NX,York,Yorkshire and The Humber,53.964059,-0.972595,200,OK
51.594067,0.596329,SS6 9JA,Rochford,East of England,51.594067,0.596329,200,OK
55.959808,-3.448273,EH52 6QW,West Lothian,,55.959808,-3.448273,200,OK
51.720861,-0.070577,EN7 6RU,Broxbourne,East of England,51.720861,-0.070577,200,OK
53.450942,-2.138628,M34 2JN,Tameside,North West,53.450942,-2.138628,200,OK
51.886222,-2.207766,GL3 1BJ,Tewkesbury,South West,51.886222,-2.207766,200,OK
53.526734,-2.129342,OL8 4NE,Oldham,North West,53.526464,-2.129477,200,OK
51.346199,-0.475248,KT13 0YX,Elmbridge,South East,51.346198,-0.475228,200,OK
55.935529,-4.696723,,,,,,200,OK
50.865269,-1.007579,PO9 3SF,Havant,South East,50.865269,-1.007579,200,OK
57.465488,-4.101562,,,,,,200,OK
51.721678,0.690834,CM9 5ND,Maldon,East of England,51.721678,0.690834,200,OK
52.978365,-1.081277,NG4 4DF,Gedling,East Midlands,52.978365,-1.081277,200,OK
53.383234,-2.861048,L25 2QB,Liverpool,North West,53.383234,-2.861048,200,OK
51.506961,-0.145524,W1J 7EQ,Westminster,London,51.506898,-0.145512,200,OK
51.510998,-3.154468,CF23 9JW,Cardiff,,51.510998,-3.154468,200,OK
52.534549,-1.384151,LE10 0LT,Hinckley and Bosworth,East Midlands,52.534558,-1.384215,200,OK
52.251915,-2.821844,HR6 9DP,"Herefordshire, County of",West Midlands,52.251915,-2.821844,200,OK
51.875918,0.348005,CM6 1YQ,Uttlesford,East of England,51.875918,0.348005,200,OK
54.862645,-1.804343,DH8 6TD,County Durham,North East,54.862645,-1.804343,200,OK
51.383248,-0.351723,KT10 8HY,Elmbridge,South East,51.383604,-0.351437,200,OK
51.632312,-0.723228,HP13 7LY,Buckinghamshire,South East,51.632415,-0.723263,200,OK
51.480225,-0.060919,SE15 2SB,Southwark,London,51.480225,-0.060919,200,OK
53.588809,-2.224735,OL10 3AS,Rochdale,North West,53.588809,-2.224735,200,OK
55.890533,-4.3401,G13 1GH,Glasgow City,,55.890533,-4.3401,200,OK
55.825307,-4.018797,ML4 1NE,North Lanarkshire,,55.825307,-4.018797,200,OK
53.270385,-2.766502,WA6 9PS,Cheshire West and Chester,North West,53.270385,-2.766502,200,OK
51.611329,-2.880537,NP18 2LA,Newport,,51.611329,-2.880537,200,OK
57.173738,-2.091356,AB24 1XN,Aberdeen City,,57.173738,-2.091356,200,OK
53.492996,-2.374366,M30 8JT,Salford,North West,53.492996,-2.374366,200,OK
52.523539,-1.541347,CV10 9SA,Nuneaton and Bedworth,West Midlands,52.523539,-1.541347,200,OK
50.736048,-1.781155,BH23 1PN,"Bournemouth, Christchurch and Poole",South West,50.736048,-1.781155,200,OK
54.615987,-5.930782,BT15 3AB,Belfast,,54.616014,-5.930827,200,OK
51.233658,-0.332135,RH4 1DU,Mole Valley,South East,51.233658,-0.332135,200,OK
51.645664,-1.311757,OX14 4GS,Vale of White Horse,South East,51.645664,-1.311757,200,OK
53.101474,-3.763298,LL26 0RD,Conwy,,53.101474,-3.763298,200,OK
52.802101,-2.11141,ST17 4LF,Stafford,West Midlands,52.802101,-2.11141,200,OK
53.538152,-1.147986,DN5 9QW,Doncaster,Yorkshire and The Humber,53.538091,-1.147945,200,OK
51.405199,-2.604651,BS13 0HT,"Bristol, City of",South West,51.405199,-2.604651,200,OK
52.692482,-1.794471,WS13 8FY,Lichfield,West Midlands,52.692482,-1.794471,200,OK
53.655184,-1.579895,WF4 4QA,Wakefield,Yorkshire and The Humber,53.655184,-1.579895,200,OK
50.96943,-1.355337,SO50 9DF,Eastleigh,South East,50.969284,-1.354716,200,OK
50.820219,-0.13639,BN1 1FL,Brighton and Hove,South East,50.820219,-0.13639,200,OK
53.415303,-2.284977,M23 0HA,Manchester,North West,53.415303,-2.284977,200,OK
50.075871,-5.690287,TR19 7AW,Cornwall,South West,50.075871,-5.690287,200,OK
53.983195,-1.101784,YO30 4XR,York,Yorkshire and The Humber,53.982709,-1.101697,200,OK
53.101205,-0.934411,NG25 0PJ,Newark and Sherwood,East Midlands,53.101649,-0.93359,200,OK
53.798248,-0.342625,HU7 3HY,"Kingston upon Hull, City of",Yorkshire and The Humber,53.798248,-0.342625,200,OK
51.495022,-0.112471,SE11 6LJ,Lambeth,London,51.495022,-0.112471,200,OK
51.284346,-0.840558,GU51 4SX,Hart,South East,51.284292,-0.840588,200,OK
51.552759,0.024775,E7 0EG,Newham,London,51.552759,0.024775,200,OK
51.536206,-0.162187,NW8 7LJ,Westminster,London,51.536206,-0.162187,200,OK
51.307922,-0.338641,KT22 7LP,Mole Valley,South East,51.307791,-0.339641,200,OK
51.50452,-0.105277,SE1 8DD,Southwark,London,51.504199,-0.10604,200,OK
53.194981,-2.886309,CH1 3DZ,Cheshire West and Chester,North West,53.194981,-2.886309,200,OK
51.457201,-0.120955,SW2 5BS,Lambeth,London,51.457201,-0.120955,200,OK
51.339025,-0.722832,GU15 2BN,Surrey Heath,South East,51.339025,-0.722832,200,OK
53.991103,-1.056994,YO32 9ZD,York,Yorkshire and The Humber,53.991103,-1.056994,200,OK
51.460066,-0.434765,TW14 9RD,Hounslow,London,51.460066,-0.434765,200,OK
53.421854,-2.207436,M19 1NF,Manchester,North West,53.421854,-2.207436,200,OK
51.571407,0.419906,SS15 6NY,Basildon,East of England,51.571407,0.419906,200,OK
51.370803,-0.799271,RG45 6NU,Bracknell Forest,South East,51.370803,-0.799271,200,OK
57.813929,-4.060085,IV19 1HL,Highland,,57.813929,-4.060085,200,OK
57.118869,-2.114555,AB12 5RR,Aberdeen City,,57.118854,-2.114579,200,OK
54.579679,-1.307778,TS20 2HP,Stockton-on-Tees,North East,54.579679,-1.307778,200,OK
51.407932,-0.018989,BR3 5JR,Bromley,London,51.407932,-0.018989,200,OK
53.755085,-0.331174,HU2 0QD,"Kingston upon Hull, City of",Yorkshire and The Humber,53.755124,-0.331164,200,OK
51.556367,-2.436119,BS37 7BJ,South Gloucestershire,South West,51.556035,-2.435753,200,OK
50.9401,-0.028974,BN8 4AG,Lewes,South East,50.9401,-0.028974,200,OK
52.665297,-1.651577,,,,,,200,OK
53.519544,-2.502814,M46 0BH,Wigan,North West,53.519544,-2.502814,200,OK
53.779872,-0.264944,HU8 9RJ,"Kingston upon Hull, City of",Yorkshire and The Humber,53.779872,-0.264944,200,OK
51.521791,-0.136533,W1T 4EY,Camden,London,51.521791,-0.136533,200,OK
51.646483,0.086895,IG10 1PL,Epping Forest,East of England,51.646483,0.086895,200,OK
51.355149,-0.135963,SM6 9DX,Sutton,London,51.355149,-0.135963,200,OK
50.856499,-1.974367,BH21 7HP,Dorset,South West,50.856499,-1.974367,200,OK
53.438654,-2.990399,L20 8PS,Liverpool,North West,53.438654,-2.990399,200,OK
51.809712,1.150941,CO15 4EH,Tendring,East of England,51.809801,1.150976,200,OK
53.872658,-2.385355,BB7 1NL,Ribble Valley,North West,53.872658,-2.385355,200,OK
53.521201,-2.242053,M8 4PF,Manchester,North West,53.521201,-2.242053,200,OK
52.184872,-2.198421,WR5 1PY,Worcester,West Midlands,52.184893,-2.19846,200,OK
54.956025,-1.723003,NE21 5QW,Gateshead,North East,54.956025,-1.723003,200,OK
53.519686,-2.042553,OL5 0DA,Tameside,North West,53.519686,-2.042553,200,OK
51.280456,-0.526771,GU23 7JP,Guildford,South East,51.280456,-0.526771,200,OK
53.523507,-2.507205,M46 0SL,Wigan,North West,53.523507,-2.507205,200,OK
51.420477,-0.769983,RG42 1AB,Bracknell Forest,South East,51.420357,-0.769641,200,OK
51.925838,-0.009585,SG9 9LJ,East Hertfordshire,East of England,51.925838,-0.009585,200,OK
55.849995,-4.275372,G5 8QB,Glasgow City,,55.849619,-4.275797,200,OK
52.044245,-1.88452,WR12 7QJ,Wychavon,West Midlands,52.044245,-1.88452,200,OK
51.360475,-0.151447,SM6 0BP,Sutton,London,51.36066,-0.15121,200,OK
52.183555,0.183559,CB1 9YH,South Cambridgeshire,East of England,52.183555,0.183559,200,OK
53.453208,-2.043465,SK14 3BF,Tameside,North West,53.453208,-2.043465,200,OK
56.223438,-2.701862,KY10 3DH,Fife,,56.223438,-2.701862,200,OK
50.401727,-4.191401,PL5 1HD,Plymouth,South West,50.401727,-4.191401,200,OK
51.875876,0.550031,CM7 1HN,Braintree,East of England,51.875876,0.550031,200,OK
50.847727,0.516158,TN38 8DZ,Hastings,South East,50.847617,0.515867,200,OK
52.825039,-3.328881,SY10 0BW,Powys,,52.825039,-3.328881,200,OK
51.607967,-3.101863,NP11 6DA,Caerphilly,,51.607967,-3.101863,200,OK
53.433722,-1.448014,S5 0GP,Sheffield,Yorkshire and The Humber,53.433731,-1.447984,200,OK
57.27301,-5.728682,IV41 8PL,Highland,,57.272866,-5.728054,200,OK
50.928782,-1.393507,SO17 1NN,Southampton,South East,50.928782,-1.393507,200,OK
52.768594,-1.948824,WS15 2QE,Cannock Chase,West Midlands,52.768594,-1.948824,200,OK
54.836285,-1.587719,DH2 3RN,County Durham,North East,54.836285,-1.587719,200,OK
51.496045,-3.165326,CF24 3PA,Cardiff,,51.495649,-3.16544,200,OK
51.877592,-0.586955,LU6 2AX,Central Bedfordshire,East of England,51.877558,-0.587134,200,OK
51.617622,-0.063085,N18 2ER,Enfield,London,51.617622,-0.063085,200,OK
51.618727,0.522511,SS11 7EE,Basildon,East of England,51.618727,0.522511,200,OK
55.04393,-1.442851,NE26 2RJ,North Tyneside,North East,55.044207,-1.442518,200,OK
51.585765,-3.245839,CF83 2AP,Caerphilly,,51.585765,-3.245839,200,OK
51.238352,-0.744849,GU12 4AD,Rushmoor,South East,51.238352,-0.744849,200,OK
52.582226,-0.415615,PE8 6JJ,Peterborough,East of England,52.582226,-0.415615,200,OK
51.569095,-3.232123,CF83 1DX,Caerphilly,,51.569227,-3.232613,200,OK
51.882331,-2.295105,GL2 8NB,Tewkesbury,South West,51.882331,-2.295105,200,OK
57.13903,-2.075326,AB11 9PS,Aberdeen City,,57.1395,-2.074509,200,OK
53.788911,-1.59585,LS12 4HF,Leeds,Yorkshire and The Humber,53.788911,-1.59585,200,OK
51.504907,-0.577879,SL3 7PR,Slough,South East,51.504587,-0.578191,200,OK
51.51637,0.195013,RM13 9UB,Havering,London,51.516709,0.194294,200,OK
55.979189,-4.072426,G65 9AU,North Lanarkshire,,55.979189,-4.072426,200,OK
51.472222,0.393124,,,,,,200,OK
53.487715,-1.253983,DN12 4DE,Doncaster,Yorkshire and The Humber,53.487715,-1.253983,200,OK
54.962155,-7.262304,BT47 3WR,Derry City and Strabane,,54.962155,-7.262304,200,OK
53.667559,-2.30437,BL0 0HE,Rossendale,North West,53.667559,-2.30437,200,OK
51.903055,-1.161118,OX26 2EY,Cherwell,South East,51.903108,-1.161074,200,OK
51.805226,-0.076042,SG14 3JE,East Hertfordshire,East of England,51.805226,-0.076042,200,OK
51.561235,-0.436588,UB10 8RL,Hillingdon,London,51.561235,-0.436588,200,OK
51.67325,-1.283808,OX14 1EP,Vale of White Horse,South East,51.67325,-1.283808,200,OK
52.204748,-2.216811,WR3 8LE,Worcester,West Midlands,52.204748,-2.216811,200,OK
53.500078,-2.506277,WN7 1JY,Wigan,North West,53.500078,-2.506277,200,OK
51.077612,-2.821792,TA10 9EA,Somerset,South West,51.077612,-2.821792,200,OK
55.906381,-4.216642,G64 1ET,East Dunbartonshire,,55.906381,-4.216642,200,OK
51.451766,-1.000458,RG30 2BY,Reading,South East,51.451766,-1.000458,200,OK
52.586299,-1.140772,LE18 4UZ,Oadby and Wigston,East Midlands,52.586299,-1.140772,200,OK
54.400367,-5.898889,BT24 8AG,"Newry, Mourne and Down",,54.400286,-5.898877,200,OK
54.194729,-3.090948,LA12 0AA,Westmorland and Furness,North West,54.194729,-3.090948,200,OK
51.665304,-3.209081,NP12 3PH,Caerphilly,,51.665304,-3.209081,200,OK
51.492547,-0.185249,SW7 4JU,Kensington and Chelsea,London,51.492547,-0.185249,200,OK
51.447933,-0.122257,SW2 3RX,Lambeth,London,51.447933,-0.122257,200,OK
52.963682,0.646052,PE31 8EH,King's Lynn and West Norfolk,East of England,52.963421,0.646066,200,OK
54.895651,-4.795827,DG8 0NZ,Dumfries and Galloway,,54.895652,-4.795807,200,OK
51.311175,0.179149,TN14 5JQ,Sevenoaks,South East,51.311175,0.179149,200,OK
53.007406,-1.166027,NG5 9LT,Nottingham,East Midlands,53.007406,-1.166027,200,OK
54.540249,-1.543643,DL1 2YU,Darlington,North East,54.540249,-1.543643,200,OK
50.401501,-4.197667,PL5 1HL,Plymouth,South West,50.401501,-4.197667,200,OK
52.940197,-1.434284,DE21 4PH,Derby,East Midlands,52.940325,-1.434473,200,OK
53.159173,-2.401424,CW11 3ET,Cheshire East,North West,53.159173,-2.401424,200,OK
53.412865,-2.92655,L13 2EW,Liverpool,North West,53.412199,-2.92646,200,OK
53.365644,-2.15709,SK7 2QW,Stockport,North West,53.365644,-2.15709,200,OK
52.971171,-1.153502,NG3 5DD,Nottingham,East Midlands,52.970909,-1.152166,200,OK
51.483284,0.003174,SE10 9XE,Greenwich,London,51.483284,0.003174,200,OK
53.436754,-1.282693,S66 3XS,Rotherham,Yorkshire and The Humber,53.436754,-1.282693,200,OK
52.21759,-0.070832,CB23 5AX,South Cambridgeshire,East of England,52.217538,-0.070966,200,OK
51.690835,-3.229466,CF81 8RB,Caerphilly,,51.690942,-3.229599,200,OK
52.985364,-3.23414,LL20 7AJ,Denbighshire,,52.985364,-3.23414,200,OK
51.578791,-3.053721,NP10 8NX,Newport,,51.578791,-3.053721,200,OK
52.670508,-0.771237,LE15 8DA,Rutland,East Midlands,52.670508,-0.771237,200,OK
51.518688,-0.015856,E14 6NQ,Tower Hamlets,London,51.518688,-0.015856,200,OK
57.539401,-2.454821,AB53 4BR,Aberdeenshire,,57.539402,-2.454721,200,OK
52.271617,1.522715,IP17 3PH,East Suffolk,East of England,52.271617,1.522715,200,OK
50.845099,-0.915666,PO10 8EA,Chichester,South East,50.845099,-0.915666,200,OK
53.781901,-1.756191,BD12 0YP,Bradford,Yorkshire and The Humber,53.781901,-1.756191,200,OK
54.563483,-6.005417,BT10 0NQ,Belfast,,54.563483,-6.005417,200,OK
57.125359,-2.120091,AB10 7JN,Aberdeen City,,57.125817,-2.119762,200,OK
52.550296,-1.84403,B73 5XL,Birmingham,West Midlands,52.550296,-1.84403,200,OK
52.43875,-0.277308,PE28 5TJ,Huntingdonshire,East of England,52.43875,-0.277308,200,OK
52.590974,1.730358,NR30 3PE,Great Yarmouth,East of England,52.590974,1.730358,200,OK
52.716946,-2.504575,TF1 6TH,Telford and Wrekin,West Midlands,52.71704,-2.50518,200,OK
55.584886,-4.499794,KA1 4SS,East Ayrshire,,55.584886,-4.499794,200,OK
55.357772,-3.033604,TD9 7PS,Scottish Borders,,55.357855,-3.033561,200,OK
55.653814,-4.811652,KA22 7LB,North Ayrshire,,55.653814,-4.811652,200,OK
52.408252,-1.55348,CV5 8BJ,Coventry,West Midlands,52.408252,-1.55348,200,OK
53.165573,-3.072547,CH7 2QN,Flintshire,,53.165573,-3.072547,200,OK
51.305375,-0.218652,KT20 6BZ,Reigate and Banstead,South East,51.305375,-0.218652,200,OK
50.212188,-5.480735,TR26 1RS,Cornwall,South West,50.212263,-5.480694,200,OK
53.916633,-2.076456,,,,,,200,OK
55.983798,-4.581711,G83 0AL,West Dunbartonshire,,55.983798,-4.581711,200,OK
50.608518,-1.98012,BH19 2SP,Dorset,South West,50.608518,-1.98012,200,OK
53.770892,-3.050244,FY8 2FA,Fylde,North West,53.770892,-3.050244,200,OK
52.772733,0.191879,PE12 9RQ,South Holland,East Midlands,52.772733,0.191879,200,OK
51.646146,-0.116131,N21 1SY,Enfield,London,51.646146,-0.116131,200,OK
53.287372,-0.30256,LN8 5PE,East Lindsey,East Midlands,53.287754,-0.30289,200,OK
50.837755,-0.203155,BN3 7GJ,Brighton and Hove,South East,50.837755,-0.203155,200,OK
51.369961,0.506109,ME1 2NG,Medway,South East,51.369961,0.506109,200,OK
53.200237,-2.935924,CH1 5QX,Cheshire West and Chester,North West,53.200237,-2.935924,200,OK
51.056644,-1.333909,SO22 4NB,Winchester,South East,51.056767,-1.334409,200,OK
52.042779,-2.716349,HR2 6DQ,"Herefordshire, County of",West Midlands,52.042725,-2.716421,200,OK
54.974243,-2.363984,NE47 7EG,Northumberland,North East,54.974243,-2.363984,200,OK
54.634649,-1.581688,DL5 4XH,County Durham,North East,54.634649,-1.581688,200,OK
52.743236,0.063298,PE12 0EH,South Holland,East Midlands,52.743236,0.063298,200,OK
51.623792,-3.929772,SA1 8BJ,Swansea,,51.623814,-3.92979,200,OK
51.348123,-0.482824,KT14 7NR,Woking,South East,51.348016,-0.483008,200,OK
51.016089,-1.319949,SO21 1QN,Winchester,South East,51.016089,-1.319949,200,OK
50.837074,-1.391358,SO45 2QA,New Forest,South East,50.837074,-1.391358,200,OK
51.813867,-0.82911,HP19 7QU,Buckinghamshire,South East,51.813867,-0.82911,200,OK
56.039126,-4.367296,G63 9NB,Stirling,,56.039126,-4.367296,200,OK
51.639764,0.279922,CM15 9RF,Brentwood,East of England,51.639764,0.279922,200,OK
53.718991,-1.754751,,,,,,200,OK
52.200937,-0.89166,NN4 6LA,West Northamptonshire,East Midlands,52.200937,-0.89166,200,OK
53.639181,-1.530369,WF4 3PJ,Wakefield,Yorkshire and The Humber,53.639181,-1.530369,200,OK
51.527847,-0.74508,SL6 6JQ,Windsor and Maidenhead,South East,51.527847,-0.74508,200,OK
51.799132,-0.191968,AL7 1GG,Welwyn Hatfield,East of England,51.799132,-0.191968,200,OK
51.970265,-0.472938,MK45 4SP,Central Bedfordshire,East of England,51.970723,-0.472209,200,OK
51.690651,-4.138881,SA14 8PW,Carmarthenshire,,51.690651,-4.138881,200,OK
53.443807,-2.221002,M14 6LX,Manchester,North West,53.443807,-2.221002,200,OK
51.703797,-2.901824,NP15 1BH,Monmouthshire,,51.703797,-2.901824,200,OK
54.558973,-1.187822,TS3 9RA,Middlesbrough,North East,54.558973,-1.187822,200,OK
53.769123,-0.309117,HU8 0EF,"Kingston upon Hull, City of",Yorkshire and The Humber,53.769123,-0.309117,200,OK
