lat,lon,postcode,admin_district,region,latitude,longitude,estado_api,descripcion_estado
50.761787,-1.54057,SO41 9EH,New Forest,South East,50.762147,-1.54068,200,OK
53.299707,-3.785356,LL31 9JX,Conwy,,53.299707,-3.785356,200,OK
50.821413,-1.251243,PO14 4HW,Fareham,South East,50.821413,-1.251243,200,OK
55.063587,-1.581049,NE23 7BF,Northumberland,North East,55.063587,-1.581049,200,OK
51.427558,-2.766191,BS48 2QN,North Somerset,South West,51.427558,-2.766191,200,OK
54.55251,-1.351343,TS18 5DA,Stockton-on-Tees,North East,54.55251,-1.351343,200,OK
53.25434,-2.124333,SK11 8BU,Cheshire East,North West,53.25434,-2.124333,200,OK
53.826263,-1.721752,BD10 8EP,Bradford,Yorkshire and The Humber,53.825985,-1.721936,200,OK
54.975196,-1.559552,NE6 4AH,Newcastle upon Tyne,North East,54.975196,-1.559552,200,OK
51.541435,-2.582491,BS32 4SX,South Gloucestershire,South West,51.541435,-2.582491,200,OK
51.514087,-3.222279,CF14 2AA,Cardiff,,51.51393,-3.221117,200,OK
53.757287,-0.348622,HU5 1AA,"Kingston upon Hull, City of",Yorkshire and The Humber,53.757307,-0.348628,200,OK
51.977318,-0.225015,SG6 3HS,North Hertfordshire,East of England,51.977318,-0.225015,200,OK
51.488321,-3.242359,CF5 3DH,Cardiff,,51.488321,-3.242359,200,OK
54.558714,-0.791337,TS13 5DQ,North Yorkshire,Yorkshire and The Humber,54.558714,-0.791337,200,OK
53.280146,-1.265655,S43 4RE,Bolsover,East Midlands,53.280146,-1.265655,200,OK
53.607801,-1.222684,DN6 8LT,Doncaster,Yorkshire and The Humber,53.607801,-1.222684,200,OK
53.190455,-2.890466,CH1 1LE,Cheshire West and Chester,North West,53.190419,-2.890555,200,OK
51.393543,-0.316855,,,,,,200,OK
51.506116,-1.538142,RG17 8BP,West Berkshire,South East,51.506116,-1.538142,200,OK
57.094995,-2.088851,AB12 3TD,Aberdeen City,,57.094995,-2.088851,200,OK
52.983462,-1.169169,NG5 1LA,Nottingham,East Midlands,52.983462,-1.169169,200,OK
53.767918,-2.335696,BB5 6LE,Hyndburn,North West,53.767918,-2.335696,200,OK
51.531667,0.093652,IG11 7YD,Barking and Dagenham,London,51.531667,0.093652,200,OK
51.483609,-3.223633,CF5 9DL,Cardiff,,51.483609,-3.223633,200,OK
51.586491,-3.222937,CF83 3TD,Caerphilly,,51.586491,-3.222951,200,OK
51.944593,0.63648,CO9 2JA,Braintree,East of England,51.944593,0.63648,200,OK
53.792772,-2.878267,,,,,,200,OK
57.521237,-1.899013,,,,,,200,OK
53.333296,-3.42751,LL19 7RR,Denbighshire,,53.333296,-3.42751,200,OK
50.230412,-5.129182,TR4 8RA,Cornwall,South West,50.230412,-5.129182,200,OK
51.746861,-2.213281,GL5 1DF,Stroud,South West,51.746861,-2.213281,200,OK
51.971521,0.973112,CO7 6YQ,Babergh,East of England,51.971521,0.973112,200,OK
52.19492,-2.220527,WR1 1UG,Worcester,West Midlands,52.19492,-2.220527,200,OK
51.382846,-0.120165,CR0 3NE,Croydon,London,51.382846,-0.12014,200,OK
53.443698,-2.303369,M32 8JD,Trafford,North West,53.443698,-2.303369,200,OK
54.515708,-6.948723,BT70 2PW,Mid Ulster,,54.515708,-6.948723,200,OK
55.156279,-1.669765,NE61 2GA,Northumberland,North East,55.156279,-1.669765,200,OK
50.431302,-3.689043,TQ9 5SG,South Hams,South West,50.431302,-3.689043,200,OK
52.290969,-0.606316,NN10 9TG,North Northamptonshire,East Midlands,52.290969,-0.606316,200,OK
52.963904,-1.113323,NG3 7AN,Nottingham,East Midlands,52.963904,-1.113323,200,OK
51.466031,-3.199112,CF11 8WD,Cardiff,,51.465611,-3.19972,200,OK
51.434569,-0.386074,TW13 6QR,Hounslow,London,51.434569,-0.386074,200,OK
53.720859,-1.876594,HX1 5EJ,Calderdale,Yorkshire and The Humber,53.720859,-1.876594,200,OK
51.823399,-2.410764,GL14 1PB,Forest of Dean,South West,51.823399,-2.410764,200,OK
51.396642,0.05134,BR1 2LE,Bromley,London,51.396642,0.05134,200,OK
53.924129,-0.941085,YO41 4HP,York,Yorkshire and The Humber,53.924129,-0.941085,200,OK
54.715199,-3.499309,CA15 6AA,Cumberland,North West,54.715199,-3.499309,200,OK
57.599969,-4.43659,IV15 9QE,Highland,,57.599969,-4.43659,200,OK
54.013565,-1.076713,YO32 3YZ,York,Yorkshire and The Humber,54.014084,-1.076543,200,OK
55.825362,-4.286193,G43 1TT,Glasgow City,,55.825362,-4.286193,200,OK
51.902708,-0.452758,LU3 2BG,Luton,East of England,51.902708,-0.452758,200,OK
53.236217,-0.552463,LN1 1LT,Lincoln,East Midlands,53.236217,-0.552463,200,OK
51.486776,0.023406,SE7 7QU,Greenwich,London,51.486776,0.023406,200,OK
50.260778,-5.120977,TR4 9LF,Cornwall,South West,50.260769,-5.120948,200,OK
50.919369,-1.510796,SO40 8FB,New Forest,South East,50.919369,-1.510796,200,OK
52.452043,-2.021198,B62 0DB,Dudley,West Midlands,52.452043,-2.021198,200,OK
53.487219,-2.52222,WN7 3JH,Wigan,North West,53.487219,-2.52222,200,OK
50.895413,0.354824,BN27 4UY,Wealden,South East,50.894791,0.355532,200,OK
54.503034,-6.770894,BT70 1AP,Mid Ulster,,54.503034,-6.770894,200,OK
51.316768,-0.616564,GU21 2HH,Woking,South East,51.316768,-0.616564,200,OK
53.454446,-2.640454,WA12 9PZ,St. Helens,North West,53.45441,-2.640075,200,OK
50.798391,-0.649408,PO22 8JE,Arun,South East,50.798391,-0.649408,200,OK
51.387708,-0.099327,CR0 2QU,Croydon,London,51.387708,-0.099327,200,OK
53.447555,-2.634854,WA12 8RQ,St. Helens,North West,53.447555,-2.634854,200,OK
57.249304,-2.06004,AB23 8LE,Aberdeenshire,,57.249304,-2.06004,200,OK
51.594711,-1.33596,OX12 8JZ,Vale of White Horse,South East,51.594711,-1.33596,200,OK
51.260635,-2.514858,BA3 4EJ,Somerset,South West,51.260635,-2.514858,200,OK
53.413821,-3.02933,CH44 9AL,Wirral,North West,53.413821,-3.02933,200,OK
51.352205,-1.978124,SN10 3BB,Wiltshire,South West,51.352205,-1.978124,200,OK
51.889972,-0.502458,LU5 4QJ,Central Bedfordshire,East of England,51.889972,-0.502458,200,OK
53.77652,-2.713284,PR2 3DQ,Preston,North West,53.77652,-2.713284,200,OK
53.479858,-1.060129,DN11 0UB,Doncaster,Yorkshire and The Humber,53.479858,-1.060129,200,OK
52.809964,-1.599399,DE15 0DP,East Staffordshire,West Midlands,52.809964,-1.599399,200,OK
51.516594,0.585505,SS8 0DY,Castle Point,East of England,51.516594,0.585505,200,OK
52.111522,1.244981,IP13 6TD,East Suffolk,East of England,52.111467,1.24505,200,OK
53.409072,-1.409793,S9 2FZ,Sheffield,Yorkshire and The Humber,53.409072,-1.409793,200,OK
51.517096,0.035069,E16 3LW,Newham,London,51.517096,0.035069,200,OK
55.964315,-2.689329,,,,,,200,OK
51.576715,-0.70096,SL8 5XQ,Buckinghamshire,South East,51.576715,-0.70096,200,OK
51.526764,-0.083508,N1 6HA,Hackney,London,51.526764,-0.083508,200,OK
56.075347,-3.443576,KY12 7QY,Fife,,56.075347,-3.443576,200,OK
56.679726,-5.119657,,,,,,200,OK
51.750499,-2.570141,GL15 6NE,Forest of Dean,South West,51.750499,-2.570141,200,OK
55.386261,-4.005824,DG4 6ND,Dumfries and Galloway,,55.386261,-4.005824,200,OK
53.740092,-0.377681,HU3 6DD,"Kingston upon Hull, City of",Yorkshire and The Humber,53.739881,-0.377832,200,OK
51.797848,-4.971494,SA61 1QT,Pembrokeshire,,51.797944,-4.97146,200,OK
53.046616,-4.289759,LL54 6NT,Gwynedd,,53.046616,-4.289759,200,OK
52.748274,0.397757,PE30 5AH,King's Lynn and West Norfolk,East of England,52.748274,0.397757,200,OK
54.216079,-7.723299,BT92 3BB,Fermanagh and Omagh,,54.216079,-7.723299,200,OK
52.928451,-1.287581,NG10 5DF,Erewash,East Midlands,52.928451,-1.287581,200,OK
52.646033,-2.422335,TF7 4QH,Telford and Wrekin,West Midlands,52.645493,-2.42156,200,OK
54.993534,-1.425059,NE33 3JY,South Tyneside,North East,54.993534,-1.425059,200,OK
54.555243,-3.578529,CA28 6LX,Cumberland,North West,54.555243,-3.578529,200,OK
52.741092,-1.865006,WS15 4EF,Lichfield,West Midlands,52.741092,-1.865006,200,OK
51.656543,-3.18493,NP12 2JZ,Caerphilly,,51.656543,-3.18493,200,OK
51.320413,0.712015,ME9 8DY,Swale,South East,51.320413,0.712015,200,OK
53.920547,-1.83415,LS29 9HY,Bradford,Yorkshire and The Humber,53.920547,-1.83415,200,OK
53.76188,-1.684574,BD4 0SF,Bradford,Yorkshire and The Humber,53.76188,-1.684574,200,OK
53.571201,-0.124873,DN37 9AW,North East Lincolnshire,Yorkshire and The Humber,53.571201,-0.124873,200,OK
53.726959,-1.326614,,,,,,200,OK
52.932773,-0.053788,PE20 1XG,Boston,East Midlands,52.932773,-0.053788,200,OK
57.377047,-2.464948,AB51 5BB,Aberdeenshire,,57.37724,-2.466231,200,OK
55.041508,-1.488751,NE25 9QL,North Tyneside,North East,55.041508,-1.488751,200,OK
51.513047,-0.185491,W2 3SG,Westminster,London,51.513047,-0.185491,200,OK
53.783022,-3.034644,FY4 2QN,Blackpool,North West,53.783022,-3.034644,200,OK
55.903473,-3.138476,EH17 8GQ,City of Edinburgh,,55.903473,-3.138476,200,OK
50.474748,-3.5304,TQ1 3JP,Torbay,South West,50.474366,-3.529994,200,OK
53.305702,-1.37112,S21 4GB,North East Derbyshire,East Midlands,53.305702,-1.37112,200,OK
51.928635,-1.28234,,,,,,200,OK
53.61187,-2.120018,OL16 4EA,Rochdale,North West,53.61187,-2.120018,200,OK
53.743938,-1.596842,LS27 8BQ,Leeds,Yorkshire and The Humber,53.743938,-1.596842,200,OK
51.272256,0.5748,ME14 4FB,Maidstone,South East,51.272326,0.574904,200,OK
51.509449,-3.590276,CF31 4HW,Bridgend,,51.509449,-3.590276,200,OK
53.353281,-3.163313,CH48 2LH,Wirral,North West,53.353281,-3.163313,200,OK
52.969755,-2.690948,SY13 1BP,Shropshire,West Midlands,52.969755,-2.690948,200,OK
55.528211,-4.619844,KA9 1UL,South Ayrshire,,55.528211,-4.619844,200,OK
51.502892,-0.335789,W7 2BE,Ealing,London,51.50282,-0.335763,200,OK
51.44138,-0.093502,SE21 8JJ,Southwark,London,51.441403,-0.092652,200,OK
50.43532,-4.942715,TR9 6AH,Cornwall,South West,50.43532,-4.942715,200,OK
53.476284,-2.985775,L21 7NL,Sefton,North West,53.476284,-2.985775,200,OK
52.441539,-1.531695,CV6 2FQ,Coventry,West Midlands,52.441539,-1.531695,200,OK
51.51653,-0.139875,W1W 8AD,Westminster,London,51.51653,-0.139875,200,OK
51.601563,0.050613,IG8 8JJ,Redbridge,London,51.601563,0.050613,200,OK
51.455333,-2.603472,BS1 5LQ,"Bristol, City of",South West,51.455332,-2.603473,200,OK
56.6438,-2.881671,DD8 2HA,Angus,,56.644237,-2.882121,200,OK
52.607543,-1.946619,WS4 1HS,Walsall,West Midlands,52.607543,-1.946619,200,OK
51.268457,0.517513,ME16 8RD,Maidstone,South East,51.268457,0.517513,200,OK
51.305805,-0.307614,KT21 2FG,Mole Valley,South East,51.305805,-0.307614,200,OK
52.167786,-4.139659,SA48 8BQ,Ceredigion,,52.167786,-4.139659,200,OK
55.074509,-3.60056,DG1 1NH,Dumfries and Galloway,,55.074509,-3.60056,200,OK
52.663146,-2.499445,,,,,,200,OK
51.569566,0.270578,RM14 1LY,Havering,London,51.569566,0.270578,200,OK
54.961598,-2.112929,NE46 2HZ,Northumberland,North East,54.961598,-2.112929,200,OK
52.574383,-2.091442,WV14 6EW,Wolverhampton,West Midlands,52.573943,-2.090939,200,OK
52.11202,-1.350355,OX17 1AS,Cherwell,South East,52.11202,-1.350355,200,OK
51.288226,0.289315,TN15 9HW,Tonbridge and Malling,South East,51.288226,0.289315,200,OK
53.592699,-2.684137,WN6 0QS,Wigan,North West,53.592699,-2.684137,200,OK
52.960264,-1.116139,NG3 7BW,Nottingham,East Midlands,52.960264,-1.116139,200,OK
53.491083,-3.007944,L23 9TU,Sefton,North West,53.491083,-3.007944,200,OK
51.656555,-0.047112,EN3 5JF,Enfield,London,51.656594,-0.047084,200,OK
52.033742,-4.455336,SA38 9DQ,Carmarthenshire,,52.033742,-4.455336,200,OK
51.343855,-0.257523,KT17 1NA,Epsom and Ewell,South East,51.343855,-0.257523,200,OK
50.91427,-1.506582,SO40 8SS,New Forest,South East,50.91427,-1.506582,200,OK
53.5769,-0.168365,DN41 7PT,North East Lincolnshire,Yorkshire and The Humber,53.5769,-0.16838,200,OK
52.060934,1.142395,IP1 2JJ,Ipswich,East of England,52.060934,1.142395,200,OK
51.715658,-3.82631,SA8 3HT,Neath Port Talbot,,51.715658,-3.82631,200,OK
50.262671,-5.084145,TR1 3LF,Cornwall,South West,50.262671,-5.084145,200,OK
54.752392,-5.710187,BT38 9QF,Mid and East Antrim,,54.752392,-5.710187,200,OK
51.132795,-3.022976,TA6 7PU,Somerset,South West,51.132795,-3.022976,200,OK
50.892773,-1.010137,PO8 8AL,Havant,South East,50.892773,-1.010137,200,OK
52.300612,-2.448236,WR6 6SU,Malvern Hills,West Midlands,52.300612,-2.448236,200,OK
53.556083,-2.319494,M26 1ND,Bury,North West,53.556083,-2.319494,200,OK
51.78077,-4.109289,SA14 6BP,Carmarthenshire,,51.78077,-4.109289,200,OK
53.758581,-1.85942,BD13 2NP,Bradford,Yorkshire and The Humber,53.758581,-1.85942,200,OK
52.228,-1.611411,CV35 8EB,Warwick,West Midlands,52.228,-1.611411,200,OK
51.330325,-2.475794,BA2 0JF,Bath and North East Somerset,South West,51.330568,-2.475797,200,OK
52.128888,0.176019,CB22 3DF,South Cambridgeshire,East of England,52.128878,0.176034,200,OK
50.298625,-5.14922,TR4 9ND,Cornwall,South West,50.298625,-5.14922,200,OK
50.924431,-0.464831,RH20 4RU,Horsham,South East,50.924431,-0.464831,200,OK
53.431283,-1.38137,S61 1EB,Rotherham,Yorkshire and The Humber,53.431099,-1.38217,200,OK
57.379694,-2.000234,AB41 8JR,Aberdeenshire,,57.379694,-2.000234,200,OK
50.464476,-3.527054,TQ2 5DL,Torbay,South West,50.464476,-3.527054,200,OK
53.419104,-2.422001,M31 4DR,Trafford,North West,53.419104,-2.422001,200,OK
53.632128,-1.175084,DN6 9EW,Doncaster,Yorkshire and The Humber,53.632128,-1.175084,200,OK
50.009774,-5.168586,TR12 7LZ,Cornwall,South West,50.009774,-5.168586,200,OK
55.767975,-4.15035,G74 3ZG,South Lanarkshire,,55.767975,-4.15035,200,OK
52.957849,-4.031017,LL48 6ST,Gwynedd,,52.957849,-4.031017,200,OK
53.441006,-1.971749,SK13 6YT,High Peak,East Midlands,53.441285,-1.971433,200,OK
51.560549,-3.023986,NP10 8TH,Newport,,51.560549,-3.023986,200,OK
52.938099,-0.65967,NG31 8NA,South Kesteven,East Midlands,52.938099,-0.65967,200,OK
52.651506,-1.058193,LE5 1SS,Leicester,East Midlands,52.651515,-1.05817,200,OK
53.242795,-4.143002,LL59 5UG,Isle of Anglesey,,53.242795,-4.143002,200,OK
55.138425,-6.645448,BT52 2HY,Causeway Coast and Glens,,55.138425,-6.645448,200,OK
52.389015,-2.281739,DY11 6HE,Wyre Forest,West Midlands,52.389015,-2.281739,200,OK
51.419144,0.122921,DA14 5AG,Bexley,London,51.419393,0.122602,200,OK
50.712311,-3.077877,EX12 2EY,East Devon,South West,50.712311,-3.077877,200,OK
51.526076,-0.432574,UB4 8AY,Hillingdon,London,51.526006,-0.432778,200,OK
50.797312,-0.643947,PO22 8LZ,Arun,South East,50.797312,-0.643947,200,OK
51.34392,-0.743073,GU15 4JH,Surrey Heath,South East,51.34392,-0.743073,200,OK
51.429845,0.053805,SE9 3BN,Greenwich,London,51.429845,0.053805,200,OK
53.554394,-2.315844,M26 1LZ,Bury,North West,53.554394,-2.315844,200,OK
51.436865,-0.459139,TW15 2JF,Spelthorne,South East,51.436778,-0.458681,200,OK
50.739036,-2.899746,DT6 6QF,Dorset,South West,50.739036,-2.899746,200,OK
54.49953,-1.364735,TS15 9EE,Stockton-on-Tees,North East,54.49953,-1.364735,200,OK
51.614033,-2.961035,NP18 3NU,Newport,,51.614033,-2.961035,200,OK
52.902549,-1.485393,DE23 1JA,Derby,East Midlands,52.902512,-1.485364,200,OK
50.912532,-1.434513,SO15 0HT,Southampton,South East,50.912478,-1.434562,200,OK
51.377108,-0.213211,,,,,,200,OK
51.451529,-0.996837,RG30 2JN,Reading,South East,51.451446,-0.996666,200,OK
52.285984,-1.542428,CV31 3QJ,Warwick,West Midlands,52.285984,-1.542428,200,OK
53.712372,-1.387031,WF10 5TG,Wakefield,Yorkshire and The Humber,53.711988,-1.387537,200,OK
53.159374,-1.225183,NG19 7LA,Mansfield,East Midlands,53.159374,-1.225183,200,OK
53.815816,-1.544315,LS7 2DQ,Leeds,Yorkshire and The Humber,53.815422,-1.544699,200,OK
50.122441,-5.54127,TR18 2PW,Cornwall,South West,50.122441,-5.54127,200,OK
55.241897,-3.765863,DG3 5PD,Dumfries and Galloway,,55.24229,-3.765653,200,OK
53.349152,-2.885058,L19 2QR,Liverpool,North West,53.348974,-2.884588,200,OK
56.112927,-3.563687,KY12 9NF,Fife,,56.112927,-3.563687,200,OK
53.738027,-0.35805,HU3 2QU,"Kingston upon Hull, City of",Yorkshire and The Humber,53.737742,-0.357,200,OK
51.360148,-2.348954,BA2 5JE,Bath and North East Somerset,South West,51.360164,-2.349658,200,OK
53.573134,-0.830376,DN17 4BZ,North Lincolnshire,Yorkshire and The Humber,53.573134,-0.830376,200,OK
50.600414,-3.678608,,,,,,200,OK
51.307669,0.400263,ME19 5FD,Tonbridge and Malling,South East,51.307669,0.400263,200,OK
50.868747,-1.243806,PO15 5RX,Winchester,South East,50.868747,-1.243806,200,OK
51.431522,0.051506,SE9 4SX,Greenwich,London,51.431522,0.051506,200,OK
55.846415,-4.245511,G5 0SE,Glasgow City,,55.846415,-4.245511,200,OK
51.543278,-0.046097,E9 7AG,Hackney,London,51.543278,-0.046097,200,OK
51.335043,-0.828786,GU46 6JB,Hart,South East,51.335043,-0.828786,200,OK
50.444609,-3.56388,TQ3 2TN,Torbay,South West,50.444609,-3.56388,200,OK
51.431665,-2.758531,BS48 2BF,North Somerset,South West,51.431652,-2.758923,200,OK
51.114275,-3.010909,TA6 6HJ,Somerset,South West,51.114275,-3.010909,200,OK
50.677942,-3.49461,EX6 8XE,Teignbridge,South West,50.677942,-3.49461,200,OK
50.816581,-1.876453,BH22 0BS,Dorset,South West,50.816456,-1.876886,200,OK
53.844594,-2.13806,BB8 8PL,Pendle,North West,53.844603,-2.138045,200,OK
55.763638,-4.498791,G78 4BB,East Renfrewshire,,55.763638,-4.498791,200,OK
52.461595,-2.00992,B32 1AJ,Birmingham,West Midlands,52.461595,-2.00992,200,OK
52.395521,-0.535447,NN14 4JT,North Northamptonshire,East Midlands,52.395521,-0.535447,200,OK
50.748888,-1.908934,BH10 4BX,"Bournemouth, Christchurch and Poole",South West,50.748888,-1.908934,200,OK
56.140318,-3.244955,KY5 0QF,Fife,,56.140318,-3.244955,200,OK
50.398866,-4.168388,PL2 2HH,Plymouth,South West,50.398866,-4.168388,200,OK
53.485433,-3.031544,L23 3DR,Sefton,North West,53.485433,-3.031544,200,OK
51.418128,-0.318713,TW11 9DN,Richmond upon Thames,London,51.418128,-0.318713,200,OK
53.966769,-1.078494,YO31 7PX,York,Yorkshire and The Humber,53.966769,-1.078494,200,OK
51.692196,-4.947994,SA72 6XL,Pembrokeshire,,51.692196,-4.947994,200,OK
51.956028,-2.385564,GL19 3JB,Forest of Dean,South West,51.956028,-2.385564,200,OK
51.485672,-3.174798,CF10 3BE,Cardiff,,51.485365,-3.174986,200,OK
51.645288,-0.186181,EN5 1AF,Barnet,London,51.645288,-0.186181,200,OK
51.875058,-1.49761,OX7 3HJ,West Oxfordshire,South East,51.875058,-1.49761,200,OK
50.959344,0.200696,TN21 0RE,Wealden,South East,50.959358,0.200725,200,OK
51.308606,-2.953196,BS24 0PX,North Somerset,South West,51.308606,-2.953196,200,OK
52.009248,-0.497838,MK45 1DX,Central Bedfordshire,East of England,52.009108,-0.498008,200,OK
55.840207,-4.264496,G42 7JE,Glasgow City,,55.840207,-4.264496,200,OK
51.561591,-3.322547,CF38 2AJ,Rhondda Cynon Taf,,51.561591,-3.322547,200,OK
56.235379,-4.182899,FK17 8LQ,Stirling,,56.235379,-4.182899,200,OK
51.553701,-0.378385,UB5 4FF,Ealing,London,51.553701,-0.378385,200,OK
51.528016,-0.110199,WC1X 0JN,Islington,London,51.528016,-0.110199,200,OK
51.315483,-0.115863,CR8 4AQ,Croydon,London,51.315605,-0.115539,200,OK
52.275916,-1.097113,NN11 2NH,West Northamptonshire,East Midlands,52.275916,-1.097113,200,OK
53.083799,-2.972766,LL12 8UF,Wrexham,,53.083799,-2.972766,200,OK
53.681627,-2.164745,OL12 8HG,Rossendale,North West,53.681744,-2.164791,200,OK
53.804898,-2.780499,PR4 0HD,Preston,North West,53.80477,-2.780755,200,OK
55.837442,-4.260406,G42 7RE,Glasgow City,,55.837428,-4.260661,200,OK
51.591527,-2.920983,NP18 2EF,Newport,,51.591378,-2.921586,200,OK
51.497891,-0.025116,E14 8SR,Tower Hamlets,London,51.497891,-0.025116,200,OK
51.389358,0.117506,BR5 4BW,Bromley,London,51.389358,0.117506,200,OK
51.393,-0.629186,SL5 0DJ,Windsor and Maidenhead,South East,51.393112,-0.628762,200,OK
52.420715,-0.785633,NN14 6LA,North Northamptonshire,East Midlands,52.420715,-0.785633,200,OK
54.505447,-6.832063,BT70 3NH,Mid Ulster,,54.505447,-6.832063,200,OK
51.457789,0.091262,DA16 2ND,Bexley,London,51.457789,0.091262,200,OK
53.56242,-0.03871,DN35 7TR,North East Lincolnshire,Yorkshire and The Humber,53.562664,-0.038804,200,OK
52.375763,1.109636,IP22 4AP,South Norfolk,East of England,52.375763,1.109636,200,OK
52.189323,0.027151,CB23 7EP,South Cambridgeshire,East of England,52.189323,0.027151,200,OK
53.56564,-0.625451,DN16 2NU,North Lincolnshire,Yorkshire and The Humber,53.56564,-0.625451,200,OK
51.662153,-1.137727,OX10 7BD,South Oxfordshire,South East,51.662153,-1.137727,200,OK
57.55742,-2.865462,AB55 6SA,Moray,,57.55742,-2.865462,200,OK
51.257113,1.01866,CT4 7HU,Canterbury,South East,51.257452,1.018066,200,OK
51.561951,-1.826641,SN5 7DT,Swindon,South West,51.561951,-1.826641,200,OK
51.009797,-0.136243,RH17 5BH,Mid Sussex,South East,51.009797,-0.136243,200,OK
52.276756,-1.071167,NN11 2NL,West Northamptonshire,East Midlands,52.276756,-1.071167,200,OK
51.273409,0.584529,ME14 4EY,Maidstone,South East,51.273409,0.584529,200,OK
53.99827,-1.130178,YO30 1XG,York,Yorkshire and The Humber,53.99827,-1.130178,200,OK
55.938085,-4.744144,PA15 3LB,Inverclyde,,55.938088,-4.744125,200,OK
53.395311,-2.947028,L8 0RN,Liverpool,North West,53.395311,-2.947028,200,OK
54.06732,-1.214527,YO61 1QY,North Yorkshire,Yorkshire and The Humber,54.067327,-1.214519,200,OK
53.392414,-2.948527,L8 0QQ,Liverpool,North West,53.392139,-2.949183,200,OK
53.414484,-1.278961,S66 1EY,Rotherham,Yorkshire and The Humber,53.414484,-1.278961,200,OK
53.498398,-2.069334,OL6 8HX,Tameside,North West,53.498398,-2.069334,200,OK
52.003716,-0.494119,MK45 1DP,Central Bedfordshire,East of England,52.003697,-0.494061,200,OK
53.698498,-2.463491,BB3 3DE,Blackburn with Darwen,North West,53.698498,-2.463491,200,OK
51.511338,-0.132304,W1D 6PU,Westminster,London,51.511338,-0.132304,200,OK
53.434464,-2.139839,SK5 8PD,Stockport,North West,53.434464,-2.139854,200,OK
53.279377,-2.899813,CH65 8AB,Cheshire West and Chester,North West,53.279765,-2.899326,200,OK
52.750857,-1.929911,WS15 1SB,Cannock Chase,West Midlands,52.750857,-1.929911,200,OK
51.536184,-0.17691,NW8 0NH,Westminster,London,51.53646,-0.177119,200,OK
51.973978,-0.227188,SG6 3HY,North Hertfordshire,East of England,51.973978,-0.227188,200,OK
52.325569,1.446471,IP19 0LW,East Suffolk,East of England,52.325569,1.446471,200,OK
52.846535,-1.299137,DE74 2YZ,North West Leicestershire,East Midlands,52.846662,-1.297814,200,OK
51.514734,0.596815,SS8 7DD,Castle Point,East of England,51.514734,0.596815,200,OK
51.78363,0.131089,CM17 0AJ,Harlow,East of England,51.78363,0.131089,200,OK
50.801484,-0.646239,PO22 8FX,Arun,South East,50.801484,-0.646239,200,OK
52.193805,-1.708435,CV37 6QW,Stratford-on-Avon,West Midlands,52.194013,-1.708756,200,OK
53.106121,-2.449072,CW1 3AP,Cheshire East,North West,53.106121,-2.449072,200,OK
50.840352,-1.055416,PO6 2LL,Portsmouth,South East,50.840352,-1.055416,200,OK
54.525058,-1.556784,DL3 7LP,Darlington,North East,54.525057,-1.556676,200,OK
51.366526,1.417675,CT10 2TR,Thanet,South East,51.366526,1.417675,200,OK
53.55223,-1.482926,S70 2QX,Barnsley,Yorkshire and The Humber,53.552248,-1.482927,200,OK
54.099846,-1.402052,YO51 9BY,North Yorkshire,Yorkshire and The Humber,54.099846,-1.402052,200,OK
52.411464,-1.581263,CV5 7AY,Coventry,West Midlands,52.411464,-1.581263,200,OK
52.484466,-1.886569,B4 7XR,Birmingham,West Midlands,52.483968,-1.886374,200,OK
50.777125,0.28788,BN22 8LD,Eastbourne,South East,50.777557,0.28766,200,OK
54.99626,-1.582392,NE7 7EX,Newcastle upon Tyne,North East,54.99626,-1.582392,200,OK
55.970747,-2.527801,EH42 1UU,East Lothian,,55.970747,-2.527801,200,OK
55.853577,-4.43993,PA3 1RB,Renfrewshire,,55.853215,-4.440276,200,OK
52.263079,-1.169538,NN11 9DP,West Northamptonshire,East Midlands,52.263079,-1.169538,200,OK
53.219013,-1.400665,S41 0JP,Chesterfield,East Midlands,53.219013,-1.400665,200,OK
51.364957,-0.437679,KT13 0EE,Elmbridge,South East,51.364957,-0.437679,200,OK
50.771065,0.296009,BN22 7AR,Eastbourne,South East,50.771065,0.296009,200,OK
55.497573,-4.603624,KA9 1JA,South Ayrshire,,55.497591,-4.603626,200,OK
53.106984,-2.303755,ST7 3QZ,Cheshire East,North West,53.106984,-2.303755,200,OK
51.070007,-0.370685,RH12 3LR,Horsham,South East,51.070007,-0.370685,200,OK
52.405183,-1.99925,B31 5JF,Birmingham,West Midlands,52.405183,-1.99925,200,OK
52.334236,-0.188273,PE29 3EZ,Huntingdonshire,East of England,52.334236,-0.188273,200,OK
52.286081,-1.589878,CV34 4UP,Warwick,West Midlands,52.286081,-1.589878,200,OK
51.750836,0.501092,CM1 6QZ,Chelmsford,East of England,51.750819,0.501076,200,OK
52.003422,-0.23886,SG5 4SD,Central Bedfordshire,East of England,52.003638,-0.239434,200,OK
51.931995,-4.627192,SA34 0YD,Pembrokeshire,,51.931985,-4.62722,200,OK
52.590663,-1.110779,LE18 1DJ,Oadby and Wigston,East Midlands,52.590555,-1.110767,200,OK
52.573842,-0.267,PE3 6JJ,Peterborough,East of England,52.573316,-0.266077,200,OK
51.08194,-4.043454,EX32 7JE,North Devon,South West,51.08194,-4.043454,200,OK
54.41704,-6.976051,BT69 6BB,Mid Ulster,,54.41704,-6.976051,200,OK
52.030051,1.205683,IP3 8ED,Ipswich,East of England,52.029391,1.206132,200,OK
55.716098,-4.559906,KA3 4BN,East Ayrshire,,55.716098,-4.559906,200,OK
52.352096,-2.014446,B60 1BW,Bromsgrove,West Midlands,52.352096,-2.014446,200,OK
51.518278,-0.115315,WC1V 6DX,Camden,London,51.518278,-0.115315,200,OK
51.479082,0.02946,SE7 7EX,Greenwich,London,51.479082,0.02946,200,OK
51.167923,1.29119,CT16 3PZ,Dover,South East,51.167837,1.29167,200,OK
51.402154,0.535145,ME4 4ZL,Medway,South East,51.402154,0.535145,200,OK
52.306924,-0.696549,NN8 4QT,North Northamptonshire,East Midlands,52.306924,-0.696549,200,OK
53.784724,-0.375125,HU6 9JB,"Kingston upon Hull, City of",Yorkshire and The Humber,53.784724,-0.375125,200,OK
53.258317,-2.577708,CW8 3DT,Cheshire West and Chester,North West,53.258317,-2.577708,200,OK
51.086531,1.156107,CT19 5LB,Folkestone and Hythe,South East,51.086531,1.156107,200,OK
51.166701,-3.316781,TA4 4SP,Somerset,South West,51.166701,-3.316781,200,OK
55.648879,-4.74741,KA20 4EF,North Ayrshire,,55.648879,-4.74741,200,OK
51.327261,-2.863759,BS29 6BL,North Somerset,South West,51.327311,-2.863824,200,OK
51.149429,0.63445,TN27 9JG,Tunbridge Wells,South East,51.149217,0.633883,200,OK
51.276014,0.568328,ME14 4RE,Maidstone,South East,51.276014,0.568328,200,OK
53.509778,-1.14848,DN4 0NB,Doncaster,Yorkshire and The Humber,53.509778,-1.14848,200,OK
53.733823,-2.6686,PR5 4RT,South Ribble,North West,53.733823,-2.6686,200,OK
51.877144,0.543811,CM7 2PB,Braintree,East of England,51.87709,0.542966,200,OK
54.866097,-1.360312,SR2 0QF,Sunderland,North East,54.866278,-1.360822,200,OK
55.993086,-4.591825,G83 0UA,West Dunbartonshire,,55.993086,-4.591825,200,OK
52.805461,-1.112309,LE12 6TS,Charnwood,East Midlands,52.805461,-1.112309,200,OK
51.468133,-0.363049,TW3 1ES,Hounslow,London,51.468133,-0.363049,200,OK
52.64689,-2.293446,WV7 3NZ,Shropshire,West Midlands,52.646905,-2.293427,200,OK
53.331217,-2.229639,SK9 4AD,Cheshire East,North West,53.331278,-2.229653,200,OK
54.148631,-1.621568,HG4 3NN,North Yorkshire,Yorkshire and The Humber,54.148631,-1.621568,200,OK
51.462252,-2.515585,BS15 8BS,"Bristol, City of",South West,51.462252,-2.515585,200,OK
52.690578,-1.93921,WS7 1PR,Lichfield,West Midlands,52.690578,-1.93921,200,OK
52.463152,-1.957125,B17 9EE,Birmingham,West Midlands,52.463152,-1.957125,200,OK
52.581323,-1.826638,B75 6TL,Birmingham,West Midlands,52.581323,-1.826638,200,OK
50.753556,-1.871104,BH9 3AJ,"Bournemouth, Christchurch and Poole",South West,50.753556,-1.871104,200,OK
51.383604,-0.351437,KT10 8HY,Elmbridge,South East,51.383604,-0.351437,200,OK
51.143692,-0.367017,RH5 5TJ,Mole Valley,South East,51.143692,-0.367017,200,OK
53.964571,-1.047959,YO31 0GW,York,Yorkshire and The Humber,53.964571,-1.047959,200,OK
53.69742,-1.779551,HD6 3RB,Calderdale,Yorkshire and The Humber,53.69742,-1.779551,200,OK
53.645467,-1.611683,WF4 4RR,Wakefield,Yorkshire and The Humber,53.645467,-1.611683,200,OK
51.385289,-1.333203,RG14 6JT,West Berkshire,South East,51.385289,-1.333203,200,OK
52.586303,-2.122713,WV1 1LD,Wolverhampton,West Midlands,52.586417,-2.122471,200,OK
53.759302,-2.684946,PR1 4BX,Preston,North West,53.759411,-2.68452,200,OK
52.417089,-1.499533,CV1 5HZ,Coventry,West Midlands,52.417089,-1.499533,200,OK
54.234477,-2.70002,LA6 1PG,Westmorland and Furness,North West,54.234477,-2.70002,200,OK
53.550576,-2.282822,M45 8WG,Bury,North West,53.550576,-2.282822,200,OK
53.827826,-1.819977,BD16 1SZ,Bradford,Yorkshire and The Humber,53.827826,-1.819977,200,OK
54.071945,-2.836272,LA4 6TU,Lancaster,North West,54.071945,-2.836272,200,OK
51.749904,-2.243512,GL5 4LZ,Stroud,South West,51.749904,-2.243512,200,OK
53.107692,-2.440201,CW1 4JR,Cheshire East,North West,53.107692,-2.440201,200,OK
57.416167,-6.209537,IV51 9HJ,Highland,,57.416167,-6.209537,200,OK
51.448214,-2.74535,BS48 1PH,North Somerset,South West,51.448381,-2.745673,200,OK
51.609762,-3.023822,NP20 7TR,Newport,,51.610152,-3.024495,200,OK
55.367215,-2.788059,TD9 9SG,Scottish Borders,,55.367215,-2.788059,200,OK
51.801143,-0.337847,AL5 1TD,St Albans,East of England,51.801143,-0.337847,200,OK
54.612931,-5.943941,BT14 6EB,Belfast,,54.613086,-5.944614,200,OK
51.485226,-0.080151,SE5 0DB,Southwark,London,51.485943,-0.080412,200,OK
55.907157,-4.402334,G81 2UG,West Dunbartonshire,,55.907227,-4.402402,200,OK
52.654042,1.304591,NR6 7RG,Broadland,East of England,52.654042,1.304591,200,OK
53.007541,-2.201149,ST4 7JN,Stoke-on-Trent,West Midlands,53.007552,-2.200121,200,OK
55.959576,-4.818221,PA19 1PJ,Inverclyde,,55.959552,-4.818183,200,OK
53.689658,-2.716327,PR25 1UP,South Ribble,North West,53.689702,-2.716359,200,OK
53.0375,-1.403347,DE5 8HN,Amber Valley,East Midlands,53.0375,-1.403347,200,OK
51.514941,-0.133238,W1D 3BH,Westminster,London,51.514941,-0.133238,200,OK
51.507512,-0.124708,WC2N 5NP,Westminster,London,51.507512,-0.124708,200,OK
51.522083,-0.149685,W1G 6HP,Westminster,London,51.522083,-0.149685,200,OK
51.162888,-3.323208,TA4 4RA,Somerset,South West,51.162888,-3.323208,200,OK
51.58701,0.444238,SS15 4DG,Basildon,East of England,51.58701,0.444238,200,OK
51.273757,0.519079,ME14 1FU,Maidstone,South East,51.273757,0.519079,200,OK
53.38941,-1.642088,S6 6GL,Sheffield,Yorkshire and The Humber,53.38941,-1.642088,200,OK
53.577368,-2.457497,BL1 4LW,Bolton,North West,53.577368,-2.457497,200,OK
52.180092,-2.22196,WR5 3FQ,Worcester,West Midlands,52.180092,-2.22196,200,OK
51.663604,-0.398148,WD17 1AP,Watford,East of England,51.663609,-0.398125,200,OK
51.374541,-0.816659,RG45 6BG,Wokingham,South East,51.374806,-0.816249,200,OK
52.890668,-1.140772,NG11 6LH,Rushcliffe,East Midlands,52.890668,-1.140772,200,OK
52.714782,1.574795,NR29 5HU,North Norfolk,East of England,52.714782,1.574795,200,OK
52.730151,-2.714489,SY1 4QR,Shropshire,West Midlands,52.730151,-2.714489,200,OK
51.871856,-2.215989,GL2 0LX,Gloucester,South West,51.871856,-2.215989,200,OK
52.331281,-0.064362,PE27 5LA,Huntingdonshire,East of England,52.331281,-0.064377,200,OK
51.079926,-1.823992,SP2 9LJ,Wiltshire,South West,51.079926,-1.823992,200,OK
50.833138,-0.194414,BN3 5NE,Brighton and Hove,South East,50.833138,-0.194414,200,OK
51.375431,-0.84642,RG40 3QQ,Wokingham,South East,51.375431,-0.84642,200,OK
54.179068,-2.719752,LA6 1NF,Westmorland and Furness,North West,54.179068,-2.719752,200,OK
50.895991,-1.373841,SO19 9AH,Southampton,South East,50.895991,-1.373841,200,OK
51.496697,-0.180877,SW7 5RP,Kensington and Chelsea,London,51.496543,-0.180783,200,OK
54.594038,-5.929311,BT2 8DY,Belfast,,54.594109,-5.929292,200,OK
52.605423,-1.111795,LE2 3PJ,Leicester,East Midlands,52.605423,-1.111795,200,OK
55.666993,-4.066653,ML10 6PA,South Lanarkshire,,55.666993,-4.066653,200,OK
51.242506,-1.113433,RG22 4JN,Basingstoke and Deane,South East,51.242506,-1.113433,200,OK
51.365509,-0.106826,CR0 4HQ,Croydon,London,51.365509,-0.106826,200,OK
51.620303,-0.10615,N13 5TJ,Enfield,London,51.620303,-0.10615,200,OK
52.965566,-3.056481,LL14 5AR,Wrexham,,52.965566,-3.056481,200,OK
54.31016,-7.717736,,,,,,200,OK
54.663404,-2.754446,CA11 7HZ,Westmorland and Furness,North West,54.663304,-2.754599,200,OK
51.604651,-1.237612,OX11 8UA,South Oxfordshire,South East,51.604651,-1.237612,200,OK
51.774157,-1.377244,OX29 4TN,West Oxfordshire,South East,51.774157,-1.377244,200,OK
54.019944,-0.574113,YO25 9XN,East Riding of Yorkshire,Yorkshire and The Humber,54.019944,-0.574113,200,OK
57.365311,-2.070471,AB41 9JB,Aberdeenshire,,57.365314,-2.070409,200,OK
57.167335,-2.129801,AB24 4LQ,Aberdeen City,,57.16756,-2.130001,200,OK
55.837073,-5.061162,PA20 0JX,Argyll and Bute,,55.837073,-5.061162,200,OK
53.648013,-1.755269,HD5 9LS,Kirklees,Yorkshire and The Humber,53.648013,-1.755269,200,OK
51.200378,-2.252136,,,,,,200,OK
50.878645,0.648601,TN35 4AL,Rother,South East,50.878645,0.648601,200,OK
51.720981,-3.239144,NP24 6BA,Caerphilly,,51.721441,-3.239069,200,OK
53.463876,-2.994872,L21 8PR,Sefton,North West,53.463876,-2.994872,200,OK
50.21797,-5.186734,TR16 6AQ,Cornwall,South West,50.21797,-5.186734,200,OK
56.471905,-2.849546,DD5 2SQ,Dundee City,,56.471905,-2.849546,200,OK
53.398589,-2.822616,L35 1RL,Knowsley,North West,53.397962,-2.823491,200,OK
50.84853,-1.022082,PO9 3LR,Havant,South East,50.84853,-1.022082,200,OK
56.004688,-3.807227,FK1 4BW,Falkirk,,56.004688,-3.807227,200,OK
53.381389,-1.473797,S1 4EZ,Sheffield,Yorkshire and The Humber,53.381543,-1.474021,200,OK
52.093734,0.078568,SG8 7SX,South Cambridgeshire,East of England,52.093734,0.078568,200,OK
50.393771,-3.515101,TQ5 9RR,Torbay,South West,50.393771,-3.515101,200,OK
54.998718,-7.294619,BT47 6GL,Derry City and Strabane,,54.998718,-7.294619,200,OK
53.352864,-1.468844,S8 9HP,Sheffield,Yorkshire and The Humber,53.352864,-1.468844,200,OK
51.912843,-2.108697,GL51 0BH,Cheltenham,South West,51.912843,-2.108697,200,OK
50.797596,0.006476,BN10 8WL,Lewes,South East,50.797339,0.006451,200,OK
51.339219,-0.829154,GU46 6JT,Hart,South East,51.339398,-0.829077,200,OK
54.992229,-1.703171,NE5 2JR,Newcastle upon Tyne,North East,54.992229,-1.703171,200,OK
53.034021,-1.231099,NG15 6QJ,Ashfield,East Midlands,53.034021,-1.231099,200,OK
51.408059,-0.024316,BR3 5JQ,Bromley,London,51.408059,-0.024316,200,OK
52.904471,-1.240441,NG9 6DT,Broxtowe,East Midlands,52.904471,-1.240441,200,OK
53.451891,-2.928273,L11 3DH,Liverpool,North West,53.451891,-2.928273,200,OK
55.544611,-4.655976,KA10 6HL,South Ayrshire,,55.544611,-4.655976,200,OK
55.875774,-2.954672,EH37 5UP,Midlothian,,55.875774,-2.954672,200,OK
51.580628,-0.103355,N4 1AX,Haringey,London,51.580632,-0.103415,200,OK
51.756887,-1.19095,OX3 8HE,Oxford,South East,51.756887,-1.19095,200,OK
53.572447,-0.553993,DN20 0BA,North Lincolnshire,Yorkshire and The Humber,53.572447,-0.553993,200,OK
50.89277,-1.017203,PO8 8AB,Havant,South East,50.89277,-1.017203,200,OK
51.479028,-2.625355,BS9 1UB,"Bristol, City of",South West,51.479028,-2.625355,200,OK
52.568966,-0.66197,LE15 9HX,Rutland,East Midlands,52.568966,-0.66197,200,OK
51.110967,-0.188707,RH10 6BD,Crawley,South East,51.110967,-0.188707,200,OK
50.627986,-3.386984,EX8 4BJ,East Devon,South West,50.627986,-3.386984,200,OK
52.208046,-2.186329,WR4 9JQ,Worcester,West Midlands,52.208046,-2.186329,200,OK
53.478092,-2.175601,M11 1UA,Manchester,North West,53.478092,-2.175601,200,OK
51.638089,-1.704799,SN6 7NB,Swindon,South West,51.638089,-1.704799,200,OK
53.580297,-2.471696,BL1 5AD,Bolton,North West,53.580297,-2.471696,200,OK
55.428473,-5.611816,PA28 6TP,Argyll and Bute,,55.428473,-5.611816,200,OK
53.966607,-1.05766,YO31 1AE,York,Yorkshire and The Humber,53.966607,-1.05766,200,OK
54.600975,-1.061184,TS10 2GU,Redcar and Cleveland,North East,54.600975,-1.061184,200,OK
51.615502,-0.245103,NW7 3TD,Barnet,London,51.61558,-0.244685,200,OK
51.464251,-3.454115,CF71 7DB,Vale of Glamorgan,,51.464465,-3.453474,200,OK
51.243051,0.666865,ME17 1FR,Maidstone,South East,51.243051,0.666865,200,OK
53.561346,-2.000037,,,,,,200,OK
54.970884,-1.941641,NE43 7UE,Northumberland,North East,54.970884,-1.941641,200,OK
51.155941,-1.320799,SO21 3PY,Winchester,South East,51.155941,-1.320799,200,OK
50.1042,-5.68803,TR19 7NU,Cornwall,South West,50.1042,-5.68803,200,OK
50.809415,-1.984825,BH21 4FE,Dorset,South West,50.809532,-1.984499,200,OK
54.839533,-5.861538,BT40 2PU,Mid and East Antrim,,54.839533,-5.861538,200,OK
53.596835,-1.376281,S72 9DY,Barnsley,Yorkshire and The Humber,53.596835,-1.376281,200,OK
52.549272,-2.244865,WV5 7HF,South Staffordshire,West Midlands,52.549272,-2.244865,200,OK
57.679644,-2.687643,AB45 2RJ,Aberdeenshire,,57.679904,-2.687782,200,OK
51.520441,-0.144977,W1B 1NG,Westminster,London,51.520484,-0.144705,200,OK
53.507214,-1.444438,S74 9SA,Barnsley,Yorkshire and The Humber,53.507214,-1.444438,200,OK
53.157617,-1.173783,NG19 0GL,Mansfield,East Midlands,53.157617,-1.173783,200,OK
54.591621,-5.938284,BT12 5BL,Belfast,,54.591621,-5.938284,200,OK
52.907919,-2.895232,SY12 0AQ,Shropshire,West Midlands,52.907835,-2.895169,200,OK
55.906588,-4.110244,G69 9NL,North Lanarkshire,,55.906588,-4.110244,200,OK
54.098915,-0.214337,YO16 7GD,East Riding of Yorkshire,Yorkshire and The Humber,54.098915,-0.214337,200,OK
51.590734,-0.209764,N3 3EX,Barnet,London,51.590734,-0.209764,200,OK
51.089515,-1.163751,SO24 9FD,Winchester,South East,51.089515,-1.163751,200,OK
53.417799,-2.324655,M33 3AQ,Trafford,North West,53.417799,-2.324655,200,OK
51.476709,-2.799783,BS20 8HU,North Somerset,South West,51.476709,-2.799783,200,OK
51.513242,-0.130482,W1D 4EB,Westminster,London,51.513242,-0.130482,200,OK
50.377746,-4.166553,PL1 5RH,Plymouth,South West,50.377694,-4.166678,200,OK
51.72995,-0.827268,HP27 9LA,Buckinghamshire,South East,51.729949,-0.827225,200,OK
52.71703,-2.009843,WS12 4AZ,Cannock Chase,West Midlands,52.71703,-2.009843,200,OK
51.479962,-0.080992,SE15 6HN,Southwark,London,51.479962,-0.080992,200,OK
51.464104,-0.323531,TW1 1PP,Richmond upon Thames,London,51.464104,-0.323531,200,OK
51.502146,-2.590634,BS10 5NG,"Bristol, City of",South West,51.502263,-2.590435,200,OK
53.005724,-1.345563,DE75 7BU,Amber Valley,East Midlands,53.005724,-1.345563,200,OK
55.910056,-4.039408,ML5 2QQ,North Lanarkshire,,55.910056,-4.039408,200,OK
52.211848,-0.887407,NN4 6DN,West Northamptonshire,East Midlands,52.211848,-0.887407,200,OK
56.590859,-2.523797,,,,,,200,OK
53.609239,-2.210137,OL11 5PG,Rochdale,North West,53.609239,-2.210137,200,OK
54.808022,-7.499112,BT82 9SG,Derry City and Strabane,,54.808022,-7.499112,200,OK
51.528578,-3.148858,CF23 7DL,Cardiff,,51.528581,-3.14942,200,OK
55.040867,-1.481764,NE25 9PF,North Tyneside,North East,55.040867,-1.481764,200,OK
52.506832,1.003218,NR17 2JS,Breckland,East of England,52.506832,1.003218,200,OK
51.338546,-0.2731,,,,,,200,OK
54.616622,-5.980663,BT13 3SN,Belfast,,54.616622,-5.980663,200,OK
50.355787,-4.718424,PL24 2JY,Cornwall,South West,50.355629,-4.718485,200,OK
52.977914,-3.383254,LL21 0BS,Denbighshire,,52.977914,-3.383254,200,OK
52.581314,-2.065836,WV13 3EQ,Wolverhampton,West Midlands,52.581314,-2.065836,200,OK
52.080525,-0.790362,MK19 7DQ,Milton Keynes,South East,52.080525,-0.790362,200,OK
53.376407,-2.186366,SK8 5AS,Stockport,North West,53.376407,-2.186366,200,OK
50.71385,-1.980572,BH15 1RL,"Bournemouth, Christchurch and Poole",South West,50.71385,-1.980572,200,OK
53.007447,-1.72023,DE6 1DJ,Derbyshire Dales,East Midlands,53.007447,-1.72023,200,OK
53.657341,-1.782648,HD1 6EG,Kirklees,Yorkshire and The Humber,53.657296,-1.782451,200,OK
57.179997,-2.183654,AB21 9AX,Aberdeen City,,57.179997,-2.183654,200,OK
51.463781,-0.064395,SE15 3PF,Southwark,London,51.463781,-0.064395,200,OK
54.560647,-1.198969,TS3 8PS,Middlesbrough,North East,54.560647,-1.198969,200,OK
52.933808,-1.277123,NG9 8BU,Broxtowe,East Midlands,52.933808,-1.277123,200,OK
53.751924,-3.006991,FY8 3NN,Fylde,North West,53.751924,-3.006991,200,OK
56.905601,-2.257537,,,,,,200,OK
51.455431,0.256259,DA2 6SL,Dartford,South East,51.455502,0.256291,200,OK
53.377807,-1.476847,S1 4LH,Sheffield,Yorkshire and The Humber,53.377817,-1.476907,200,OK
51.177951,-3.381208,TA24 6JL,Somerset,South West,51.178189,-3.380843,200,OK
52.482961,-0.718669,NN18 0NU,North Northamptonshire,East Midlands,52.482961,-0.718669,200,OK
53.602029,-2.292111,BL9 5EJ,Bury,North West,53.602029,-2.292111,200,OK
56.047391,-3.413472,KY11 8NX,Fife,,56.047391,-3.413472,200,OK
51.214263,-0.801614,GU9 1BP,Waverley,South East,51.214397,-0.80168,200,OK
53.994491,-1.498133,HG2 7NX,North Yorkshire,Yorkshire and The Humber,53.994586,-1.499245,200,OK
51.416462,0.8167,ME12 3SF,Swale,South East,51.416462,0.8167,200,OK
53.431739,-1.372242,S61 1TE,Rotherham,Yorkshire and The Humber,53.431739,-1.372242,200,OK
55.13393,-1.570088,NE22 5NA,Northumberland,North East,55.13393,-1.570088,200,OK
53.433668,-1.351382,S65 1HN,Rotherham,Yorkshire and The Humber,53.433605,-1.351264,200,OK
52.279975,-1.529192,CV31 2BD,Warwick,West Midlands,52.279975,-1.529192,200,OK
53.558004,-0.09585,DN34 4ST,North East Lincolnshire,Yorkshire and The Humber,53.558004,-0.09585,200,OK
51.484521,0.353365,,,,,,200,OK
51.285378,-0.769089,GU14 7QN,Rushmoor,South East,51.285378,-0.769089,200,OK
53.322805,-3.794275,LL30 3AW,Conwy,,53.322805,-3.794275,200,OK
51.444587,-0.365344,TW2 6LD,Richmond upon Thames,London,51.444972,-0.365877,200,OK
52.611696,-1.983027,WS3 1DD,Walsall,West Midlands,52.611696,-1.983027,200,OK
50.822452,-1.066183,PO2 0SW,Portsmouth,South East,50.822482,-1.066481,200,OK
50.436744,-3.567308,TQ3 1WD,Torbay,South West,50.436744,-3.567308,200,OK
51.87477,0.908804,CO2 8TU,Colchester,East of England,51.87477,0.908804,200,OK
51.652621,-3.936681,SA6 8PB,Swansea,,51.652621,-3.936681,200,OK
51.416369,-0.826221,RG40 1UU,Wokingham,South East,51.416369,-0.826221,200,OK
53.184314,-0.997928,NG22 0EF,Newark and Sherwood,East Midlands,53.184314,-0.997928,200,OK
53.282926,-1.187776,S80 4UP,Bolsover,East Midlands,53.282926,-1.187776,200,OK
51.575851,0.168895,RM7 9ET,Havering,London,51.575851,0.168895,200,OK
55.825373,-4.298362,G43 1NE,Glasgow City,,55.825373,-4.298362,200,OK
50.883508,-2.798194,TA18 7HT,Somerset,South West,50.883508,-2.798194,200,OK
51.060216,0.160707,TN6 1AA,Wealden,South East,51.060216,0.160707,200,OK
52.452376,0.622383,IP27 0AX,West Suffolk,East of England,52.452376,0.622383,200,OK
54.439136,-2.982519,,,,,,200,OK
51.578863,-3.060649,NP10 8LW,Newport,,51.578896,-3.060997,200,OK
57.05682,-6.503266,PH44 4RS,Highland,,57.05682,-6.503266,200,OK
52.608629,-0.189006,PE6 7TA,Peterborough,East of England,52.608629,-0.189006,200,OK
50.452615,-4.487513,PL14 4LN,Cornwall,South West,50.452752,-4.487754,200,OK
51.492191,-0.091441,SE17 1AX,Southwark,London,51.49231,-0.09158,200,OK
51.580008,0.489375,SS14 3PX,Basildon,East of England,51.580008,0.489375,200,OK
51.525744,-0.196659,W9 2DD,Westminster,London,51.525963,-0.196726,200,OK
55.009772,-1.656227,NE3 3LB,Newcastle upon Tyne,North East,55.009772,-1.656227,200,OK
53.00432,-2.334328,CW3 9JD,Newcastle-under-Lyme,West Midlands,53.004355,-2.334343,200,OK
51.323763,-0.204922,SM7 2JF,Reigate and Banstead,South East,51.323763,-0.204922,200,OK
53.414934,-2.542096,WA2 0XP,Warrington,North West,53.415007,-2.543466,200,OK
51.49182,-0.154782,SW1W 8JW,Westminster,London,51.49171,-0.154657,200,OK
52.472026,-1.882739,B12 0NS,Birmingham,West Midlands,52.472026,-1.882739,200,OK
55.647294,-4.783828,KA21 6JJ,North Ayrshire,,55.647294,-4.783828,200,OK
55.126554,-6.684368,BT51 3DN,Causeway Coast and Glens,,55.126554,-6.684368,200,OK
51.660637,-0.898224,HP14 3TE,Buckinghamshire,South East,51.660637,-0.898224,200,OK
53.393455,-1.519363,S6 5GF,Sheffield,Yorkshire and The Humber,53.393455,-1.519363,200,OK
54.193732,-2.768317,LA7 7BS,Westmorland and Furness,North West,54.193732,-2.768317,200,OK
53.679811,-2.92312,PR9 8BE,West Lancashire,North West,53.679811,-2.92312,200,OK
51.062674,-1.769246,SP5 3BY,Wiltshire,South West,51.062674,-1.769246,200,OK
54.725162,-5.815097,BT38 8JX,Mid and East Antrim,,54.725162,-5.815097,200,OK
53.28008,-2.893649,CH65 4AA,Cheshire West and Chester,North West,53.280218,-2.894101,200,OK
51.839582,-2.21549,GL4 6LE,Gloucester,South West,51.839582,-2.21549,200,OK
51.209548,-3.129447,,,,,,200,OK
51.978668,-0.982939,MK18 4BP,Buckinghamshire,South East,51.978668,-0.982939,200,OK
53.652098,-2.620949,PR6 0RX,Chorley,North West,53.652098,-2.620949,200,OK
53.843582,-3.008658,FY6 7FY,Wyre,North West,53.843582,-3.008658,200,OK
53.674815,-1.522495,WF2 8EX,Wakefield,Yorkshire and The Humber,53.674815,-1.522495,200,OK
51.644527,-0.04033,EN3 4SF,Enfield,London,51.644527,-0.04033,200,OK
51.739115,-3.638445,SA11 5HW,Neath Port Talbot,,51.739115,-3.638445,200,OK
56.180215,-3.50554,KY13 0QL,Perth and Kinross,,56.179409,-3.505554,200,OK
53.479753,-1.198821,DN12 1PP,Doncaster,Yorkshire and The Humber,53.479753,-1.198821,200,OK
51.408494,0.007711,BR1 4AJ,Bromley,London,51.408494,0.007711,200,OK
54.345495,-5.681691,BT30 7JE,"Newry, Mourne and Down",,54.345495,-5.681691,200,OK
52.66012,-2.43968,TF3 1QR,Telford and Wrekin,West Midlands,52.66012,-2.43968,200,OK
51.561081,0.608401,SS7 2SW,Castle Point,East of England,51.561081,0.608401,200,OK
53.278046,-3.901442,LL34 6RU,Conwy,,53.278046,-3.901442,200,OK
53.545044,-2.313042,M45 7LN,Bury,North West,53.54506,-2.31301,200,OK
52.288916,-1.151652,NN11 2JJ,West Northamptonshire,East Midlands,52.288582,-1.151673,200,OK
51.405015,-0.647114,SL5 7YY,Windsor and Maidenhead,South East,51.405186,-0.647092,200,OK
52.193029,-2.222317,WR1 3LH,Worcester,West Midlands,52.192897,-2.222181,200,OK
53.207605,-2.887004,CH2 2DF,Cheshire West and Chester,North West,53.207605,-2.887004,200,OK
52.838241,-1.286163,DE74 2DG,North West Leicestershire,East Midlands,52.838241,-1.286163,200,OK
51.833903,-3.041032,NP7 7HE,Monmouthshire,,51.833903,-3.041032,200,OK
53.387951,-2.592422,WA1 2HB,Warrington,North West,53.388049,-2.592679,200,OK
53.521599,-2.944262,L31 0BB,Sefton,North West,53.521599,-2.944262,200,OK
54.645233,-5.667413,BT19 7AT,Ards and North Down,,54.645233,-5.667413,200,OK
52.106504,-0.702687,MK16 9PU,Milton Keynes,South East,52.106416,-0.702909,200,OK
53.385508,-2.965513,L8 8AA,Liverpool,North West,53.385508,-2.965513,200,OK
51.726703,-0.848173,,,,,,200,OK
52.903181,-1.538823,DE3 9NQ,Derby,East Midlands,52.903181,-1.538823,200,OK
55.450809,-4.600462,KA7 3NR,South Ayrshire,,55.450809,-4.600462,200,OK
55.922004,-3.15739,EH16 5RY,City of Edinburgh,,55.922004,-3.15739,200,OK
51.69866,-0.034866,EN8 8NF,Broxbourne,East of England,51.69866,-0.034866,200,OK
54.007723,-2.206073,BD23 4JP,North Yorkshire,Yorkshire and The Humber,54.007723,-2.206073,200,OK
51.907257,-0.441073,LU3 2LY,Luton,East of England,51.907257,-0.441073,200,OK
52.738018,-2.734998,SY1 3JN,Shropshire,West Midlands,52.738018,-2.734998,200,OK
53.418443,-3.042683,CH44 5UH,Wirral,North West,53.418289,-3.042785,200,OK
52.496309,-1.848846,B8 2XS,Birmingham,West Midlands,52.496578,-1.848771,200,OK
55.860043,-4.234457,G4 0XU,Glasgow City,,55.860053,-4.234409,200,OK
53.519295,-2.64107,WN3 5PN,Wigan,North West,53.519295,-2.64107,200,OK
54.9999,-1.677399,NE5 4BG,Newcastle upon Tyne,North East,54.9999,-1.677399,200,OK
51.364028,1.102041,CT6 8JZ,Canterbury,South East,51.364011,1.101839,200,OK
51.275403,-1.089375,RG21 5SR,Basingstoke and Deane,South East,51.275394,-1.089361,200,OK
51.211235,-2.664253,BA5 2GD,Somerset,South West,51.211235,-2.664253,200,OK
50.855824,-1.412368,SO45 4JB,New Forest,South East,50.855842,-1.412372,200,OK
53.310774,-0.94481,DN22 7WE,Bassetlaw,East Midlands,53.310774,-0.94481,200,OK
51.594972,-1.41026,OX12 7ER,Vale of White Horse,South East,51.594972,-1.41026,200,OK
51.929629,-1.316414,OX25 4RY,Cherwell,South East,51.929134,-1.316407,200,OK
53.377862,-2.751474,WA8 9SH,Halton,North West,53.377862,-2.751474,200,OK
51.48711,-2.512826,BS16 5UA,South Gloucestershire,South West,51.48711,-2.512826,200,OK
52.422057,-4.083786,SY23 2HU,Ceredigion,,52.422057,-4.083786,200,OK
53.35332,-1.257668,S26 1JY,Rotherham,Yorkshire and The Humber,53.35315,-1.258978,200,OK
51.607,-0.125579,N11 2EG,Haringey,London,51.607,-0.125579,200,OK
52.999043,-3.056195,LL14 2NU,Wrexham,,52.999043,-3.056195,200,OK
52.407184,-1.171745,LE17 6BP,Harborough,East Midlands,52.407634,-1.172061,200,OK
50.84905,0.243662,BN27 3PE,Wealden,South East,50.84905,0.243662,200,OK
51.465993,-0.114072,SW9 0FF,Lambeth,London,51.466252,-0.113863,200,OK
53.347619,-1.751477,S33 6SD,High Peak,East Midlands,53.347428,-1.750171,200,OK
52.988094,-1.353367,DE7 6BR,Amber Valley,East Midlands,52.988094,-1.353367,200,OK
51.53828,0.076346,IG11 8JE,Barking and Dagenham,London,51.53828,0.076346,200,OK
52.351148,0.509816,IP28 6LQ,West Suffolk,East of England,52.351148,0.509816,200,OK
52.377554,-2.490471,DY14 8DZ,Shropshire,West Midlands,52.377554,-2.490471,200,OK
55.953622,-3.29525,EH4 7JX,City of Edinburgh,,55.953622,-3.29525,200,OK
51.328261,-0.406502,KT11 2AB,Elmbridge,South East,51.328261,-0.406502,200,OK
50.335268,-4.634883,PL23 1AS,Cornwall,South West,50.335268,-4.634883,200,OK
51.505179,0.038789,E16 2BU,Newham,London,51.505179,0.038789,200,OK
51.915158,-2.57272,HR9 5LY,"Herefordshire, County of",West Midlands,51.915158,-2.57272,200,OK
57.670751,-2.495693,AB44 1TN,Aberdeenshire,,57.670751,-2.495693,200,OK
54.953594,-1.401739,SR6 7QQ,South Tyneside,North East,54.953594,-1.401739,200,OK
51.93653,-2.530155,,,,,,200,OK
57.521724,-4.46001,IV6 7TE,Highland,,57.521724,-4.46001,200,OK
51.277116,-0.856998,GU51 4EN,Hart,South East,51.277116,-0.857013,200,OK
51.520819,-0.404849,UB4 0DJ,Hillingdon,London,51.520893,-0.404962,200,OK
52.570688,-2.178486,WV4 4YX,Wolverhampton,West Midlands,52.570815,-2.178102,200,OK
51.119724,-0.188008,RH10 8FG,Crawley,South East,51.120186,-0.187919,200,OK
52.92205,-1.516252,DE22 4AN,Derby,East Midlands,52.92205,-1.516252,200,OK
55.968958,-3.260866,EH4 4RH,City of Edinburgh,,55.968958,-3.260866,200,OK
51.516726,-0.132977,W1T 1AU,Westminster,London,51.516726,-0.132977,200,OK
53.094508,-2.179827,ST8 7PS,Staffordshire Moorlands,West Midlands,53.094508,-2.179827,200,OK
54.696291,-4.937613,,,,,,200,OK
52.133054,-0.214916,SG19 2SW,Central Bedfordshire,East of England,52.133054,-0.214916,200,OK
53.700365,-1.278978,,,,,,200,OK
56.423829,-5.474642,PA34 5AR,Argyll and Bute,,56.423829,-5.474642,200,OK
53.659611,-1.551388,WF4 5AQ,Wakefield,Yorkshire and The Humber,53.659611,-1.551388,200,OK
53.372578,-2.140071,SK7 5HE,Stockport,North West,53.372578,-2.140071,200,OK
53.388531,-2.965266,L8 8LL,Liverpool,North West,53.388515,-2.965101,200,OK
51.501354,-0.178473,SW7 2EU,Westminster,London,51.501354,-0.178473,200,OK
53.818325,-3.055625,FY1 1ET,Blackpool,North West,53.81823,-3.055243,200,OK
51.408884,-1.275666,RG18 3BU,West Berkshire,South East,51.408884,-1.275666,200,OK
52.568351,-1.196589,LE19 2JQ,Blaby,East Midlands,52.568351,-1.196589,200,OK
51.155873,0.417747,TN12 7BS,Tunbridge Wells,South East,51.155873,0.417747,200,OK
52.141683,0.124249,CB22 5EW,South Cambridgeshire,East of England,52.141683,0.124249,200,OK
51.610804,-2.506984,BS35 2HH,South Gloucestershire,South West,51.61084,-2.507143,200,OK
55.011212,-3.89801,DG7 3HF,Dumfries and Galloway,,55.011212,-3.89801,200,OK
53.969135,-1.076445,YO31 8NQ,York,Yorkshire and The Humber,53.969179,-1.076392,200,OK
53.170107,-2.818552,CH3 7QL,Cheshire West and Chester,North West,53.170107,-2.818552,200,OK
51.363624,-0.150975,SM6 0BX,Sutton,London,51.36367,-0.151002,200,OK
51.255776,-2.801516,BS28 4JE,Somerset,South West,51.255776,-2.801516,200,OK
55.938257,-4.326821,G62 6DU,East Dunbartonshire,,55.938257,-4.326821,200,OK
51.361895,0.062514,BR6 7AQ,Bromley,London,51.361895,0.062514,200,OK
50.733761,-2.821648,DT6 6SA,Dorset,South West,50.733761,-2.821648,200,OK
51.400272,-1.317949,RG14 5SR,West Berkshire,South East,51.400272,-1.317949,200,OK
52.918465,-1.476448,DE1 2JT,Derby,East Midlands,52.91868,-1.476189,200,OK
51.517083,-0.153819,W1U 3HN,Westminster,London,51.517069,-0.154093,200,OK
53.391976,-3.181887,CH47 2AG,Wirral,North West,53.391953,-3.181449,200,OK
54.999085,-4.004419,DG7 3BH,Dumfries and Galloway,,54.999076,-4.004419,200,OK
51.315497,-0.137014,CR5 1FA,Croydon,London,51.315497,-0.137014,200,OK
56.38864,-3.42358,PH2 8NR,Perth and Kinross,,56.38864,-3.42358,200,OK
51.575274,-0.01081,E10 6BE,Waltham Forest,London,51.575274,-0.01081,200,OK
52.535341,1.437787,NR14 6EG,South Norfolk,East of England,52.535341,1.437787,200,OK
53.243078,-0.5482,LN1 3UB,Lincoln,East Midlands,53.243078,-0.5482,200,OK
53.425591,-2.21859,M20 4UL,Manchester,North West,53.425591,-2.218605,200,OK
53.685338,-1.297404,WF8 2AT,Wakefield,Yorkshire and The Humber,53.685338,-1.297404,200,OK
50.817489,-1.083175,PO2 8LU,Portsmouth,South East,50.817489,-1.083175,200,OK
53.47607,-2.232,M1 2PW,Manchester,North West,53.476116,-2.231594,200,OK
54.853179,-6.339654,BT42 1HX,Mid and East Antrim,,54.853179,-6.339654,200,OK
51.398153,-0.345688,KT8 9LS,Elmbridge,South East,51.398153,-0.345688,200,OK
53.50995,-2.34077,M27 5GP,Salford,North West,53.509375,-2.340584,200,OK
54.002129,-1.506462,HG1 4RL,North Yorkshire,Yorkshire and The Humber,54.002129,-1.506462,200,OK
57.032632,-2.148178,AB39 3BP,Aberdeenshire,,57.032632,-2.148178,200,OK
53.467794,-2.081667,SK16 5RJ,Tameside,North West,53.467794,-2.081667,200,OK
51.712484,-0.626077,HP5 2RL,Buckinghamshire,South East,51.712484,-0.626077,200,OK
52.801863,0.01909,PE12 7DE,South Holland,East Midlands,52.801884,0.019103,200,OK
53.164089,-1.602876,DE4 2GL,Derbyshire Dales,East Midlands,53.164089,-1.602876,200,OK
53.073929,-2.756499,CH3 9JA,Cheshire West and Chester,North West,53.073929,-2.756499,200,OK
52.922755,-1.276281,NG9 7GF,Broxtowe,East Midlands,52.922755,-1.276281,200,OK
51.5517,-0.263108,NW10 0NS,Brent,London,51.5517,-0.263108,200,OK
51.443853,-1.000444,RG30 3DR,Reading,South East,51.443853,-1.000444,200,OK
53.24838,0.079506,LN13 0BS,East Lindsey,East Midlands,53.24838,0.079506,200,OK
50.829042,-4.548719,,,,,,200,OK
51.506969,-3.55261,CF31 2LS,Bridgend,,51.506936,-3.553099,200,OK
51.917381,0.22413,CM22 6TY,Uttlesford,East of England,51.917381,0.22413,200,OK
53.317407,-3.480949,LL18 4PW,Denbighshire,,53.317407,-3.480949,200,OK
51.60503,-2.521633,BS35 2BP,South Gloucestershire,South West,51.60503,-2.521633,200,OK
53.704443,-0.867257,DN14 5EP,East Riding of Yorkshire,Yorkshire and The Humber,53.704443,-0.867257,200,OK
53.488711,-3.024813,L23 5TX,Sefton,North West,53.488934,-3.024999,200,OK
51.560867,0.489959,SS16 4UT,Basildon,East of England,51.560867,0.489959,200,OK
52.341013,0.517449,IP28 7LQ,West Suffolk,East of England,52.341013,0.517449,200,OK
53.30144,-1.472979,S18 1QB,North East Derbyshire,East Midlands,53.301476,-1.472948,200,OK
53.862733,-2.132568,BB8 7HJ,Pendle,North West,53.862733,-2.132568,200,OK
50.535833,-4.951962,PL28 8RT,Cornwall,South West,50.535833,-4.951962,200,OK
51.652258,-3.189566,NP12 2JX,Caerphilly,,51.652368,-3.189338,200,OK
52.035991,0.731096,CO10 2TG,Babergh,East of England,52.036013,0.731114,200,OK
52.061099,1.159741,IP4 2BY,Ipswich,East of England,52.061099,1.159741,200,OK
51.547802,-0.156715,NW3 2DY,Camden,London,51.547802,-0.156715,200,OK
52.514855,-2.039094,B69 3JH,Sandwell,West Midlands,52.514855,-2.039094,200,OK
53.486317,-2.529065,WN7 3UQ,Wigan,North West,53.486317,-2.529065,200,OK
52.905482,-1.116983,NG12 4GT,Rushcliffe,East Midlands,52.905482,-1.116983,200,OK
52.924972,-1.298169,NG10 5FY,Erewash,East Midlands,52.924972,-1.298169,200,OK
52.772282,1.511037,NR12 9AG,North Norfolk,East of England,52.772282,1.511037,200,OK
51.518496,-0.154454,W1U 7HX,Westminster,London,51.518496,-0.154454,200,OK
52.974208,-0.01073,PE21 0DS,Boston,East Midlands,52.974208,-0.01073,200,OK
52.251983,0.806258,IP31 3YY,Mid Suffolk,East of England,52.251869,0.806118,200,OK
56.33214,-2.828663,KY16 8QN,Fife,,56.33214,-2.828663,200,OK
51.754875,-0.458235,HP2 4DN,Dacorum,East of England,51.754875,-0.458235,200,OK
54.982699,-1.592877,NE2 1PD,Newcastle upon Tyne,North East,54.982699,-1.592877,200,OK
51.702462,-0.611394,HP5 1EX,Buckinghamshire,South East,51.702579,-0.611463,200,OK
54.580137,-5.79753,BT16 1UU,Lisburn and Castlereagh,,54.580137,-5.79753,200,OK
55.957019,-3.404265,EH29 9AR,City of Edinburgh,,55.957019,-3.404265,200,OK
55.955919,-4.090694,G65 9RQ,East Dunbartonshire,,55.955919,-4.090694,200,OK
50.346886,-4.978051,TR2 4NP,Cornwall,South West,50.346886,-4.978051,200,OK
51.372091,-0.090146,CR0 5QN,Croydon,London,51.371966,-0.090784,200,OK
51.047641,0.187901,TN6 2JL,Wealden,South East,51.047556,0.187982,200,OK
50.870516,0.004375,BN7 1TR,Lewes,South East,50.870516,0.004375,200,OK
54.985179,-1.647358,NE4 9DU,Newcastle upon Tyne,North East,54.985179,-1.647358,200,OK
51.487822,-0.050528,SE16 2ST,Lewisham,London,51.487822,-0.050528,200,OK
52.564625,0.529132,PE33 9TF,King's Lynn and West Norfolk,East of England,52.564625,0.529132,200,OK
51.378466,-2.357412,BA1 1PF,Bath and North East Somerset,South West,51.3787,-2.357371,200,OK
50.956861,-1.228097,SO32 1RQ,Winchester,South East,50.956861,-1.228097,200,OK
54.846238,-1.980067,DH8 9NP,County Durham,North East,54.846238,-1.980067,200,OK
53.833727,-2.21977,BB9 7AD,Pendle,North West,53.833727,-2.21977,200,OK
51.511965,-0.131025,W1D 5PR,Westminster,London,51.511965,-0.131025,200,OK
50.913944,-1.49559,SO40 9DE,New Forest,South East,50.913944,-1.49559,200,OK
51.586145,-1.777678,SN25 3AG,Swindon,South West,51.586218,-1.778226,200,OK
55.19991,-1.712532,NE61 3DE,Northumberland,North East,55.19991,-1.712532,200,OK
53.479019,-2.236582,M1 3DZ,Manchester,North West,53.479019,-2.236597,200,OK
51.557599,-0.099353,N5 1DE,Islington,London,51.557599,-0.099353,200,OK
51.526996,-3.21657,CF14 6LD,Cardiff,,51.52744,-3.216236,200,OK
55.738353,-6.37824,PA48 7TS,Argyll and Bute,,55.738353,-6.37824,200,OK
53.357873,-2.578588,WA4 5JB,Warrington,North West,53.357517,-2.577832,200,OK
53.261701,-2.498612,CW9 5FS,Cheshire West and Chester,North West,53.261701,-2.498612,200,OK
51.517326,-0.150984,W1U 2NR,Westminster,London,51.517326,-0.150984,200,OK
54.590951,-5.886408,BT5 5JG,Belfast,,54.590951,-5.886408,200,OK
50.969316,0.129322,TN22 5PX,Wealden,South East,50.969316,0.129322,200,OK
54.116532,-2.789958,,,,,,200,OK
54.862716,-1.555232,DH3 4NU,County Durham,North East,54.862716,-1.555232,200,OK
51.60855,-1.252407,OX11 7AB,South Oxfordshire,South East,51.60855,-1.252407,200,OK
52.782509,-0.171252,PE11 3EG,South Holland,East Midlands,52.782509,-0.171252,200,OK
51.690775,-4.150346,SA15 3NG,Carmarthenshire,,51.690775,-4.150346,200,OK
51.383704,-0.097556,CR0 2FZ,Croydon,London,51.383704,-0.097556,200,OK
52.228517,-0.094753,,,,,,200,OK
52.606958,1.735471,NR30 2HG,Great Yarmouth,East of England,52.606958,1.735471,200,OK
55.942036,-4.579715,G82 4AS,West Dunbartonshire,,55.942036,-4.579715,200,OK
51.87989,-0.419166,LU1 2RP,Luton,East of England,51.879846,-0.419226,200,OK
55.65019,-4.807418,KA22 7DY,North Ayrshire,,55.65019,-4.807418,200,OK
55.915174,-4.151597,G66 5DB,East Dunbartonshire,,55.915174,-4.151597,200,OK
53.386052,-2.908918,L18 2DH,Liverpool,North West,53.386052,-2.908918,200,OK
51.538077,-0.196964,NW6 6QH,Brent,London,51.538077,-0.196964,200,OK
51.501613,-0.068772,SE16 4TL,Southwark,London,51.501613,-0.068772,200,OK
52.482765,-1.904302,B3 1DA,Birmingham,West Midlands,52.482779,-1.904297,200,OK
50.873326,0.012015,BN7 9SB,Lewes,South East,50.873326,0.012015,200,OK
51.746728,-3.625683,SA11 5EG,Neath Port Talbot,,51.746724,-3.625671,200,OK
52.755664,0.39471,PE30 1AY,King's Lynn and West Norfolk,East of England,52.755519,0.394968,200,OK
55.843558,-4.224871,G40 4BG,Glasgow City,,55.843558,-4.224871,200,OK
52.242022,0.713865,IP33 1NW,West Suffolk,East of England,52.242022,0.713865,200,OK
53.417052,-2.951979,L6 9AD,Liverpool,North West,53.417052,-2.951979,200,OK
52.463997,0.049131,PE16 6TT,Fenland,East of England,52.463997,0.049131,200,OK
53.570945,-1.460847,S71 2FL,Barnsley,Yorkshire and The Humber,53.570945,-1.460847,200,OK
51.476417,-0.329999,TW7 5XF,Hounslow,London,51.476433,-0.329912,200,OK
53.453457,-2.114587,M34 2BG,Tameside,North West,53.453457,-2.114587,200,OK
52.629306,1.290177,NR2 1JN,Norwich,East of England,52.629304,1.28994,200,OK
52.519497,-2.052819,DY4 7TX,Sandwell,West Midlands,52.519497,-2.052819,200,OK
53.763706,-3.031499,FY8 2RQ,Fylde,North West,53.763833,-3.032382,200,OK
51.459919,-2.544691,BS5 8AJ,"Bristol, City of",South West,51.459919,-2.544691,200,OK
51.805583,1.187835,CO15 5EA,Tendring,East of England,51.805583,1.187835,200,OK
51.517585,-0.194185,W2 5JF,Westminster,London,51.517585,-0.194185,200,OK
52.45444,-1.996719,B32 1PD,Birmingham,West Midlands,52.45444,-1.996719,200,OK
53.852583,-3.036694,FY2 0EL,Blackpool,North West,53.852583,-3.036694,200,OK
51.576067,-3.568587,CF32 8FD,Bridgend,,51.576067,-3.568587,200,OK
54.534823,-1.266269,TS5 8RR,Middlesbrough,North East,54.534823,-1.266269,200,OK
51.388009,1.402395,CT9 2JU,Thanet,South East,51.388009,1.402395,200,OK
51.503361,-0.421086,UB3 1AD,Hillingdon,London,51.503361,-0.421086,200,OK
53.146596,-2.357067,CW11 1ZU,Cheshire East,North West,53.146587,-2.357082,200,OK
53.435354,-2.241519,M20 1DP,Manchester,North West,53.435354,-2.241519,200,OK
54.64138,-5.535978,BT21 0AQ,Ards and North Down,,54.64138,-5.535978,200,OK
54.681995,-5.97303,BT36 5GJ,Antrim and Newtownabbey,,54.681995,-5.973061,200,OK
53.499842,-1.177413,DN4 9UX,Doncaster,Yorkshire and The Humber,53.499725,-1.177385,200,OK
53.648433,-0.507201,,,,,,200,OK
51.62766,-3.457584,CF40 2EY,Rhondda Cynon Taf,,51.62766,-3.457584,200,OK
51.323958,-0.477823,GU23 6QQ,Guildford,South East,51.323958,-0.477823,200,OK
53.451394,-2.110441,M34 6AH,Tameside,North West,53.451394,-2.110441,200,OK
53.496403,-2.218321,M40 8NL,Manchester,North West,53.49659,-2.218048,200,OK
52.04912,-0.698492,MK10 9LZ,Milton Keynes,South East,52.04912,-0.698492,200,OK
54.660764,-5.939014,BT36 7EG,Belfast,,54.660764,-5.939014,200,OK
51.998798,-0.768925,MK3 7TW,Milton Keynes,South East,51.998798,-0.768925,200,OK
51.517784,0.427167,SS17 0PQ,Thurrock,East of England,51.517784,0.427167,200,OK
53.209372,-2.872995,CH2 1PY,Cheshire West and Chester,North West,53.209372,-2.872995,200,OK
53.913517,-1.713835,LS21 2DX,Leeds,Yorkshire and The Humber,53.913517,-1.713835,200,OK
54.663907,-5.975636,BT36 7XS,Antrim and Newtownabbey,,54.663907,-5.975636,200,OK
51.519355,-0.140567,W1W 6DX,Westminster,London,51.519355,-0.140567,200,OK
51.582346,-0.188154,NW11 6PB,Barnet,London,51.582346,-0.188154,200,OK
53.373947,-0.754199,DN21 5HX,West Lindsey,East Midlands,53.373947,-0.754199,200,OK
51.392584,-0.969524,RG7 1DT,Wokingham,South East,51.392615,-0.969984,200,OK
53.813769,-1.584463,LS4 2RU,Leeds,Yorkshire and The Humber,53.813769,-1.584463,200,OK
58.215327,-6.373577,HS1 2NX,Na h-Eileanan Siar,,58.215327,-6.373577,200,OK
53.413476,-2.582517,WA2 9NQ,Warrington,North West,53.413476,-2.582517,200,OK
53.747285,-1.540462,LS10 4TL,Leeds,Yorkshire and The Humber,53.747018,-1.541147,200,OK
51.66538,-0.601259,HP7 9BY,Buckinghamshire,South East,51.66538,-0.601259,200,OK
55.77556,-4.342116,G77 6JS,East Renfrewshire,,55.77556,-4.342116,200,OK
51.507202,-0.336662,W7 3BT,Ealing,London,51.507202,-0.336662,200,OK
51.837421,-2.261125,GL2 5AQ,Gloucester,South West,51.837421,-2.261125,200,OK
53.362348,-2.766949,WA8 8QE,Halton,North West,53.362348,-2.766949,200,OK
55.920912,-3.285213,EH11 4PD,City of Edinburgh,,55.920912,-3.285213,200,OK
51.572833,-0.205002,NW11 8PL,Barnet,London,51.572794,-0.204831,200,OK
54.679928,-5.983785,BT36 4FD,Antrim and Newtownabbey,,54.679928,-5.983785,200,OK
53.116842,-2.377468,CW11 4NH,Cheshire East,North West,53.116842,-2.377468,200,OK
53.016516,-2.777034,SY14 7AA,Cheshire West and Chester,North West,53.016516,-2.777034,200,OK
51.958922,-1.230528,OX27 7QP,Cherwell,South East,51.958922,-1.230528,200,OK
57.116852,-2.656322,AB31 4JN,Aberdeenshire,,57.116852,-2.656322,200,OK
51.456439,-1.474424,RG17 7AS,West Berkshire,South East,51.456439,-1.474424,200,OK
51.41663,-2.730456,BS48 3PD,North Somerset,South West,51.416728,-2.730246,200,OK
57.543172,-2.455436,AB53 4AW,Aberdeenshire,,57.543068,-2.455021,200,OK
55.463846,-4.624309,KA8 0BZ,South Ayrshire,,55.463846,-4.624309,200,OK
51.519102,-0.005663,E16 9BY,Newham,London,51.519102,-0.005663,200,OK
52.344748,-0.874958,NN6 9YZ,West Northamptonshire,East Midlands,52.344748,-0.874958,200,OK
54.708966,-1.725324,DL15 0SA,County Durham,North East,54.708902,-1.72501,200,OK
51.635859,-0.148179,EN4 8JR,Barnet,London,51.635859,-0.148179,200,OK
51.285249,-1.092736,RG24 9FR,Basingstoke and Deane,South East,51.285249,-1.092736,200,OK
50.853996,-0.554135,BN18 9JW,Arun,South East,50.853996,-0.554135,200,OK
53.36844,-3.024734,CH42 6RS,Wirral,North West,53.36844,-3.024734,200,OK
52.127141,-2.331546,WR14 1JL,Malvern Hills,West Midlands,52.127905,-2.331902,200,OK
53.093417,-1.324908,NG16 6RD,Bolsover,East Midlands,53.093417,-1.324908,200,OK
51.649298,-4.042037,SA4 3EB,Swansea,,51.649263,-4.041934,200,OK
53.784645,-2.402563,BB6 7AR,Hyndburn,North West,53.784645,-2.402563,200,OK
50.780467,-0.70723,PO21 4XL,Arun,South East,50.780467,-0.70723,200,OK
54.995611,-3.069574,DG16 5DH,Dumfries and Galloway,,54.995611,-3.069574,200,OK
52.495795,-2.100911,,,,,,200,OK
51.966703,-0.621535,,,,,,200,OK
53.284023,-1.669082,S32 5RL,Derbyshire Dales,East Midlands,53.283996,-1.669037,200,OK
52.6268,-1.91631,WS9 9JH,Walsall,West Midlands,52.6268,-1.91631,200,OK
51.94675,-0.265115,SG4 9PN,North Hertfordshire,East of England,51.94675,-0.265115,200,OK
56.001396,-3.784605,FK1 1JB,Falkirk,,56.001396,-3.784605,200,OK
51.433762,-2.53897,BS4 5QG,"Bristol, City of",South West,51.433762,-2.53897,200,OK
51.73996,-0.47844,HP3 9HD,Dacorum,East of England,51.73996,-0.47844,200,OK
51.774441,-4.492184,SA33 4RD,Carmarthenshire,,51.774441,-4.492184,200,OK
51.657365,-0.103651,EN2 7QG,Enfield,London,51.657365,-0.103651,200,OK
53.711706,-1.901938,HX6 2BT,Calderdale,Yorkshire and The Humber,53.711706,-1.901938,200,OK
53.541058,-2.757622,WN8 9BD,West Lancashire,North West,53.541058,-2.757622,200,OK
51.295229,1.09077,CT2 7FF,Canterbury,South East,51.295229,1.09077,200,OK
52.673353,-2.487907,TF4 2GL,Telford and Wrekin,West Midlands,52.673353,-2.487907,200,OK
51.598525,-0.079709,N17 7QR,Haringey,London,51.598292,-0.079762,200,OK
51.484343,-1.15226,RG8 8SR,West Berkshire,South East,51.484343,-1.15226,200,OK
53.43971,-2.70647,WA9 3ZH,St. Helens,North West,53.438966,-2.707209,200,OK
51.568806,0.333126,CM13 3ED,Brentwood,East of England,51.568885,0.332798,200,OK
51.381705,-0.245437,KT4 7NB,Kingston upon Thames,London,51.381085,-0.245533,200,OK
55.950132,-3.217144,EH3 7EG,City of Edinburgh,,55.950102,-3.217031,200,OK
51.198365,-2.189582,BA12 8DA,Wiltshire,South West,51.198365,-2.189582,200,OK
51.613833,-1.425845,OX12 0BA,Vale of White Horse,South East,51.613566,-1.426498,200,OK
52.494785,-1.981177,B67 7AS,Sandwell,West Midlands,52.494785,-1.981177,200,OK
53.93459,-0.789625,YO42 2EY,East Riding of Yorkshire,Yorkshire and The Humber,53.93459,-0.789625,200,OK
51.63986,-0.34271,WD23 4RH,Hertsmere,East of England,51.63986,-0.34271,200,OK
53.676015,-1.581202,WF5 8JP,Wakefield,Yorkshire and The Humber,53.676015,-1.581202,200,OK
51.564093,0.476081,SS16 4DL,Basildon,East of England,51.564093,0.476081,200,OK
52.115728,0.06015,CB22 6AA,South Cambridgeshire,East of England,52.11614,0.060227,200,OK
51.105261,0.365275,TN3 8LS,Tunbridge Wells,South East,51.105261,0.365275,200,OK
50.954641,-2.976609,TA19 9NH,Somerset,South West,50.954991,-2.97777,200,OK
53.237065,-0.539834,LN1 3BB,Lincoln,East Midlands,53.237065,-0.539834,200,OK
54.162885,-7.300192,,,,,,200,OK
51.402409,-2.578278,BS14 0NB,"Bristol, City of",South West,51.402409,-2.578278,200,OK
52.452515,-2.216339,DY7 6LF,South Staffordshire,West Midlands,52.452515,-2.216339,200,OK
53.768461,-1.062163,YO8 8RX,North Yorkshire,Yorkshire and The Humber,53.768461,-1.062163,200,OK
52.525509,1.559429,NR14 6QZ,South Norfolk,East of England,52.525509,1.559429,200,OK
51.496615,-0.079831,SE1 3DT,Southwark,London,51.496615,-0.079831,200,OK
50.687984,-1.531769,PO40 9SD,Isle of Wight,South East,50.687984,-1.531769,200,OK
55.957281,-3.301875,EH4 8BU,City of Edinburgh,,55.957281,-3.301875,200,OK
56.0709,-3.42577,KY11 4EW,Fife,,56.0709,-3.42577,200,OK
54.027904,-2.789834,LA1 4RG,Lancaster,North West,54.027904,-2.789834,200,OK
53.768917,-2.391459,BB5 5JN,Hyndburn,North West,53.769766,-2.391876,200,OK
51.848108,-2.227899,,,,,,200,OK
52.586205,-2.00099,WS2 9QB,Walsall,West Midlands,52.586205,-2.00099,200,OK
52.236625,-0.895823,NN1 1DF,West Northamptonshire,East Midlands,52.236772,-0.896464,200,OK
53.740928,-2.020188,HX7 6LQ,Calderdale,Yorkshire and The Humber,53.740928,-2.020188,200,OK
51.447783,-2.484886,BS30 8EX,South Gloucestershire,South West,51.447874,-2.484628,200,OK
52.726282,-0.527204,PE9 4DS,South Kesteven,East Midlands,52.726282,-0.527204,200,OK
54.574112,-1.350768,TS19 0XX,Stockton-on-Tees,North East,54.574112,-1.350768,200,OK
51.406401,-0.259552,KT3 3TW,Kingston upon Thames,London,51.406401,-0.259552,200,OK
52.910697,0.488241,PE31 7TE,King's Lynn and West Norfolk,East of England,52.910697,0.488241,200,OK
55.04353,-6.763967,BT51 4HS,Causeway Coast and Glens,,55.04353,-6.763967,200,OK
54.644207,-1.236207,TS25 2RZ,Hartlepool,North East,54.644207,-1.236207,200,OK
50.630971,-3.392388,EX8 4BZ,East Devon,South West,50.630971,-3.392388,200,OK
50.927288,-0.276195,BN5 9EU,Horsham,South East,50.927288,-0.276195,200,OK
53.413452,-2.189612,SK4 4DP,Stockport,North West,53.413452,-2.189612,200,OK
51.516245,-0.108034,EC4A 3BN,City of London,London,51.516177,-0.108253,200,OK
51.434866,-2.647383,BS41 9LT,North Somerset,South West,51.434866,-2.647383,200,OK
53.363302,-2.222478,SK8 3NH,Stockport,North West,53.363302,-2.222478,200,OK
52.280626,-1.588066,CV34 4AT,Warwick,West Midlands,52.280615,-1.588216,200,OK
54.898125,-1.57611,DH3 1LJ,Gateshead,North East,54.898125,-1.57611,200,OK
53.906178,-2.169647,BB18 5TZ,Pendle,North West,53.906178,-2.169647,200,OK
53.949571,-2.163561,BD23 3UD,North Yorkshire,Yorkshire and The Humber,53.949571,-2.163561,200,OK
50.720074,-3.501943,EX2 5EW,Exeter,South West,50.720074,-3.501943,200,OK
50.704728,-3.072237,EX12 2QT,East Devon,South West,50.704728,-3.072237,200,OK
51.738264,-2.232994,,,,,,200,OK
53.501355,-2.520735,WN7 1RQ,Wigan,North West,53.501355,-2.520735,200,OK
51.063405,-0.465008,RH14 9BJ,Horsham,South East,51.063405,-0.465008,200,OK
54.947171,-1.97229,NE44 6DH,Northumberland,North East,54.947171,-1.97229,200,OK
51.771822,-3.092038,NP4 9BW,Torfaen,,51.771822,-3.092038,200,OK
51.434495,0.074199,SE9 3PT,Greenwich,London,51.434495,0.074199,200,OK
51.416401,-0.215869,SW19 4BW,Merton,London,51.416445,-0.215838,200,OK
52.444494,-2.078528,B63 1HD,Dudley,West Midlands,52.444494,-2.078528,200,OK
52.40604,-1.514593,CV1 3HX,Coventry,West Midlands,52.40604,-1.514593,200,OK
52.591658,-1.058133,LE2 4TY,Oadby and Wigston,East Midlands,52.591658,-1.058133,200,OK
53.142403,-4.273964,LL55 1AR,Gwynedd,,53.142664,-4.273953,200,OK
51.487854,-0.177211,SW10 9QD,Kensington and Chelsea,London,51.487854,-0.177211,200,OK
51.549229,-0.054106,E8 1GY,Hackney,London,51.549229,-0.054106,200,OK
51.449365,-0.330447,TW1 3SP,Richmond upon Thames,London,51.449365,-0.330461,200,OK
50.671084,-4.34261,PL15 9SX,Torridge,South West,50.671084,-4.34261,200,OK
52.662026,1.261544,NR6 5PF,Broadland,East of England,52.662026,1.261544,200,OK
56.201831,-3.002749,KY8 4DR,Fife,,56.201831,-3.002749,200,OK
52.851059,1.262516,NR11 7PS,North Norfolk,East of England,52.851059,1.262516,200,OK
54.404713,-5.894616,BT24 8DY,"Newry, Mourne and Down",,54.40475,-5.894629,200,OK
51.816971,0.05862,,,,,,200,OK
51.646495,-3.135939,NP11 4SD,Caerphilly,,51.647221,-3.135234,200,OK
51.338688,-2.240478,BA15 1HG,Wiltshire,South West,51.338688,-2.240478,200,OK
56.420043,-3.399884,PH2 6SA,Perth and Kinross,,56.420043,-3.399884,200,OK
50.810321,-1.91479,BH21 7RG,Dorset,South West,50.810635,-1.914662,200,OK
53.475566,-3.031199,L22 8QL,Sefton,North West,53.475566,-3.031199,200,OK
51.512447,-0.134738,W1F 0AF,Westminster,London,51.512465,-0.134766,200,OK
53.825451,-1.554242,LS7 2BN,Leeds,Yorkshire and The Humber,53.825451,-1.554318,200,OK
50.911829,-1.39303,SO14 0EQ,Southampton,South East,50.911829,-1.39303,200,OK
51.498622,-0.467214,UB7 9JF,Hillingdon,London,51.4985,-0.467385,200,OK
51.505722,-0.301197,W5 5NY,Ealing,London,51.505465,-0.301423,200,OK
53.312989,-2.969565,CH62 8DE,Wirral,North West,53.313271,-2.970187,200,OK
53.958796,-1.117915,YO26 4TG,York,Yorkshire and The Humber,53.958796,-1.117915,200,OK
51.725107,0.465352,CM2 0JG,Chelmsford,East of England,51.725107,0.465352,200,OK
51.550254,-0.149721,NW5 4RJ,Camden,London,51.550254,-0.149721,200,OK
51.575479,-0.730997,SL6 9RQ,Windsor and Maidenhead,South East,51.575479,-0.730997,200,OK
50.689704,-4.667487,PL35 0BP,Cornwall,South West,50.689704,-4.667487,200,OK
51.197812,-2.941035,TA9 3NY,Somerset,South West,51.197812,-2.941035,200,OK
55.957203,-4.546246,G82 3DH,West Dunbartonshire,,55.956937,-4.545732,200,OK
52.877403,-2.015812,ST18 0ZP,Stafford,West Midlands,52.877403,-2.015812,200,OK
50.824211,-1.378663,SO45 2GB,New Forest,South East,50.824211,-1.378663,200,OK
55.020719,-7.318638,BT48 7TR,Derry City and Strabane,,55.020719,-7.318638,200,OK
51.050658,-3.061732,TA2 8QX,Somerset,South West,51.050658,-3.061732,200,OK
52.245018,1.26269,IP13 7ED,Mid Suffolk,East of England,52.245018,1.26269,200,OK
53.803489,-2.230331,BB10 3HS,Burnley,North West,53.803489,-2.230331,200,OK
51.598494,-2.969961,NP19 7QY,Newport,,51.598494,-2.969961,200,OK
52.943861,-2.190957,ST12 9JL,Stafford,West Midlands,52.943861,-2.190957,200,OK
50.846796,-1.788564,BH24 1LJ,New Forest,South East,50.846796,-1.788564,200,OK
53.730039,-0.449427,HU13 0QT,East Riding of Yorkshire,Yorkshire and The Humber,53.730039,-0.449427,200,OK
51.958372,1.342579,IP11 2PR,East Suffolk,East of England,51.958337,1.342853,200,OK
51.269596,-0.84209,GU52 7UJ,Hart,South East,51.269596,-0.84209,200,OK
53.731468,-1.504695,WF3 3QA,Leeds,Yorkshire and The Humber,53.731929,-1.505387,200,OK
52.623231,-1.659651,B77 2DE,Tamworth,West Midlands,52.623231,-1.659651,200,OK
55.996211,-3.745065,FK2 9LY,Falkirk,,55.996211,-3.745065,200,OK
51.723328,-1.216986,OX4 6LB,Oxford,South East,51.723554,-1.215752,200,OK
53.489911,-2.056766,SK15 1BH,Tameside,North West,53.489911,-2.056766,200,OK
50.756369,-1.534953,SO41 3RX,New Forest,South East,50.755903,-1.535142,200,OK
51.497914,-3.158171,CF23 5DU,Cardiff,,51.49749,-3.158247,200,OK
51.869171,0.862839,CO2 9JN,Colchester,East of England,51.869171,0.862839,200,OK
51.44135,-0.422469,TW13 4LF,Hounslow,London,51.44135,-0.422469,200,OK
53.824722,-3.043633,FY1 3QX,Blackpool,North West,53.82483,-3.04365,200,OK
51.521802,-0.116366,WC1N 2NR,Camden,London,51.521802,-0.116366,200,OK
51.787452,-4.976629,SA61 1LR,Pembrokeshire,,51.787452,-4.976629,200,OK
56.024937,-3.443635,,,,,,200,OK
54.719799,-7.235677,BT79 8NJ,Fermanagh and Omagh,,54.719246,-7.23623,200,OK
52.399269,-1.784127,B91 3UU,Solihull,West Midlands,52.399269,-1.784127,200,OK
54.603442,-1.297096,TS23 2RT,Stockton-on-Tees,North East,54.603549,-1.297929,200,OK
51.896125,0.551425,CM7 5QS,Braintree,East of England,51.896125,0.551425,200,OK
51.996215,-2.156126,GL20 5BJ,Tewkesbury,South West,51.996242,-2.15598,200,OK
55.00687,-1.620041,NE3 1HD,Newcastle upon Tyne,North East,55.006446,-1.619466,200,OK
55.863364,-4.266852,G2 4LW,Glasgow City,,55.863364,-4.266852,200,OK
51.5924,-3.05519,NP10 9FF,Newport,,51.59251,-3.054962,200,OK
55.028705,-1.619694,NE3 5TL,Newcastle upon Tyne,North East,55.028705,-1.619694,200,OK
51.786917,-0.763769,HP22 5SB,Buckinghamshire,South East,51.786917,-0.763769,200,OK
52.831324,-4.503705,LL53 7AD,Gwynedd,,52.831324,-4.503705,200,OK
51.490376,-0.168222,SW3 3QP,Kensington and Chelsea,London,51.490376,-0.168222,200,OK
52.854694,-1.931553,ST18 0LT,East Staffordshire,West Midlands,52.854694,-1.931553,200,OK
51.907397,-2.083972,GL51 9EX,Cheltenham,South West,51.907397,-2.083972,200,OK
57.150606,-2.163493,AB15 6BJ,Aberdeen City,,57.150447,-2.163498,200,OK
51.789856,-0.179256,AL7 4DB,Welwyn Hatfield,East of England,51.789872,-0.179244,200,OK
52.538838,-0.302235,PE2 5XT,Peterborough,East of England,52.538838,-0.302235,200,OK
52.921318,-1.432031,DE21 6SW,Derby,East Midlands,52.921318,-1.432031,200,OK
51.876035,-3.891481,SA19 9RL,Carmarthenshire,,51.876035,-3.891481,200,OK
51.420781,0.810608,ME12 3PP,Swale,South East,51.420781,0.810608,200,OK
53.22746,-3.191148,CH8 8EE,Flintshire,,53.22746,-3.191148,200,OK
53.307837,-3.523499,LL18 5DT,Conwy,,53.307837,-3.523499,200,OK
55.122958,-1.577952,NE24 4HB,Northumberland,North East,55.122958,-1.577952,200,OK
54.631002,-1.662628,DL4 1FB,County Durham,North East,54.631002,-1.662628,200,OK
53.699913,-1.926457,HX6 3LN,Calderdale,Yorkshire and The Humber,53.699913,-1.926457,200,OK
52.563547,-2.026894,WS10 9JF,Walsall,West Midlands,52.563547,-2.026894,200,OK
52.047872,-4.464264,SA38 9EN,Ceredigion,,52.047872,-4.464264,200,OK
51.368587,0.559253,ME7 3DD,Medway,South East,51.368587,0.559253,200,OK
52.231459,-2.188409,WR3 8RY,Wychavon,West Midlands,52.231459,-2.188409,200,OK
51.455919,-0.30843,TW1 2HR,Richmond upon Thames,London,51.455919,-0.30843,200,OK
53.363862,-1.465883,S2 3BE,Sheffield,Yorkshire and The Humber,53.36389,-1.466047,200,OK
50.879228,0.592619,TN34 2AE,Hastings,South East,50.879228,0.592619,200,OK
55.87394,-3.038039,EH22 5ER,Midlothian,,55.87394,-3.038039,200,OK
51.356809,-0.216026,SM3 8SD,Sutton,London,51.35687,-0.215941,200,OK
50.841521,-3.742259,EX17 6SQ,Mid Devon,South West,50.841521,-3.742259,200,OK
56.512974,-2.901473,DD4 0PL,Angus,,56.512974,-2.901473,200,OK
51.514181,-0.147696,W1C 2AG,Westminster,London,51.514181,-0.147696,200,OK
51.485682,-2.643708,BS9 2HA,"Bristol, City of",South West,51.485698,-2.644039,200,OK
53.438048,-2.233286,M20 1GB,Manchester,North West,53.437842,-2.233375,200,OK
50.832002,-0.413903,BN13 2QX,Worthing,South East,50.832002,-0.413903,200,OK
51.205433,-0.222983,RH2 8PR,Reigate and Banstead,South East,51.205433,-0.222983,200,OK
50.225888,-5.240927,TR15 3BL,Cornwall,South West,50.225888,-5.240927,200,OK
54.949365,-1.622144,NE8 2TA,Gateshead,North East,54.949374,-1.622332,200,OK
51.273544,0.508887,ME16 8BD,Maidstone,South East,51.273777,0.508943,200,OK
53.768073,-0.349913,HU5 1QL,"Kingston upon Hull, City of",Yorkshire and The Humber,53.768073,-0.349913,200,OK
51.469146,0.487754,ME3 7TG,Medway,South East,51.469146,0.487754,200,OK
52.720315,-2.741125,SY1 2TE,Shropshire,West Midlands,52.720449,-2.741172,200,OK
55.452721,-1.628277,NE66 3LJ,Northumberland,North East,55.452721,-1.628277,200,OK
51.502177,0.046422,E16 2DW,Newham,London,51.502177,0.046422,200,OK
55.010257,-1.44435,NE30 1AH,North Tyneside,North East,55.010183,-1.444176,200,OK
51.212009,-2.646612,BA5 2LD,Somerset,South West,51.212009,-2.646612,200,OK
51.457463,-0.053233,SE15 3AQ,Southwark,London,51.457463,-0.053233,200,OK
54.651767,-6.62359,BT80 0AB,Mid Ulster,,54.651767,-6.62359,200,OK
52.17231,0.393713,CB8 9ER,East Cambridgeshire,East of England,52.17231,0.393713,200,OK
51.456101,0.227301,DA1 5EX,Dartford,South East,51.456101,0.227301,200,OK
51.467682,-0.289264,TW9 2DU,Richmond upon Thames,London,51.467832,-0.289705,200,OK
50.934715,-1.417764,SO16 7AZ,Southampton,South East,50.934733,-1.417698,200,OK
51.431403,-0.722089,RG42 6DB,Bracknell Forest,South East,51.431403,-0.722089,200,OK
50.805875,0.242004,BN20 9SE,Wealden,South East,50.805902,0.241992,200,OK
51.479486,-2.763388,BS20 6YB,North Somerset,South West,51.479486,-2.763388,200,OK
51.644552,-0.365043,WD23 1BH,Hertsmere,East of England,51.644461,-0.364959,200,OK
51.478217,-2.502158,BS16 4SE,South Gloucestershire,South West,51.478217,-2.502158,200,OK
55.881207,-4.27184,G20 7AE,Glasgow City,,55.881207,-4.27184,200,OK
52.817744,-1.403335,DE73 8AD,North West Leicestershire,East Midlands,52.817817,-1.403467,200,OK
52.84082,-0.478879,NG33 4JH,South Kesteven,East Midlands,52.840997,-0.479132,200,OK
53.481639,-2.862905,L33 7SB,Knowsley,North West,53.481639,-2.862905,200,OK
51.592499,-0.33261,HA3 5FH,Harrow,London,51.593124,-0.332781,200,OK
54.10161,-3.226708,LA14 2ST,Westmorland and Furness,North West,54.10161,-3.226708,200,OK
52.190046,0.998829,IP14 1PE,Mid Suffolk,East of England,52.190046,0.998829,200,OK
51.574803,-2.214508,SN16 0NS,Wiltshire,South West,51.574803,-2.214508,200,OK
51.907636,-0.640687,LU7 4NR,Central Bedfordshire,East of England,51.907636,-0.640687,200,OK
53.750567,-1.689041,BD11 2LG,Kirklees,Yorkshire and The Humber,53.750486,-1.689193,200,OK
51.572576,-3.220846,CF83 1GE,Caerphilly,,51.572437,-3.220506,200,OK
51.55227,0.250489,RM14 3AH,Havering,London,51.55227,0.250489,200,OK
52.774003,-3.794714,LL40 2BY,Gwynedd,,52.774003,-3.794714,200,OK
53.489431,-1.299832,S64 8AA,Rotherham,Yorkshire and The Humber,53.489449,-1.299802,200,OK
52.096028,1.322625,IP12 1AU,East Suffolk,East of England,52.096028,1.322625,200,OK
52.980672,-2.131024,ST3 4NH,Stoke-on-Trent,West Midlands,52.980798,-2.130801,200,OK
55.849121,-4.366255,G52 2RW,Glasgow City,,55.849121,-4.366255,200,OK
51.548911,-0.759081,SL6 6PJ,Windsor and Maidenhead,South East,51.548911,-0.759081,200,OK
53.570484,-2.723175,WN8 0SX,West Lancashire,North West,53.570484,-2.723175,200,OK
53.83099,-1.808446,BD18 4AD,Bradford,Yorkshire and The Humber,53.83099,-1.808446,200,OK
52.901353,-1.297629,NG10 4PD,Erewash,East Midlands,52.901353,-1.297629,200,OK
53.812832,-2.202924,BB10 2JP,Burnley,North West,53.812832,-2.202924,200,OK
50.677928,-1.246324,PO30 3AA,Isle of Wight,South East,50.677928,-1.246324,200,OK
51.637226,-3.748126,SA12 9TP,Neath Port Talbot,,51.637226,-3.748126,200,OK
51.636725,-2.352432,GL12 7BY,Stroud,South West,51.636725,-2.352432,200,OK
55.938238,-3.199481,EH9 1EN,City of Edinburgh,,55.938238,-3.199481,200,OK
54.984118,-1.708543,NE15 7LP,Newcastle upon Tyne,North East,54.984118,-1.708543,200,OK
50.375892,-4.206778,PL11 2JB,Cornwall,South West,50.375854,-4.205947,200,OK
51.339352,-0.744677,GU15 3QZ,Surrey Heath,South East,51.339352,-0.744677,200,OK
55.885697,-3.05711,EH22 2GQ,Midlothian,,55.885697,-3.05711,200,OK
54.941419,-2.742364,CA8 1SS,Cumberland,North West,54.941419,-2.742364,200,OK
51.127449,0.260216,TN1 1YF,Tunbridge Wells,South East,51.127449,0.260216,200,OK
53.508225,-1.367419,S63 6PQ,Rotherham,Yorkshire and The Humber,53.508225,-1.367419,200,OK
51.928285,1.248234,CO12 4XD,Tendring,East of England,51.928285,1.248234,200,OK
51.143996,0.891715,TN24 0RW,Ashford,South East,51.143996,0.891715,200,OK
54.111376,-2.546709,LA2 8PL,Lancaster,North West,54.111396,-2.546711,200,OK
51.818354,-2.13802,GL4 8HF,Stroud,South West,51.818354,-2.13802,200,OK
53.345404,-2.11628,SK12 1PB,Cheshire East,North West,53.345404,-2.11628,200,OK
51.589874,0.584222,SS6 9TW,Rochford,East of England,51.589874,0.584222,200,OK
54.912568,-1.520865,NE37 2AL,Sunderland,North East,54.912568,-1.520865,200,OK
51.871933,-0.168679,SG2 8XT,East Hertfordshire,East of England,51.871933,-0.168679,200,OK
51.602105,-0.645785,HP9 1RY,Buckinghamshire,South East,51.602105,-0.645785,200,OK
54.118228,-2.511077,LA2 7HQ,North Yorkshire,Yorkshire and The Humber,54.117988,-2.511229,200,OK
51.928862,-2.400543,GL18 1TS,Forest of Dean,South West,51.928862,-2.400543,200,OK
51.498659,-0.076705,SE1 3PE,Southwark,London,51.498327,-0.076748,200,OK
51.47327,-2.474747,,,,,,200,OK
54.352653,-6.264357,BT32 4DL,"Armagh City, Banbridge and Craigavon",,54.352653,-6.264357,200,OK
51.695753,-0.734364,HP16 0LQ,Buckinghamshire,South East,51.695753,-0.734364,200,OK
53.579826,-2.50359,BL6 4AA,Bolton,North West,53.579826,-2.50359,200,OK
55.742929,-4.641364,KA15 1BL,North Ayrshire,,55.742929,-4.641364,200,OK
52.265916,0.701677,IP32 6NG,West Suffolk,East of England,52.265916,0.701677,200,OK
51.647242,-3.003608,NP44 8SF,Torfaen,,51.647242,-3.003608,200,OK
51.294507,0.168692,TN13 2UX,Sevenoaks,South East,51.294507,0.168692,200,OK
53.239449,-2.090954,SK11 0ER,Cheshire East,North West,53.239449,-2.090954,200,OK
51.374359,1.427237,CT10 3DX,Thanet,South East,51.374359,1.427237,200,OK
53.490736,-2.498494,WN7 3BQ,Wigan,North West,53.490736,-2.498494,200,OK
51.656892,-3.808968,SA11 1PH,Neath Port Talbot,,51.656892,-3.808968,200,OK
50.829516,-0.254847,BN43 5HJ,Adur,South East,50.829516,-0.254847,200,OK
53.542487,-2.114647,OL1 3BQ,Oldham,North West,53.542593,-2.114841,200,OK
51.700995,0.525942,CM2 7TW,Chelmsford,East of England,51.700995,0.525942,200,OK
51.592548,0.298811,CM13 3DR,Brentwood,East of England,51.592548,0.298811,200,OK
54.225774,-2.935891,LA11 6HN,Westmorland and Furness,North West,54.225774,-2.935891,200,OK
51.654236,-3.802154,SA11 1UH,Neath Port Talbot,,51.654236,-3.802154,200,OK
52.331366,-0.186996,PE29 3DF,Huntingdonshire,East of England,52.331366,-0.186996,200,OK
51.454875,-0.943785,RG1 3QD,Reading,South East,51.454875,-0.943785,200,OK
55.428594,-2.785469,TD9 8AZ,Scottish Borders,,55.428594,-2.785469,200,OK
53.429031,-2.332717,M33 6PG,Trafford,North West,53.429031,-2.332717,200,OK
50.753579,-1.314236,PO31 7UA,Isle of Wight,South East,50.753579,-1.314236,200,OK
51.67048,-0.332077,WD7 8PJ,Hertsmere,East of England,51.67048,-0.332077,200,OK
51.459291,0.029917,SE3 9GF,Greenwich,London,51.459291,0.029917,200,OK
57.116009,-2.108684,AB12 5HB,Aberdeen City,,57.116002,-2.108709,200,OK
51.24133,-0.324666,RH4 1TZ,Mole Valley,South East,51.24133,-0.324666,200,OK
53.760515,-0.284113,HU9 3RJ,"Kingston upon Hull, City of",Yorkshire and The Humber,53.76016,-0.283589,200,OK
53.82385,-3.040572,FY1 3RP,Blackpool,North West,53.823635,-3.040491,200,OK
54.976411,-1.435771,NE34 0QQ,South Tyneside,North East,54.976411,-1.435771,200,OK
53.224636,-1.410833,S41 0ER,Chesterfield,East Midlands,53.224636,-1.410833,200,OK
56.648279,-5.273053,PA38 4AA,Highland,,56.648215,-5.273096,200,OK
51.335706,-0.746815,GU15 3FU,Surrey Heath,South East,51.335706,-0.746815,200,OK
52.050463,-1.780589,GL55 6HA,Cotswold,South West,52.050383,-1.7811,200,OK
53.301122,-3.835565,LL31 9DN,Conwy,,53.301122,-3.835565,200,OK
51.562842,0.092833,IG3 8EG,Redbridge,London,51.562843,0.092859,200,OK
50.714133,-2.433633,DT1 1SH,Dorset,South West,50.714133,-2.433633,200,OK
51.812441,0.159362,CM21 1BS,Epping Forest,East of England,51.812403,0.159358,200,OK
52.452034,-2.163525,DY8 3RW,Dudley,West Midlands,52.452686,-2.164155,200,OK
52.066387,-2.342722,,,,,,200,OK
51.420304,-0.084254,SE19 1HE,Lambeth,London,51.420304,-0.084254,200,OK
53.621621,-2.604657,PR6 9LY,Chorley,North West,53.621621,-2.604657,200,OK
51.596641,-1.799051,SN25 4UA,Swindon,South West,51.596641,-1.799065,200,OK
51.246748,0.55807,ME15 8SR,Maidstone,South East,51.246748,0.55807,200,OK
51.541632,-2.410628,BS37 5SF,South Gloucestershire,South West,51.541632,-2.410628,200,OK
52.976905,-0.023624,PE21 6NH,Boston,East Midlands,52.977147,-0.023726,200,OK
51.07207,-0.80195,GU30 7DT,East Hampshire,South East,51.07207,-0.80195,200,OK
52.372641,-2.205035,DY10 4BD,Wyre Forest,West Midlands,52.372641,-2.205035,200,OK
56.155062,-3.948768,FK9 4HR,Stirling,,56.155062,-3.948768,200,OK
51.494423,-0.141913,SW1V 1LJ,Westminster,London,51.494557,-0.141908,200,OK
50.823261,-0.307628,BN15 8JP,Adur,South East,50.823348,-0.30869,200,OK
50.482427,-3.561659,TQ2 7HS,Torbay,South West,50.48234,-3.562079,200,OK
52.187772,-1.712029,CV37 6DN,Stratford-on-Avon,West Midlands,52.187772,-1.712029,200,OK
51.523208,-3.395207,CF72 9DT,Rhondda Cynon Taf,,51.523821,-3.395125,200,OK
52.411214,-1.552274,CV5 8AG,Coventry,West Midlands,52.411214,-1.552274,200,OK
53.020662,-2.187078,ST1 4JU,Stoke-on-Trent,West Midlands,53.020662,-2.187078,200,OK
53.942466,-1.896371,LS29 0FF,Bradford,Yorkshire and The Humber,53.942283,-1.897061,200,OK
53.794993,-1.520043,LS9 8TJ,Leeds,Yorkshire and The Humber,53.794939,-1.520119,200,OK
51.942324,0.62894,CO9 1AB,Braintree,East of England,51.942324,0.62894,200,OK
52.638618,1.296456,NR3 1FE,Norwich,East of England,52.638618,1.296456,200,OK
53.376619,-2.756157,WA8 9ZU,Halton,North West,53.376619,-2.756157,200,OK
53.556088,-3.063199,L37 4ED,Sefton,North West,53.556088,-3.063199,200,OK
54.605418,-5.929105,BT1 2NH,Belfast,,54.605418,-5.929105,200,OK
55.015824,-1.437642,NE30 2HQ,North Tyneside,North East,55.015824,-1.437642,200,OK
53.843937,-1.618483,LS16 6RX,Leeds,Yorkshire and The Humber,53.844199,-1.61883,200,OK
53.820632,-1.439785,LS14 5NT,Leeds,Yorkshire and The Humber,53.820632,-1.439785,200,OK
54.568055,-5.947855,BT9 5LG,Belfast,,54.567827,-5.94663,200,OK
54.192941,-6.392086,BT35 7DT,"Newry, Mourne and Down",,54.193379,-6.393264,200,OK
51.434397,-0.100972,SE27 9LF,Lambeth,London,51.434397,-0.100972,200,OK
54.530774,-3.564341,CA28 8JJ,Cumberland,North West,54.530774,-3.564341,200,OK
52.039859,-0.675704,MK17 8AA,Milton Keynes,South East,52.039886,-0.675747,200,OK
53.53399,-2.150321,OL9 8PT,Oldham,North West,53.533961,-2.150349,200,OK
54.987895,-1.648272,NE4 9EA,Newcastle upon Tyne,North East,54.987895,-1.648272,200,OK
51.945836,-2.063545,GL52 8LU,Tewkesbury,South West,51.945836,-2.063545,200,OK
53.224206,0.298647,PE24 5NB,East Lindsey,East Midlands,53.224206,0.298647,200,OK
52.057516,1.153841,IP1 1EA,Ipswich,East of England,52.057516,1.153841,200,OK
53.371563,-1.991349,SK22 4LL,High Peak,East Midlands,53.371615,-1.991152,200,OK
52.649623,-1.102977,LE4 9UJ,Leicester,East Midlands,52.649623,-1.102977,200,OK
53.005021,-1.142974,NG5 8NX,Gedling,East Midlands,53.005021,-1.142974,200,OK
54.972947,-1.553968,NE6 2PL,Newcastle upon Tyne,North East,54.972947,-1.553968,200,OK
50.963847,-1.372061,SO50 9LT,Eastleigh,South East,50.963794,-1.372051,200,OK
51.683389,0.558509,CM3 8AG,Chelmsford,East of England,51.683417,0.558467,200,OK
56.729052,-2.652375,DD9 7BX,Angus,,56.729052,-2.652375,200,OK
51.9008,-0.185675,SG1 1RD,Stevenage,East of England,51.9008,-0.185675,200,OK
54.468507,-8.024004,BT93 3DB,Fermanagh and Omagh,,54.468507,-8.024004,200,OK
54.966667,-1.603457,NE8 2AU,Gateshead,North East,54.967125,-1.604075,200,OK
54.724655,-5.792056,BT38 7JZ,Mid and East Antrim,,54.724655,-5.792056,200,OK
51.352272,0.588765,ME8 0PW,Medway,South East,51.352272,0.588765,200,OK
51.494346,0.116778,SE2 9LB,Greenwich,London,51.494389,0.117399,200,OK
51.519225,-3.553329,CF35 6GA,Bridgend,,51.519225,-3.553329,200,OK
53.789747,-2.759058,PR4 0FG,Preston,North West,53.789634,-2.759739,200,OK
53.999425,-1.552733,HG1 2JZ,North Yorkshire,Yorkshire and The Humber,53.999425,-1.552733,200,OK
51.358834,0.53087,ME5 0DJ,Medway,South East,51.358834,0.53087,200,OK
54.135271,-1.524044,HG4 1BH,North Yorkshire,Yorkshire and The Humber,54.135271,-1.524044,200,OK
53.787611,-2.27165,,,,,,200,OK
51.526812,-3.195101,CF14 5GR,Cardiff,,51.526812,-3.195101,200,OK
51.51902,-2.504623,BS36 1HJ,South Gloucestershire,South West,51.518957,-2.504594,200,OK
52.116722,0.35293,CB21 4RZ,South Cambridgeshire,East of England,52.117098,0.353446,200,OK
55.394202,-4.179195,KA18 4BX,East Ayrshire,,55.394202,-4.179195,200,OK
51.956304,-2.891617,HR2 0TZ,"Herefordshire, County of",West Midlands,51.956304,-2.891617,200,OK
53.678494,-1.697308,WF14 9RF,Kirklees,Yorkshire and The Humber,53.678159,-1.697418,200,OK
52.035861,1.132862,IP2 9ES,Ipswich,East of England,52.035861,1.132862,200,OK
53.089266,-3.180383,CH7 4QU,Denbighshire,,53.089266,-3.180383,200,OK
51.814537,-1.441185,OX29 6RZ,West Oxfordshire,South East,51.814528,-1.4412,200,OK
50.789276,-1.1061,PO1 2ND,Portsmouth,South East,50.789284,-1.1061,200,OK
57.169749,-2.123873,AB24 4DH,Aberdeen City,,57.16974,-2.12389,200,OK
51.482335,-3.162284,CF24 0HL,Cardiff,,51.482335,-3.162284,200,OK
51.481441,-2.519445,BS16 5BT,"Bristol, City of",South West,51.481441,-2.519445,200,OK
53.596915,-2.472153,BL1 5UP,Bolton,North West,53.596915,-2.472153,200,OK
53.601746,-1.586697,HD8 9LT,Kirklees,Yorkshire and The Humber,53.601746,-1.586697,200,OK
53.502103,-1.345665,S63 7QZ,Rotherham,Yorkshire and The Humber,53.502268,-1.346295,200,OK
56.186755,-3.326941,,,,,,200,OK
51.497303,-0.180493,SW7 5HY,Kensington and Chelsea,London,51.497296,-0.18057,200,OK
53.749627,-1.453771,LS26 8JQ,Leeds,Yorkshire and The Humber,53.749627,-1.453771,200,OK
50.384041,-4.169034,PL2 1HX,Plymouth,South West,50.384041,-4.169034,200,OK
50.909457,-1.395123,SO14 0NS,Southampton,South East,50.909457,-1.395123,200,OK
52.608806,1.234878,NR4 7SL,South Norfolk,East of England,52.608806,1.234878,200,OK
51.240016,-0.787494,GU9 9AR,Waverley,South East,51.240016,-0.787494,200,OK
51.518035,-3.100556,CF3 0JY,Cardiff,,51.518073,-3.100507,200,OK
51.299398,0.578155,ME14 3HA,Maidstone,South East,51.299398,0.578155,200,OK
52.593794,-2.060497,WV13 1AP,Walsall,West Midlands,52.593794,-2.060497,200,OK
52.000789,-0.744572,MK3 6HX,Milton Keynes,South East,52.000789,-0.744572,200,OK
55.829377,-4.275682,G41 3BG,Glasgow City,,55.829377,-4.275682,200,OK
51.495057,-0.046488,SE16 7NB,Southwark,London,51.495057,-0.046488,200,OK
54.184214,-1.05891,YO62 4JH,North Yorkshire,Yorkshire and The Humber,54.184214,-1.05891,200,OK
50.857051,-1.182946,PO16 7YQ,Fareham,South East,50.857051,-1.182946,200,OK
53.937994,-1.117485,YO24 2TL,York,Yorkshire and The Humber,53.938021,-1.117523,200,OK
53.4647,-2.72981,WA11 9YH,St. Helens,North West,53.4647,-2.72981,200,OK
51.471137,-0.02237,SE8 4JP,Lewisham,London,51.471137,-0.02237,200,OK
50.815831,-0.107704,BN2 5TE,Brighton and Hove,South East,50.815831,-0.107704,200,OK
54.728329,-5.825778,BT38 8UQ,Mid and East Antrim,,54.728329,-5.825778,200,OK
55.860629,-4.58288,PA11 3PR,Renfrewshire,,55.860533,-4.583161,200,OK
54.581395,-6.745893,BT71 4BZ,Mid Ulster,,54.581395,-6.745893,200,OK
51.604506,-1.798063,SN25 4GG,Swindon,South West,51.604506,-1.798063,200,OK
51.663532,-2.912547,NP15 1TY,Monmouthshire,,51.663532,-2.912547,200,OK
50.723834,-1.834451,BH5 1LX,"Bournemouth, Christchurch and Poole",South West,50.723834,-1.834451,200,OK
51.641275,-0.040892,EN3 4GF,Enfield,London,51.641122,-0.040393,200,OK
53.047047,-2.99506,LL11 1LR,Wrexham,,53.047089,-2.99521,200,OK
53.716955,-1.943671,HX2 6EP,Calderdale,Yorkshire and The Humber,53.717122,-1.943702,200,OK
50.813089,-0.379823,BN11 4BA,Worthing,South East,50.813089,-0.379823,200,OK
53.514589,-2.930337,L31 6AQ,Sefton,North West,53.514589,-2.930337,200,OK
54.240998,-6.107394,BT34 5PL,"Armagh City, Banbridge and Craigavon",,54.240998,-6.107394,200,OK
51.999534,-0.487762,MK45 1LT,Central Bedfordshire,East of England,51.999534,-0.487762,200,OK
52.739418,-1.863263,WS15 4ET,Lichfield,West Midlands,52.739418,-1.863263,200,OK
50.618693,-1.959549,BH19 1NL,Dorset,South West,50.618693,-1.959549,200,OK
50.808325,-1.058361,PO3 6HU,Portsmouth,South East,50.808325,-1.058361,200,OK
53.477602,-2.064419,SK15 1UE,Tameside,North West,53.477602,-2.064419,200,OK
52.470049,-1.842282,B10 9DT,Birmingham,West Midlands,52.470049,-1.842282,200,OK
51.358796,1.439569,CT10 1FB,Thanet,South East,51.358732,1.43959,200,OK
53.731073,-1.689624,BD19 4NY,Kirklees,Yorkshire and The Humber,53.731099,-1.689351,200,OK
54.611226,-5.98463,BT13 3NT,Belfast,,54.611226,-5.98463,200,OK
55.434344,-4.646443,KA7 4NX,South Ayrshire,,55.434344,-4.646443,200,OK
50.811712,0.283948,BN23 8LR,Eastbourne,South East,50.811712,0.283948,200,OK
52.728862,1.361746,NR12 7HF,Broadland,East of England,52.728862,1.361746,200,OK
54.00355,-1.53669,HG1 5JQ,North Yorkshire,Yorkshire and The Humber,54.00355,-1.53669,200,OK
52.047889,-0.024146,SG8 9FS,North Hertfordshire,East of England,52.047827,-0.02412,200,OK
52.697429,-1.072165,LE7 2AE,Charnwood,East Midlands,52.697429,-1.072165,200,OK
53.81846,-1.530616,LS7 4HP,Leeds,Yorkshire and The Humber,53.818315,-1.530804,200,OK
51.535143,-0.139823,NW1 7LH,Camden,London,51.535143,-0.139823,200,OK
52.059994,1.129036,IP2 0UG,Ipswich,East of England,52.059736,1.12896,200,OK
51.682272,-0.381795,WD25 9TF,Watford,East of England,51.682272,-0.381795,200,OK
54.883346,-2.89477,CA1 3AQ,Cumberland,North West,54.883516,-2.894883,200,OK
56.18944,-3.057004,KY8 5RL,Fife,,56.18944,-3.057004,200,OK
50.929442,0.918718,,,,,,200,OK
53.276964,-2.927282,CH66 3LA,Cheshire West and Chester,North West,53.276964,-2.927282,200,OK
51.634341,-0.493768,WD3 8BS,Three Rivers,East of England,51.634341,-0.493768,200,OK
55.954465,-2.977829,EH32 9EP,East Lothian,,55.954465,-2.977829,200,OK
53.514883,-2.237493,M8 5WA,Manchester,North West,53.514854,-2.238096,200,OK
51.492085,-0.072848,SE1 5RY,Southwark,London,51.492085,-0.072848,200,OK
51.549284,-0.038512,E9 6BB,Hackney,London,51.549131,-0.039009,200,OK
54.061224,-1.700278,HG3 4BJ,North Yorkshire,Yorkshire and The Humber,54.061224,-1.700278,200,OK
51.729176,-0.440445,HP3 8RR,Three Rivers,East of England,51.729176,-0.440445,200,OK
51.442205,-0.195562,SW18 4QT,Wandsworth,London,51.442205,-0.195562,200,OK
53.587733,-0.64944,DN15 6JH,North Lincolnshire,Yorkshire and The Humber,53.587733,-0.64944,200,OK
53.662019,-1.88129,HX4 9JL,Calderdale,Yorkshire and The Humber,53.662019,-1.88129,200,OK
51.872227,0.137965,CM23 4PE,East Hertfordshire,East of England,51.872227,0.137965,200,OK
51.537233,-0.083616,N1 5PW,Hackney,London,51.537233,-0.083616,200,OK
54.923415,-1.576609,NE9 7EN,Gateshead,North East,54.923415,-1.576609,200,OK
51.539556,-3.189523,CF14 9BX,Cardiff,,51.539556,-3.189523,200,OK
51.515365,-0.11199,WC2A 1DT,Camden,London,51.515365,-0.11199,200,OK
55.01042,-1.481406,,,,,,200,OK
51.352909,-0.149525,SM6 0TG,Sutton,London,51.352909,-0.149525,200,OK
51.92108,-0.629117,LU7 9NY,Central Bedfordshire,East of England,51.92108,-0.629117,200,OK
51.500614,-0.265526,W4 5HU,Ealing,London,51.500614,-0.265526,200,OK
51.288636,-0.831657,GU51 9ZZ,Hart,South East,51.288637,-0.831674,200,OK
57.475546,-4.149842,IV2 5GZ,Highland,,57.475011,-4.149561,200,OK
50.76923,0.273992,BN21 1DT,Eastbourne,South East,50.76923,0.273992,200,OK
51.57507,-0.415535,HA4 8HP,Hillingdon,London,51.57507,-0.415535,200,OK
50.736184,-3.511401,EX4 7DJ,Exeter,South West,50.736184,-3.511401,200,OK
52.886951,-1.148915,NG11 6JG,Rushcliffe,East Midlands,52.886989,-1.148896,200,OK
51.431589,-0.010281,SE6 2SG,Lewisham,London,51.431589,-0.010281,200,OK
52.096895,-0.521751,MK43 9FU,Bedford,East of England,52.096895,-0.521751,200,OK
52.608973,-2.85932,SY5 8DJ,Shropshire,West Midlands,52.608973,-2.85932,200,OK
52.095816,0.27404,CB21 4JN,South Cambridgeshire,East of England,52.095799,0.274024,200,OK
51.678893,-3.164346,NP11 3DE,Caerphilly,,51.678893,-3.164346,200,OK
51.524422,-0.661323,SL1 6LB,Buckinghamshire,South East,51.524422,-0.661323,200,OK
52.459222,-2.046168,B62 8AZ,Dudley,West Midlands,52.459222,-2.046168,200,OK
51.981784,-1.012062,MK18 4HU,Buckinghamshire,South East,51.981784,-1.012062,200,OK
53.770539,-0.450494,HU10 6EE,East Riding of Yorkshire,Yorkshire and The Humber,53.770539,-0.450494,200,OK
53.791272,-1.758611,BD7 1AA,Bradford,Yorkshire and The Humber,53.791244,-1.758368,200,OK
55.819444,-4.002546,ML4 1DU,North Lanarkshire,,55.819444,-4.002546,200,OK
54.521827,-6.265063,BT67 0FN,Lisburn and Castlereagh,,54.521827,-6.265063,200,OK
51.588439,0.438656,SS15 4BS,Basildon,East of England,51.588439,0.438656,200,OK
50.771279,0.282389,BN21 3UX,Eastbourne,South East,50.771174,0.2822,200,OK
57.546731,-2.946775,AB55 5FE,Moray,,57.546895,-2.946446,200,OK
55.765345,-4.146092,G74 2JH,South Lanarkshire,,55.765345,-4.146092,200,OK
53.371416,-1.561499,S10 4JL,Sheffield,Yorkshire and The Humber,53.371416,-1.561499,200,OK
54.309832,-7.731503,BT74 8FH,Fermanagh and Omagh,,54.309832,-7.731503,200,OK
52.276207,-1.154621,NN11 2LA,West Northamptonshire,East Midlands,52.276207,-1.154621,200,OK
53.633947,-0.743745,DN17 4RA,North Lincolnshire,Yorkshire and The Humber,53.633947,-0.743745,200,OK
57.424357,-2.236995,AB41 7DZ,Aberdeenshire,,57.424357,-2.236995,200,OK
52.7154,-2.793521,SY3 8BJ,Shropshire,West Midlands,52.7154,-2.793521,200,OK
51.429723,-0.335996,TW11 8NY,Richmond upon Thames,London,51.429477,-0.335775,200,OK
51.951508,1.334674,IP11 2ES,East Suffolk,East of England,51.951508,1.334674,200,OK
51.337784,-0.446671,KT11 1DZ,Elmbridge,South East,51.337185,-0.446217,200,OK
53.40283,-3.079905,CH43 7LN,Wirral,North West,53.402906,-3.080494,200,OK
50.832338,-0.230217,BN42 4AN,Adur,South East,50.832338,-0.230217,200,OK
53.306844,-3.057971,,,,,,200,OK
53.934186,-1.397202,LS22 6WQ,Leeds,Yorkshire and The Humber,53.934186,-1.397202,200,OK
55.396646,-2.860843,TD9 7PF,Scottish Borders,,55.396646,-2.860843,200,OK
52.902628,-1.178165,NG11 1DL,Nottingham,East Midlands,52.902628,-1.178165,200,OK
52.545886,-1.88706,B44 8LH,Birmingham,West Midlands,52.545886,-1.88706,200,OK
56.482716,-2.932986,DD4 8NF,Dundee City,,56.482716,-2.932986,200,OK
53.358564,-3.126042,CH61 4XR,Wirral,North West,53.358564,-3.126042,200,OK
52.263397,-0.88792,NN2 7RD,West Northamptonshire,East Midlands,52.263397,-0.88792,200,OK
53.675704,-1.678451,WF14 9JS,Kirklees,Yorkshire and The Humber,53.675704,-1.678451,200,OK
54.984427,-1.677679,NE5 2HN,Newcastle upon Tyne,North East,54.984427,-1.677679,200,OK
51.443454,0.191212,DA1 3JP,Dartford,South East,51.443454,0.191212,200,OK
51.509514,-0.131269,SW1Y 4DP,Westminster,London,51.509514,-0.131269,200,OK
52.907717,0.831981,,,,,,200,OK
53.599063,-3.035537,PR8 3PB,Sefton,North West,53.599063,-3.035537,200,OK
51.453422,-2.359782,SN14 8JS,South Gloucestershire,South West,51.453422,-2.359782,200,OK
51.502025,-0.233544,W12 8BJ,Hammersmith and Fulham,London,51.502025,-0.233544,200,OK
51.517975,-0.112156,WC1V 7QT,City of London,London,51.517976,-0.112171,200,OK
54.550147,-6.026069,BT17 0DF,Belfast,,54.550147,-6.026069,200,OK
52.756673,0.405258,PE30 1LA,King's Lynn and West Norfolk,East of England,52.756673,0.405258,200,OK
51.543069,-1.88543,SN4 8LU,Wiltshire,South West,51.543069,-1.88543,200,OK
51.690961,0.025583,EN9 3NT,Epping Forest,East of England,51.690961,0.025583,200,OK
51.561605,-0.202468,NW2 2PX,Barnet,London,51.561641,-0.202327,200,OK
