lat,lon,postcode,admin_district,region,latitude,longitude,estado_api,descripcion_estado
52.928333,-1.112446,NG2 6LH,Rushcliffe,East Midlands,52.928333,-1.112446,200,OK
51.34005,-0.52026,GU21 5TT,Woking,South East,51.34005,-0.52026,200,OK
51.68501,-0.034879,EN8 8BX,Broxbourne,East of England,51.68501,-0.034879,200,OK
50.091218,-5.547621,TR19 6US,Cornwall,South West,50.091218,-5.547621,200,OK
57.514364,-2.06041,AB42 5JZ,Aberdeenshire,,57.51379,-2.059975,200,OK
51.486519,-0.145965,SW1V 4BD,Westminster,London,51.486519,-0.145965,200,OK
53.264009,-4.364693,LL77 7DJ,Isle of Anglesey,,53.264,-4.364708,200,OK
51.417756,-2.317828,BA1 8EP,Bath and North East Somerset,South West,51.417756,-2.317828,200,OK
51.09566,-2.043918,SP3 5BY,Wiltshire,South West,51.09566,-2.043918,200,OK
51.493592,-0.132573,SW1P 4NH,Westminster,London,51.493592,-0.132573,200,OK
51.102096,-0.22842,RH11 6AN,Crawley,South East,51.102096,-0.22842,200,OK
54.982306,-1.980384,NE45 5PR,Northumberland,North East,54.982306,-1.980384,200,OK
54.212891,-0.291071,YO14 9EF,North Yorkshire,Yorkshire and The Humber,54.212891,-0.291071,200,OK
51.237852,-1.093998,RG25 2JJ,Basingstoke and Deane,South East,51.237852,-1.093998,200,OK
51.837922,1.14507,CO16 9NG,Tendring,East of England,51.837829,1.145209,200,OK
51.47416,-1.620894,SN8 2DT,Wiltshire,South West,51.47416,-1.620894,200,OK
51.405611,-0.061966,SE20 7TZ,Bromley,London,51.405611,-0.061966,200,OK
53.587892,-1.848596,HD9 4HG,Kirklees,Yorkshire and The Humber,53.587856,-1.848596,200,OK
51.848183,-2.202132,GL4 5TS,Gloucester,South West,51.848183,-2.202132,200,OK
50.341177,-4.779687,PL25 4RD,Cornwall,South West,50.341177,-4.779687,200,OK
53.447664,-2.937742,L11 7DW,Liverpool,North West,53.447664,-2.937742,200,OK
51.481642,0.325477,RM17 5EY,Thurrock,East of England,51.481642,0.325477,200,OK
54.033595,-2.790889,LA1 4EX,Lancaster,North West,54.033327,-2.790639,200,OK
50.868376,0.599692,TN34 3NW,Hastings,South East,50.868376,0.599692,200,OK
53.954253,-1.096889,YO24 4AT,York,Yorkshire and The Humber,53.954262,-1.096868,200,OK
51.373315,0.537043,ME4 5EY,Medway,South East,51.373315,0.537043,200,OK
53.919703,-1.331984,LS23 7BP,Leeds,Yorkshire and The Humber,53.919703,-1.331984,200,OK
53.48963,-2.886308,L32 1BE,Knowsley,North West,53.48963,-2.886308,200,OK
54.005878,-0.429207,YO25 5FT,East Riding of Yorkshire,Yorkshire and The Humber,54.005794,-0.429698,200,OK
53.645003,-2.320045,BL0 9JA,Bury,North West,53.645003,-2.320045,200,OK
51.406004,-3.258731,CF63 3NS,Vale of Glamorgan,,51.406004,-3.258745,200,OK
52.69572,-2.750933,SY3 7QU,Shropshire,West Midlands,52.69572,-2.750933,200,OK
50.823609,-2.984137,EX13 7LF,East Devon,South West,50.823609,-2.984137,200,OK
54.606287,-1.074655,TS10 4DX,Redcar and Cleveland,North East,54.606287,-1.074655,200,OK
52.498897,-1.828818,B8 2BP,Birmingham,West Midlands,52.498897,-1.828818,200,OK
53.424296,-2.98865,L5 9RH,Liverpool,North West,53.424509,-2.988941,200,OK
53.776159,-0.287421,HU8 0AF,"Kingston upon Hull, City of",Yorkshire and The Humber,53.776078,-0.287204,200,OK
53.310978,-1.102625,S81 0DT,Bassetlaw,East Midlands,53.310988,-1.102595,200,OK
53.472935,-2.24574,M15 4RB,Manchester,North West,53.472935,-2.24574,200,OK
53.836964,-1.630247,LS18 4HD,Leeds,Yorkshire and The Humber,53.836964,-1.630247,200,OK
52.445785,-1.458571,CV2 2QB,Coventry,West Midlands,52.445042,-1.459308,200,OK
52.622369,1.241391,NR4 7TJ,Norwich,East of England,52.622369,1.241391,200,OK
53.748848,-2.72936,PR1 0SD,South Ribble,North West,53.748745,-2.728539,200,OK
52.141374,-0.28356,SG19 1SA,Central Bedfordshire,East of England,52.141374,-0.28356,200,OK
51.444484,-0.095791,SE21 8NJ,Lambeth,London,51.444484,-0.095791,200,OK
51.459543,-2.512128,BS15 8EG,South Gloucestershire,South West,51.459543,-2.512128,200,OK
51.611306,-0.226792,NW7 2RL,Barnet,London,51.611306,-0.226792,200,OK
52.272955,-4.180004,SY23 5LZ,Ceredigion,,52.272955,-4.180004,200,OK
51.547539,-3.590378,CF32 9EF,Bridgend,,51.547539,-3.590378,200,OK
53.729001,-1.034833,YO8 8JA,North Yorkshire,Yorkshire and The Humber,53.729001,-1.034833,200,OK
52.522116,-1.999337,B70 9QG,Sandwell,West Midlands,52.52235,-2.000104,200,OK
53.903195,-2.78171,PR3 1FJ,Wyre,North West,53.903195,-2.78171,200,OK
53.622588,-2.291165,BL9 6SA,Bury,North West,53.622128,-2.291159,200,OK
53.534538,-2.617612,WN3 4NF,Wigan,North West,53.534538,-2.617612,200,OK
51.878289,0.883892,CO2 7HT,Colchester,East of England,51.878223,0.883278,200,OK
54.940273,-1.537159,NE10 8DB,Gateshead,North East,54.940273,-1.537159,200,OK
55.882009,-3.506572,EH54 6JJ,West Lothian,,55.882009,-3.506572,200,OK
54.275149,-3.212509,LA20 6HD,Westmorland and Furness,North West,54.275149,-3.212509,200,OK
54.537318,-1.55063,DL1 2HR,Darlington,North East,54.537318,-1.55063,200,OK
51.816008,-2.711975,NP25 3PF,Monmouthshire,,51.816008,-2.711975,200,OK
52.444004,0.605382,IP27 0LF,West Suffolk,East of England,52.444004,0.605382,200,OK
51.898297,-1.014679,HP18 0TZ,Buckinghamshire,South East,51.898297,-1.014679,200,OK
51.728106,-3.065573,NP4 7HJ,Torfaen,,51.728106,-3.065573,200,OK
52.521085,-2.071031,DY1 4SJ,Dudley,West Midlands,52.521157,-2.070958,200,OK
53.153532,-1.211603,NG19 6FG,Mansfield,East Midlands,53.153532,-1.211603,200,OK
53.441138,-2.418471,M44 6BJ,Salford,North West,53.440873,-2.419688,200,OK
53.091301,-2.235958,ST7 4BT,Newcastle-under-Lyme,West Midlands,53.091309,-2.235988,200,OK
51.419717,-3.264583,CF63 1QQ,Vale of Glamorgan,,51.419717,-3.264583,200,OK
51.816594,-0.795483,HP20 1NE,Buckinghamshire,South East,51.816594,-0.795483,200,OK
51.4651,-0.012095,SE13 5FN,Lewisham,London,51.4651,-0.012095,200,OK
52.059856,-1.357019,OX16 0QQ,Cherwell,South East,52.059856,-1.357019,200,OK
50.634409,-1.180617,PO37 7HY,Isle of Wight,South East,50.633995,-1.180596,200,OK
52.640347,-2.400453,TF11 9LL,Shropshire,West Midlands,52.640347,-2.400453,200,OK
50.62312,-3.726227,TQ13 9SE,Teignbridge,South West,50.62312,-3.726227,200,OK
52.470315,-1.918167,B15 1JL,Birmingham,West Midlands,52.470315,-1.918167,200,OK
53.843638,-1.730072,BD10 0RL,Bradford,Yorkshire and The Humber,53.843638,-1.730072,200,OK
51.332317,1.417698,CT11 9HS,Thanet,South East,51.332358,1.417515,200,OK
51.58076,-0.197339,NW11 7TY,Barnet,London,51.58076,-0.197339,200,OK
51.548562,0.642175,SS9 2SU,Southend-on-Sea,East of England,51.548562,0.642175,200,OK
51.606434,-0.667876,HP9 1BW,Buckinghamshire,South East,51.606434,-0.667876,200,OK
53.099154,-1.351419,DE55 2AY,Bolsover,East Midlands,53.099154,-1.351419,200,OK
53.705442,-1.152458,DN14 0TG,North Yorkshire,Yorkshire and The Humber,53.705442,-1.152458,200,OK
51.491085,-3.706833,CF36 3PD,Bridgend,,51.491085,-3.706833,200,OK
53.769048,-3.025941,FY8 3UZ,Fylde,North West,53.769048,-3.025941,200,OK
52.581323,-1.630459,CV9 2SF,North Warwickshire,West Midlands,52.581323,-1.630459,200,OK
52.558111,-1.827084,B72 1QQ,Birmingham,West Midlands,52.558111,-1.827084,200,OK
53.103246,-2.02081,ST13 5LP,Staffordshire Moorlands,West Midlands,53.103246,-2.02081,200,OK
51.423531,0.791528,ME12 2EF,Swale,South East,51.423531,0.791528,200,OK
50.896055,-0.1661,BN45 7EG,Mid Sussex,South East,50.896055,-0.1661,200,OK
53.947355,-1.084453,YO23 1LB,York,Yorkshire and The Humber,53.947364,-1.084446,200,OK
51.417184,-2.570771,BS14 9SG,"Bristol, City of",South West,51.417184,-2.570771,200,OK
50.764368,-3.293866,EX11 1NQ,East Devon,South West,50.764424,-3.293683,200,OK
52.488223,-1.958214,B66 3RU,Sandwell,West Midlands,52.488151,-1.958229,200,OK
51.718036,0.498673,CM2 7HF,Chelmsford,East of England,51.717823,0.498951,200,OK
53.756119,-0.413286,HU5 5PL,"Kingston upon Hull, City of",Yorkshire and The Humber,53.756119,-0.413286,200,OK
51.640604,-3.911856,SA1 7HD,Swansea,,51.640604,-3.911856,200,OK
53.039208,-2.21718,ST5 0AE,Newcastle-under-Lyme,West Midlands,53.039208,-2.21718,200,OK
52.44869,-0.1065,PE26 1HE,Huntingdonshire,East of England,52.448561,-0.106337,200,OK
51.493942,-0.105125,SE11 4ST,Southwark,London,51.493942,-0.105125,200,OK
51.921894,-1.147782,OX27 8TW,Cherwell,South East,51.921894,-1.147782,200,OK
51.70862,-3.061055,NP4 4DF,Torfaen,,51.70862,-3.061055,200,OK
52.413919,-0.735124,NN16 9FT,North Northamptonshire,East Midlands,52.413919,-0.735124,200,OK
52.549659,-2.094192,WV14 9PL,Wolverhampton,West Midlands,52.549659,-2.094192,200,OK
51.152696,-3.305873,TA4 4JX,Somerset,South West,51.152696,-3.305873,200,OK
53.389124,-2.350749,WA14 4DE,Trafford,North West,53.389124,-2.350749,200,OK
51.359331,1.424107,CT10 2JZ,Thanet,South East,51.359331,1.424107,200,OK
54.481158,-6.233103,BT67 0LB,Lisburn and Castlereagh,,54.481158,-6.233103,200,OK
53.474104,-1.489796,S35 4JJ,Sheffield,Yorkshire and The Humber,53.474141,-1.489781,200,OK
51.876634,0.762937,CO6 1NG,Colchester,East of England,51.876634,0.762937,200,OK
53.392247,-2.885982,L16 0JQ,Liverpool,North West,53.391728,-2.885686,200,OK
56.702559,-2.709958,DD9 6SY,Angus,,56.702559,-2.709958,200,OK
51.408204,-2.505544,BS31 2PW,Bath and North East Somerset,South West,51.408204,-2.505544,200,OK
51.27335,0.276919,TN15 9AX,Tonbridge and Malling,South East,51.27335,0.276919,200,OK
51.910997,-2.101758,GL51 7NY,Cheltenham,South West,51.911195,-2.101846,200,OK
51.348741,-0.813891,GU47 8JH,Bracknell Forest,South East,51.348942,-0.814216,200,OK
50.990647,-1.482791,SO51 5BN,Test Valley,South East,50.990647,-1.482791,200,OK
55.89627,-4.260612,G22 7XA,Glasgow City,,55.896345,-4.261099,200,OK
51.667804,-0.464924,WD3 4LS,Three Rivers,East of England,51.667804,-0.464924,200,OK
55.715416,-4.758033,KA24 5HS,North Ayrshire,,55.715416,-4.758033,200,OK
51.445867,-1.287398,RG18 9DH,West Berkshire,South East,51.445912,-1.287369,200,OK
54.38191,-5.74594,BT30 9EH,"Newry, Mourne and Down",,54.382373,-5.747162,200,OK
52.622736,-1.231115,LE9 2HS,Blaby,East Midlands,52.622736,-1.231115,200,OK
54.344247,-7.638099,BT74 7BD,Fermanagh and Omagh,,54.344247,-7.638099,200,OK
52.396036,-1.982107,B31 2UT,Birmingham,West Midlands,52.396036,-1.982107,200,OK
56.490361,-2.97397,DD3 0EX,Dundee City,,56.490361,-2.97397,200,OK
53.172239,0.096383,PE23 5NJ,East Lindsey,East Midlands,53.172239,0.096383,200,OK
51.37289,0.506269,ME1 2LH,Medway,South East,51.37289,0.506269,200,OK
53.84701,-2.998571,FY6 7SA,Wyre,North West,53.84701,-2.998571,200,OK
50.799629,-1.194022,PO13 9ET,Gosport,South East,50.799629,-1.194022,200,OK
54.453952,-6.331017,BT66 8JB,"Armagh City, Banbridge and Craigavon",,54.453952,-6.331017,200,OK
54.970026,-1.397355,NE34 8EH,South Tyneside,North East,54.970026,-1.397355,200,OK
51.395958,0.107604,BR5 2HA,Bromley,London,51.395958,0.107604,200,OK
52.381887,-1.866587,B47 6AQ,Bromsgrove,West Midlands,52.381887,-1.866587,200,OK
51.437878,0.021618,SE12 0QD,Lewisham,London,51.437878,0.021618,200,OK
53.759103,-1.530808,LS10 3UF,Leeds,Yorkshire and The Humber,53.759022,-1.530717,200,OK
55.477102,-4.588552,KA8 9RT,South Ayrshire,,55.477102,-4.588552,200,OK
51.252049,-0.588616,GU2 9PA,Guildford,South East,51.252146,-0.588426,200,OK
52.910287,-1.428008,DE21 7BB,Derby,East Midlands,52.910287,-1.428008,200,OK
53.493432,-1.072643,DN4 7FP,Doncaster,Yorkshire and The Humber,53.493432,-1.072643,200,OK
51.844815,0.534205,CM77 8QP,Braintree,East of England,51.844815,0.534205,200,OK
51.00751,-0.934534,GU32 3HZ,East Hampshire,South East,51.007468,-0.934503,200,OK
53.362508,-1.472527,S2 4HL,Sheffield,Yorkshire and The Humber,53.362059,-1.472818,200,OK
53.377671,-3.116008,CH49 3NB,Wirral,North West,53.377671,-3.116008,200,OK
54.272317,-0.933179,YO62 6BH,North Yorkshire,Yorkshire and The Humber,54.272317,-0.933179,200,OK
53.53101,-2.139252,OL9 7DX,Oldham,North West,53.531019,-2.139146,200,OK
54.40887,-6.359433,BT63 5NL,"Armagh City, Banbridge and Craigavon",,54.40887,-6.359433,200,OK
52.215054,-4.359088,SA45 9NQ,Ceredigion,,52.215054,-4.359088,200,OK
51.517644,-0.102744,EC1A 9LJ,City of London,London,51.517644,-0.102744,200,OK
50.925017,-0.140743,BN6 8DA,Mid Sussex,South East,50.925017,-0.140743,200,OK
51.528824,-2.503896,BS36 1RE,South Gloucestershire,South West,51.528824,-2.503896,200,OK
51.347418,-0.604025,GU24 8LX,Surrey Heath,South East,51.347418,-0.604025,200,OK
51.438042,-0.109483,SW2 3JH,Lambeth,London,51.438042,-0.109483,200,OK
56.371202,-3.848183,PH7 4EL,Perth and Kinross,,56.371202,-3.848183,200,OK
51.607229,-1.253916,OX11 7AJ,South Oxfordshire,South East,51.607229,-1.253916,200,OK
55.608376,-4.480123,KA3 7DB,East Ayrshire,,55.608376,-4.480123,200,OK
51.914765,0.602056,CM77 8BY,Braintree,East of England,51.914765,0.602056,200,OK
54.600421,-5.800227,BT16 1GH,Lisburn and Castlereagh,,54.600617,-5.800108,200,OK
53.169858,-1.888394,SK17 0LD,Staffordshire Moorlands,West Midlands,53.169858,-1.888394,200,OK
53.807654,-1.616139,LS13 2DS,Leeds,Yorkshire and The Humber,53.807183,-1.614853,200,OK
50.476263,-4.713944,PL31 2EY,Cornwall,South West,50.476263,-4.713944,200,OK
51.448834,-0.412684,TW14 9BP,Hounslow,London,51.448749,-0.413011,200,OK
54.547693,-1.54441,DL1 3DG,Darlington,North East,54.547693,-1.54441,200,OK
52.421471,-1.226488,LE17 6RB,Rugby,West Midlands,52.421471,-1.226488,200,OK
53.240631,-0.556945,LN1 1EH,Lincoln,East Midlands,53.240631,-0.556945,200,OK
53.620217,-1.566515,WF4 4LB,Wakefield,Yorkshire and The Humber,53.620217,-1.566515,200,OK
51.362216,-2.386371,BA2 2AF,Bath and North East Somerset,South West,51.362216,-2.386371,200,OK
55.805942,-4.29715,G46 7QQ,East Renfrewshire,,55.805942,-4.29715,200,OK
51.516596,-0.132694,W1T 1US,Westminster,London,51.516596,-0.132694,200,OK
52.971769,-1.310158,DE7 8AA,Erewash,East Midlands,52.971769,-1.310158,200,OK
50.946195,-2.51751,DT9 3LQ,Dorset,South West,50.946314,-2.517511,200,OK
55.008781,-3.722961,DG2 8FA,Dumfries and Galloway,,55.008929,-3.723311,200,OK
54.614974,-1.588672,DL5 7BE,County Durham,North East,54.614974,-1.588672,200,OK
56.214116,-3.054246,KY8 5LQ,Fife,,56.214116,-3.054246,200,OK
54.838755,-4.753008,DG8 0JP,Dumfries and Galloway,,54.839074,-4.752407,200,OK
53.500174,-2.157934,M35 0NX,Oldham,North West,53.500174,-2.157934,200,OK
52.080575,-4.684399,SA43 3HE,Pembrokeshire,,52.080575,-4.684399,200,OK
51.142082,1.288304,CT16 2DY,Dover,South East,51.142082,1.288304,200,OK
56.372047,-3.836722,PH7 3JH,Perth and Kinross,,56.372047,-3.836722,200,OK
52.024042,-0.225122,SG5 4TH,Central Bedfordshire,East of England,52.024072,-0.225384,200,OK
54.44534,-0.678784,,,,,,200,OK
51.443591,0.146895,DA5 1AW,Bexley,London,51.443591,0.146895,200,OK
53.960072,-2.005207,BD23 2LJ,North Yorkshire,Yorkshire and The Humber,53.960072,-2.005207,200,OK
51.579454,-0.187822,NW11 7AU,Barnet,London,51.579454,-0.187822,200,OK
52.997703,-2.155778,ST4 3LZ,Stoke-on-Trent,West Midlands,52.997703,-2.155778,200,OK
52.685721,-3.473402,,,,,,200,OK
53.422516,-2.242635,M20 2NZ,Manchester,North West,53.422308,-2.242875,200,OK
55.728609,-3.81601,ML8 4PQ,South Lanarkshire,,55.72871,-3.815765,200,OK
53.784964,-3.039807,FY4 2LQ,Blackpool,North West,53.784964,-3.039807,200,OK
53.869415,-2.390238,BB7 1AQ,Ribble Valley,North West,53.869415,-2.390238,200,OK
50.719671,-1.879257,BH1 1DU,"Bournemouth, Christchurch and Poole",South West,50.720318,-1.879015,200,OK
52.42275,-1.77369,B91 2LP,Solihull,West Midlands,52.422785,-1.773631,200,OK
51.891451,-0.447331,LU4 8DJ,Luton,East of England,51.891451,-0.447331,200,OK
53.49783,-2.493648,WN7 2TL,Wigan,North West,53.498055,-2.493455,200,OK
53.310507,-1.45247,S18 3BY,North East Derbyshire,East Midlands,53.310507,-1.45247,200,OK
53.850918,-2.878207,PR3 0YN,Wyre,North West,53.850684,-2.877681,200,OK
57.657957,-4.357295,IV16 9UU,Highland,,57.657957,-4.357295,200,OK
51.117118,-0.22596,RH11 0GE,Horsham,South East,51.117118,-0.22596,200,OK
53.131576,-0.093487,PE22 7RP,East Lindsey,East Midlands,53.131576,-0.093487,200,OK
51.832876,-3.010285,NP7 6HN,Monmouthshire,,51.832876,-3.010285,200,OK
52.656643,-1.095678,LE4 9FL,Leicester,East Midlands,52.656513,-1.096272,200,OK
53.44779,-2.366455,M41 5DB,Trafford,North West,53.447556,-2.366423,200,OK
52.045187,-1.786229,GL55 6EN,Cotswold,South West,52.045187,-1.786229,200,OK
55.074007,-3.537684,DG1 4PJ,Dumfries and Galloway,,55.074007,-3.537684,200,OK
51.28849,-1.060134,RG24 8BB,Basingstoke and Deane,South East,51.28849,-1.060134,200,OK
50.982171,-1.356404,SO50 4RD,Eastleigh,South East,50.982171,-1.356404,200,OK
53.396445,-2.231133,SK8 4DA,Stockport,North West,53.396445,-2.231133,200,OK
52.310078,-3.8453,SY25 6BN,Ceredigion,,52.310078,-3.8453,200,OK
50.974164,-1.354374,SO50 9TA,Eastleigh,South East,50.974164,-1.354374,200,OK
52.924825,-1.533446,DE22 4HN,Derby,East Midlands,52.924825,-1.533446,200,OK
54.686789,-1.563609,DL17 8NQ,County Durham,North East,54.686789,-1.563609,200,OK
57.127254,-2.173911,,,,,,200,OK
53.965109,-2.016994,BD23 1UH,North Yorkshire,Yorkshire and The Humber,53.9651,-2.017024,200,OK
54.641722,-3.545959,CA14 3BY,Cumberland,North West,54.641722,-3.545959,200,OK
53.779185,-0.262164,HU8 9SB,"Kingston upon Hull, City of",Yorkshire and The Humber,53.779185,-0.262164,200,OK
50.821865,-0.323679,BN15 8BB,Adur,South East,50.821865,-0.323679,200,OK
51.479367,-3.213862,CF11 8DU,Cardiff,,51.478688,-3.213384,200,OK
53.33988,-3.004854,CH63 9LA,Wirral,North West,53.33988,-3.004854,200,OK
53.666067,-1.524138,WF2 8FA,Wakefield,Yorkshire and The Humber,53.666067,-1.524138,200,OK
54.246884,-1.468857,YO7 4JL,North Yorkshire,Yorkshire and The Humber,54.246884,-1.468857,200,OK
55.937404,-3.236596,EH11 2PS,City of Edinburgh,,55.937404,-3.236596,200,OK
53.564363,-2.785865,WN8 6SZ,West Lancashire,North West,53.564363,-2.785865,200,OK
52.807312,-1.558736,DE15 0RD,South Derbyshire,East Midlands,52.807312,-1.558736,200,OK
51.385147,-0.416397,KT12 2RG,Elmbridge,South East,51.385147,-0.416397,200,OK
51.620805,-0.018903,E4 8DL,Waltham Forest,London,51.620805,-0.018903,200,OK
51.607301,0.546027,SS11 8RD,Basildon,East of England,51.607229,0.545618,200,OK
51.658413,-0.399965,WD17 1LN,Watford,East of England,51.658409,-0.399942,200,OK
51.57155,0.475563,SS14 1QB,Basildon,East of England,51.57155,0.475563,200,OK
51.457454,-0.476121,TW19 7HD,Spelthorne,South East,51.457454,-0.476121,200,OK
53.484214,-2.321771,M5 5AP,Salford,North West,53.484214,-2.321771,200,OK
51.066599,-0.405655,RH13 0SJ,Horsham,South East,51.066599,-0.405655,200,OK
52.525844,-1.375149,LE10 3HT,Hinckley and Bosworth,East Midlands,52.525844,-1.375149,200,OK
51.582828,0.054403,IG4 5NF,Redbridge,London,51.582828,0.054403,200,OK
51.552766,-0.086918,N16 9ND,Hackney,London,51.552766,-0.086918,200,OK
53.64967,-2.322516,BL0 9EG,Bury,North West,53.649668,-2.322454,200,OK
50.907778,-1.308229,SO30 0DP,Eastleigh,South East,50.907805,-1.308175,200,OK
53.598394,-2.558661,BL6 7QW,Bolton,North West,53.598394,-2.558661,200,OK
51.077723,-0.292908,RH12 4HS,Horsham,South East,51.077723,-0.292908,200,OK
55.967297,-3.166719,EH6 8JQ,City of Edinburgh,,55.967297,-3.166719,200,OK
52.81721,-2.122889,ST16 2RS,Stafford,West Midlands,52.81729,-2.123483,200,OK
52.070721,-0.608383,MK43 0HX,Central Bedfordshire,East of England,52.070721,-0.608383,200,OK
53.961478,-1.082437,YO1 7HW,York,Yorkshire and The Humber,53.961587,-1.082602,200,OK
55.91811,-4.322396,G61 2EL,East Dunbartonshire,,55.91811,-4.322396,200,OK
53.916934,-2.18385,BB18 6AT,Pendle,North West,53.916952,-2.183865,200,OK
50.859431,0.255685,BN27 3HZ,Wealden,South East,50.859431,0.255685,200,OK
55.756484,-4.232306,G75 8ST,South Lanarkshire,,55.756484,-4.232306,200,OK
51.822536,-0.375221,AL5 3ET,St Albans,East of England,51.822536,-0.375221,200,OK
54.204078,-6.727621,BT60 3HT,"Armagh City, Banbridge and Craigavon",,54.204078,-6.727621,200,OK
51.294174,0.465788,ME20 7QJ,Tonbridge and Malling,South East,51.294174,0.465788,200,OK
53.820855,-1.459195,LS14 6NX,Leeds,Yorkshire and The Humber,53.820604,-1.459168,200,OK
53.450616,-2.258651,M16 8GY,Manchester,North West,53.450616,-2.258651,200,OK
51.883439,-1.756443,GL54 2WP,Cotswold,South West,51.883439,-1.756443,200,OK
51.362394,-2.922534,BS22 6PL,North Somerset,South West,51.362391,-2.922525,200,OK
58.413779,-6.437781,HS2 0RT,Na h-Eileanan Siar,,58.413779,-6.437781,200,OK
53.15071,-1.573304,DE4 2QJ,Derbyshire Dales,East Midlands,53.15071,-1.573304,200,OK
52.500806,-2.134024,DY5 4RH,Dudley,West Midlands,52.500883,-2.134592,200,OK
51.460066,-2.59045,BS1 3LL,"Bristol, City of",South West,51.460066,-2.59045,200,OK
55.965339,-3.174174,EH6 8NZ,City of Edinburgh,,55.965601,-3.17407,200,OK
52.463761,-0.728428,NN18 8JU,North Northamptonshire,East Midlands,52.463745,-0.728442,200,OK
53.038996,-2.215434,ST5 0AL,Newcastle-under-Lyme,West Midlands,53.039068,-2.215479,200,OK
57.149479,-2.301326,AB32 6HY,Aberdeenshire,,57.149479,-2.301326,200,OK
53.576008,-1.770123,HD9 1QG,Kirklees,Yorkshire and The Humber,53.576008,-1.770123,200,OK
53.422093,-2.837019,L36 7YU,Knowsley,North West,53.422093,-2.837019,200,OK
51.455004,-0.860492,RG10 0SG,Wokingham,South East,51.455004,-0.860492,200,OK
50.685458,-1.08919,PO35 5UW,Isle of Wight,South East,50.685458,-1.08919,200,OK
53.754904,-2.694809,PR1 3RZ,Preston,North West,53.754904,-2.694809,200,OK
51.660644,-4.063985,SA4 6JE,Swansea,,51.660644,-4.063985,200,OK
56.239256,-3.403525,KY13 0SB,Perth and Kinross,,56.239256,-3.403525,200,OK
53.08047,-2.248961,ST7 1BQ,Newcastle-under-Lyme,West Midlands,53.08047,-2.248961,200,OK
53.688866,-1.286019,WF8 2HH,Wakefield,Yorkshire and The Humber,53.688866,-1.286019,200,OK
51.466976,-2.822488,BS21 7AY,North Somerset,South West,51.466976,-2.822488,200,OK
51.986822,-0.18491,SG7 6AY,North Hertfordshire,East of England,51.986822,-0.18491,200,OK
51.461537,-0.377637,TW4 5HJ,Hounslow,London,51.461537,-0.377637,200,OK
51.442021,-2.268225,SN14 8HT,Wiltshire,South West,51.442021,-2.268225,200,OK
53.274183,-1.348308,S43 9AZ,Chesterfield,East Midlands,53.274183,-1.348308,200,OK
53.097214,-2.429416,CW1 6BB,Cheshire East,North West,53.09733,-2.429164,200,OK
55.853606,-4.011733,ML5 4SF,North Lanarkshire,,55.853606,-4.011733,200,OK
53.055382,0.167985,,,,,,200,OK
50.98054,-1.370853,SO53 2LW,Eastleigh,South East,50.980504,-1.370729,200,OK
56.461861,-2.994548,DD1 5PT,Dundee City,,56.461861,-2.994548,200,OK
55.862881,-3.993499,ML6 9AW,North Lanarkshire,,55.862881,-3.993499,200,OK
52.906945,-1.483471,DE23 6NA,Derby,East Midlands,52.906909,-1.483364,200,OK
51.45066,-2.486989,BS30 8HU,South Gloucestershire,South West,51.450687,-2.487018,200,OK
53.144629,-2.362657,CW11 1AX,Cheshire East,North West,53.144349,-2.362983,200,OK
50.912292,-1.393934,SO14 0DU,Southampton,South East,50.912292,-1.393934,200,OK
52.75521,-0.899102,LE13 0ES,Melton,East Midlands,52.75521,-0.899102,200,OK
52.523833,-1.54298,CV10 9NW,Nuneaton and Bedworth,West Midlands,52.523833,-1.54298,200,OK
51.946176,-2.066223,GL52 8TN,Tewkesbury,South West,51.946176,-2.066223,200,OK
53.589089,-1.282036,WF9 2WN,Wakefield,Yorkshire and The Humber,53.589089,-1.282036,200,OK
53.124627,-1.559321,DE4 3PT,Derbyshire Dales,East Midlands,53.124627,-1.559321,200,OK
53.775538,-1.077412,YO8 9BL,North Yorkshire,Yorkshire and The Humber,53.775538,-1.077412,200,OK
55.808466,-4.177255,G72 8LU,South Lanarkshire,,55.808329,-4.177122,200,OK
53.474867,-2.586311,WA3 3JU,Wigan,North West,53.474867,-2.586311,200,OK
51.484876,0.145996,DA17 5ED,Bexley,London,51.484876,0.145996,200,OK
51.393573,-2.83435,BS49 4RE,North Somerset,South West,51.393454,-2.834636,200,OK
53.601833,-2.405537,BL2 3DL,Bolton,North West,53.601833,-2.405537,200,OK
55.98735,-3.746678,FK2 9FA,Falkirk,,55.987335,-3.746453,200,OK
50.802219,-1.075158,PO1 5HW,Portsmouth,South East,50.802219,-1.075158,200,OK
50.239148,-3.777246,TQ8 8FP,South Hams,South West,50.239148,-3.777246,200,OK
51.069519,-1.810487,SP2 7NQ,Wiltshire,South West,51.069519,-1.810487,200,OK
54.949913,-1.726402,NE21 6PX,Gateshead,North East,54.949913,-1.726402,200,OK
51.943995,-2.883041,HR2 0UA,"Herefordshire, County of",West Midlands,51.943924,-2.882865,200,OK
52.047825,-4.40388,SA44 5TS,Ceredigion,,52.047825,-4.40388,200,OK
51.437863,-0.307802,TW10 7JJ,Richmond upon Thames,London,51.437863,-0.307802,200,OK
52.989034,-1.317406,DE7 8QN,Erewash,East Midlands,52.989034,-1.317406,200,OK
51.594566,-0.026441,E17 5YD,Waltham Forest,London,51.594887,-0.026268,200,OK
50.2857,-3.776173,TQ7 1RZ,South Hams,South West,50.2857,-3.776173,200,OK
51.789063,-2.157489,GL6 7RE,Stroud,South West,51.789063,-2.157489,200,OK
51.614389,-0.24581,NW7 2LW,Barnet,London,51.614389,-0.24581,200,OK
51.512262,-0.066722,E1 1AB,Tower Hamlets,London,51.512262,-0.066722,200,OK
53.796944,-1.547374,LS1 2ES,Leeds,Yorkshire and The Humber,53.797014,-1.547408,200,OK
52.752262,0.417004,PE30 4QG,King's Lynn and West Norfolk,East of England,52.752262,0.417004,200,OK
52.414329,-1.930187,B30 3FH,Birmingham,West Midlands,52.414329,-1.930187,200,OK
53.319182,-2.981715,CH62 6ER,Wirral,North West,53.319183,-2.982616,200,OK
51.28934,-2.484706,BA3 2EN,Bath and North East Somerset,South West,51.28934,-2.484706,200,OK
53.691562,-2.210457,OL13 0EA,Rossendale,North West,53.691273,-2.2095,200,OK
54.611926,-5.96845,BT13 3LQ,Belfast,,54.611926,-5.96845,200,OK
52.575239,-1.520681,CV9 3LT,Hinckley and Bosworth,East Midlands,52.575239,-1.520681,200,OK
53.22953,-1.453174,S40 2DD,Chesterfield,East Midlands,53.22953,-1.453174,200,OK
52.370382,-1.469921,CV3 4FZ,Warwick,West Midlands,52.370382,-1.469921,200,OK
55.849827,-4.196902,G31 4TF,Glasgow City,,55.85001,-4.196736,200,OK
52.442287,-4.028048,SY24 5AR,Ceredigion,,52.442287,-4.028048,200,OK
55.211377,-1.728511,NE61 3DN,Northumberland,North East,55.211377,-1.728511,200,OK
54.88257,-1.714653,DH9 9NW,County Durham,North East,54.88257,-1.714653,200,OK
51.753203,0.091973,CM18 7PJ,Harlow,East of England,51.753203,0.091973,200,OK
52.082274,-2.333212,WR14 4LQ,Malvern Hills,West Midlands,52.082274,-2.333212,200,OK
55.236167,-4.846617,KA26 0EL,South Ayrshire,,55.236167,-4.846617,200,OK
51.284909,-0.382907,KT23 3HH,Mole Valley,South East,51.284909,-0.382907,200,OK
53.571794,-1.378325,S72 7NB,Barnsley,Yorkshire and The Humber,53.571794,-1.378325,200,OK
54.60919,-5.949562,BT13 1LR,Belfast,,54.609161,-5.949455,200,OK
53.787884,-1.526404,LS9 8FA,Leeds,Yorkshire and The Humber,53.788399,-1.525279,200,OK
51.529564,-0.346098,UB6 8RZ,Ealing,London,51.529564,-0.346098,200,OK
51.438162,-2.058073,SN11 9QY,Wiltshire,South West,51.438162,-2.058073,200,OK
52.671766,-1.122237,LE4 4BZ,Charnwood,East Midlands,52.671766,-1.122237,200,OK
53.43245,-2.58076,WA2 0RH,Warrington,North West,53.43245,-2.58076,200,OK
53.760138,-3.007081,FY8 3RW,Fylde,North West,53.760138,-3.007081,200,OK
52.916264,-0.65141,NG31 8AB,South Kesteven,East Midlands,52.916264,-0.65141,200,OK
51.770772,0.077928,CM20 1SG,Harlow,East of England,51.770772,0.077928,200,OK
54.939964,-2.976152,CA6 4HE,Cumberland,North West,54.940135,-2.97728,200,OK
53.778379,-1.708123,BD4 0DP,Bradford,Yorkshire and The Humber,53.778379,-1.708123,200,OK
50.388883,-3.801677,TQ10 9NL,South Hams,South West,50.388883,-3.801677,200,OK
55.04513,-6.94846,BT49 9AS,Causeway Coast and Glens,,55.04513,-6.94846,200,OK
52.363065,-1.236894,CV22 5BD,Rugby,West Midlands,52.363065,-1.236894,200,OK
51.481188,-1.23204,RG18 0TG,West Berkshire,South East,51.481214,-1.23201,200,OK
54.55697,-5.993553,BT10 0NA,Belfast,,54.55697,-5.993553,200,OK
53.403712,-3.133161,CH46 6FD,Wirral,North West,53.403712,-3.133161,200,OK
51.735837,0.693819,CM9 4PP,Maldon,East of England,51.735837,0.693819,200,OK
53.778851,-0.26579,HU8 9RP,"Kingston upon Hull, City of",Yorkshire and The Humber,53.778851,-0.26579,200,OK
51.543791,-0.236888,NW10 2HG,Brent,London,51.543791,-0.236888,200,OK
55.695981,-3.689853,ML11 8QF,South Lanarkshire,,55.696069,-3.690016,200,OK
52.1873,-1.717459,CV37 9AR,Stratford-on-Avon,West Midlands,52.1873,-1.717459,200,OK
57.564697,-4.034882,IV2 7SN,Highland,,57.564715,-4.034883,200,OK
53.986246,-1.070332,YO31 9JS,York,Yorkshire and The Humber,53.986246,-1.070332,200,OK
52.992006,-1.319803,DE7 8QB,Erewash,East Midlands,52.992006,-1.319803,200,OK
50.872418,-2.964117,TA20 1PP,Somerset,South West,50.872927,-2.964516,200,OK
55.086748,-1.589519,NE23 6UU,Northumberland,North East,55.086578,-1.58974,200,OK
51.464503,-2.596784,BS6 6DN,"Bristol, City of",South West,51.464503,-2.596784,200,OK
51.637244,-3.118049,NP11 7EX,Caerphilly,,51.637244,-3.118049,200,OK
55.979104,-3.625275,EH49 7QT,West Lothian,,55.979104,-3.625275,200,OK
51.004758,-2.200829,SP7 8BH,Dorset,South West,51.004785,-2.200886,200,OK
51.701814,-0.913229,OX39 4RA,South Oxfordshire,South East,51.702329,-0.913434,200,OK
51.568795,-0.092739,N4 2ZF,Hackney,London,51.568828,-0.093618,200,OK
52.448731,0.640778,IP27 0UH,West Suffolk,East of England,52.448731,0.640778,200,OK
50.733552,-2.024447,BH16 5SZ,Dorset,South West,50.733552,-2.024447,200,OK
50.54191,-2.443313,DT5 2JZ,Dorset,South West,50.54191,-2.443313,200,OK
52.575605,-1.002475,LE8 9DE,Harborough,East Midlands,52.575605,-1.002475,200,OK
51.802769,-4.966465,SA61 2LX,Pembrokeshire,,51.802769,-4.966465,200,OK
53.423905,-2.230876,M20 3QU,Manchester,North West,53.423905,-2.230876,200,OK
53.159249,-0.425721,LN4 2FN,North Kesteven,East Midlands,53.159249,-0.425721,200,OK
52.546416,-2.07854,WV14 8YE,Dudley,West Midlands,52.546459,-2.078726,200,OK
55.040548,-1.457951,NE25 8BA,North Tyneside,North East,55.040548,-1.457951,200,OK
52.471342,-1.861974,B10 0UF,Birmingham,West Midlands,52.471342,-1.861974,200,OK
52.226956,0.93808,IP14 3NN,Mid Suffolk,East of England,52.226956,0.93808,200,OK
52.335609,1.501066,IP19 8DZ,East Suffolk,East of England,52.335609,1.501066,200,OK
52.438769,-0.276215,PE28 5ZJ,Huntingdonshire,East of England,52.438769,-0.276215,200,OK
54.980595,-1.632117,NE2 4NQ,Newcastle upon Tyne,North East,54.980595,-1.632117,200,OK
51.519392,-0.145135,W1B 1PY,Westminster,London,51.519392,-0.145135,200,OK
53.050376,-2.184014,ST6 1HF,Stoke-on-Trent,West Midlands,53.050376,-2.184014,200,OK
55.861806,-4.20552,G31 3ND,Glasgow City,,55.861806,-4.20552,200,OK
51.710172,-0.03444,EN8 0AJ,Broxbourne,East of England,51.710172,-0.03444,200,OK
51.508713,-0.200213,W11 3LF,Kensington and Chelsea,London,51.508415,-0.200153,200,OK
53.804766,-1.764607,BD8 7HB,Bradford,Yorkshire and The Humber,53.804802,-1.764941,200,OK
55.851958,-4.228336,G40 2BS,Glasgow City,,55.852021,-4.228324,200,OK
53.715691,-2.644584,PR5 8DX,Chorley,North West,53.715691,-2.644584,200,OK
54.062144,-2.810725,LA1 2PA,Lancaster,North West,54.062144,-2.810725,200,OK
53.074159,-3.019478,LL11 4AT,Wrexham,,53.074159,-3.019478,200,OK
57.159663,-2.220667,AB15 8GE,Aberdeen City,,57.159663,-2.220667,200,OK
51.198366,-0.605328,GU7 3LU,Waverley,South East,51.19834,-0.605343,200,OK
55.132688,-6.672658,BT52 1BW,Causeway Coast and Glens,,55.133038,-6.672599,200,OK
53.347092,-3.104123,CH61 8TE,Wirral,North West,53.347092,-3.104123,200,OK
53.728409,-2.791499,PR4 5BE,South Ribble,North West,53.728409,-2.791499,200,OK
52.590409,-1.037913,LE2 4QW,Harborough,East Midlands,52.590409,-1.037913,200,OK
54.981496,-1.624747,NE2 4BT,Newcastle upon Tyne,North East,54.981622,-1.624621,200,OK
53.37442,-2.859262,L25 8TP,Liverpool,North West,53.37442,-2.859262,200,OK
51.960617,-0.263372,SG4 0BA,North Hertfordshire,East of England,51.960617,-0.263372,200,OK
50.758106,-1.567988,SO41 8ET,New Forest,South East,50.758106,-1.567988,200,OK
54.731851,-1.344288,TS27 4TJ,County Durham,North East,54.731681,-1.342864,200,OK
51.18547,0.871613,TN26 1JE,Ashford,South East,51.185462,0.871584,200,OK
51.834427,-1.347201,OX20 1XA,West Oxfordshire,South East,51.834427,-1.347201,200,OK
53.763963,-0.347131,HU5 1NY,"Kingston upon Hull, City of",Yorkshire and The Humber,53.763963,-0.347131,200,OK
54.036178,-2.903867,LA3 2XW,Lancaster,North West,54.036205,-2.903852,200,OK
53.56887,-2.786401,L40 6JJ,West Lancashire,North West,53.56887,-2.786401,200,OK
55.945443,-4.774425,PA16 9AE,Inverclyde,,55.945409,-4.774404,200,OK
53.338141,-2.971637,CH62 3QZ,Wirral,North West,53.338505,-2.972231,200,OK
54.865746,-1.69564,DH9 6HS,County Durham,North East,54.865746,-1.69564,200,OK
52.472561,-2.051717,B64 6RU,Sandwell,West Midlands,52.472561,-2.051717,200,OK
52.608455,-2.088538,WV11 1LE,Wolverhampton,West Midlands,52.608455,-2.088538,200,OK
53.335171,-3.004608,CH63 9LP,Wirral,North West,53.33451,-3.004217,200,OK
53.037425,-1.096353,NG14 6QH,Gedling,East Midlands,53.037425,-1.096353,200,OK
51.540975,-0.31383,UB6 7EX,Ealing,London,51.540975,-0.31383,200,OK
55.134039,-1.608028,NE22 6ER,Northumberland,North East,55.134039,-1.608028,200,OK
52.367697,-1.280037,CV22 7NX,Rugby,West Midlands,52.367697,-1.280037,200,OK
54.988036,-1.603419,NE2 1JQ,Newcastle upon Tyne,North East,54.988025,-1.603652,200,OK
51.875612,0.874581,CO2 9AJ,Colchester,East of England,51.875612,0.874581,200,OK
54.634711,-5.832203,BT18 9EU,Ards and North Down,,54.634711,-5.832203,200,OK
54.42482,-6.46482,BT62 4AR,"Armagh City, Banbridge and Craigavon",,54.42482,-6.46482,200,OK
51.623063,-1.328541,OX13 6FG,Vale of White Horse,South East,51.623063,-1.328541,200,OK
53.460024,-2.109289,M34 3BS,Tameside,North West,53.460024,-2.109289,200,OK
52.256186,-0.972238,NN7 4UR,West Northamptonshire,East Midlands,52.256168,-0.972253,200,OK
54.881904,-1.692073,DH9 9XA,County Durham,North East,54.881483,-1.692809,200,OK
51.409703,0.309673,DA13 9NE,Dartford,South East,51.409703,0.309673,200,OK
51.509091,-3.208888,CF14 1HB,Cardiff,,51.508766,-3.209096,200,OK
51.276123,-0.051603,CR3 7YA,Tandridge,South East,51.276323,-0.051738,200,OK
50.926595,-1.336938,SO30 3BB,Eastleigh,South East,50.926595,-1.336938,200,OK
55.860561,-4.250117,G1 1GA,Glasgow City,,55.86042,-4.250267,200,OK
53.400212,-3.167075,CH47 5BG,Wirral,North West,53.40034,-3.166838,200,OK
52.456651,-2.002899,B32 1QU,Birmingham,West Midlands,52.456552,-2.003473,200,OK
51.43202,-0.070471,SE26 6TW,Lewisham,London,51.43202,-0.070471,200,OK
50.996384,-1.367518,SO53 5DW,Eastleigh,South East,50.996377,-1.367507,200,OK
54.972615,-1.498608,NE31 2XQ,South Tyneside,North East,54.972695,-1.498683,200,OK
50.856842,-1.409229,SO45 4BY,New Forest,South East,50.856788,-1.409273,200,OK
52.393839,-0.683158,NN15 5LL,North Northamptonshire,East Midlands,52.393839,-0.683158,200,OK
51.616961,-2.523821,BS35 1LA,South Gloucestershire,South West,51.617006,-2.523692,200,OK
53.40536,-2.995732,L3 1EG,Liverpool,North West,53.405201,-2.995277,200,OK
53.368842,-3.06101,CH43 3ES,Wirral,North West,53.369113,-3.060625,200,OK
52.468243,-1.926046,B15 3TN,Birmingham,West Midlands,52.468243,-1.926046,200,OK
52.133451,-4.403038,SA44 6HR,Ceredigion,,52.133451,-4.403038,200,OK
53.620969,-2.426236,BL7 9NY,Bolton,North West,53.621107,-2.42533,200,OK
52.585198,-2.045711,WV13 2HZ,Walsall,West Midlands,52.585036,-2.045548,200,OK
53.781461,-2.204609,BB10 4JF,Burnley,North West,53.781461,-2.204609,200,OK
51.623137,-0.128136,N14 7EY,Enfield,London,51.622997,-0.128723,200,OK
54.623234,-1.763861,DL14 9RJ,County Durham,North East,54.623234,-1.763861,200,OK
51.05259,-2.734285,TA11 6TH,Somerset,South West,51.05259,-2.734285,200,OK
52.151937,-0.702059,MK46 4AA,Milton Keynes,South East,52.151971,-0.701927,200,OK
53.819196,-3.054721,FY1 1LE,Blackpool,North West,53.819196,-3.054721,200,OK
53.922791,-1.796942,LS29 8SD,Bradford,Yorkshire and The Humber,53.922791,-1.796942,200,OK
50.700725,-1.270371,PO30 2NF,Isle of Wight,South East,50.700708,-1.270815,200,OK
53.056212,-0.794895,NG24 3EJ,Newark and Sherwood,East Midlands,53.056212,-0.794895,200,OK
52.964101,-1.130488,NG3 3NF,Nottingham,East Midlands,52.964101,-1.130488,200,OK
51.396462,0.055414,BR1 2XD,Bromley,London,51.396462,0.055414,200,OK
54.582116,-5.926776,BT7 1GB,Belfast,,54.582116,-5.926776,200,OK
51.250065,-0.531117,GU4 7PJ,Guildford,South East,51.250065,-0.531117,200,OK
55.03414,-1.499859,NE27 0LQ,North Tyneside,North East,55.03414,-1.499859,200,OK
53.576939,-2.138721,OL2 5UX,Oldham,North West,53.577191,-2.138239,200,OK
51.922734,-4.939608,SA62 5TD,Pembrokeshire,,51.922734,-4.939608,200,OK
55.825007,-4.118867,G72 6QF,South Lanarkshire,,55.825007,-4.118867,200,OK
53.815269,-1.633825,LS13 2EG,Leeds,Yorkshire and The Humber,53.815269,-1.633825,200,OK
51.62303,-0.044883,N9 0FX,Enfield,London,51.62303,-0.044883,200,OK
52.636628,-1.663507,B77 3QJ,Tamworth,West Midlands,52.636628,-1.663507,200,OK
52.65846,-3.143933,SY21 7AN,Powys,,52.65846,-3.143933,200,OK
53.395074,-2.208552,SK8 2AF,Stockport,North West,53.395029,-2.208627,200,OK
51.56511,-0.395249,HA4 0NW,Hillingdon,London,51.56511,-0.395249,200,OK
51.475382,-0.447762,,,,,,200,OK
53.292229,-3.72555,LL29 7UA,Conwy,,53.292229,-3.72555,200,OK
51.066814,1.076562,CT21 6HT,Folkestone and Hythe,South East,51.066814,1.076562,200,OK
54.594452,-5.699564,BT23 4AD,Ards and North Down,,54.59482,-5.700023,200,OK
51.554616,0.656823,SS9 3BU,Southend-on-Sea,East of England,51.554616,0.656823,200,OK
54.092937,-0.180065,YO15 2LL,East Riding of Yorkshire,Yorkshire and The Humber,54.092937,-0.180065,200,OK
55.077867,-6.752809,BT51 4PT,Causeway Coast and Glens,,55.077867,-6.752809,200,OK
51.347956,-2.976096,BS23 1RG,North Somerset,South West,51.347956,-2.976096,200,OK
51.860385,0.143852,CM23 4HT,East Hertfordshire,East of England,51.86107,0.144756,200,OK
54.716496,-1.745686,DL15 9EE,County Durham,North East,54.716496,-1.745686,200,OK
52.37435,-2.324758,DY12 2PD,Wyre Forest,West Midlands,52.37435,-2.324758,200,OK
51.478505,-2.526956,BS16 0EH,"Bristol, City of",South West,51.478504,-2.526957,200,OK
50.234384,-5.22529,TR15 1BH,Cornwall,South West,50.234318,-5.225405,200,OK
55.773129,-4.349863,G77 6YT,East Renfrewshire,,55.773129,-4.349863,200,OK
54.978803,-4.4769,DG8 6AE,Dumfries and Galloway,,54.978758,-4.476884,200,OK
51.78843,-2.221393,GL6 6PG,Stroud,South West,51.78843,-2.221393,200,OK
52.173516,-1.849004,B50 4JF,Stratford-on-Avon,West Midlands,52.173516,-1.849004,200,OK
51.416663,-0.247565,SW20 0SR,Merton,London,51.416681,-0.247541,200,OK
51.569958,-0.01602,E10 5RU,Waltham Forest,London,51.569958,-0.01602,200,OK
51.851735,-2.216579,GL4 4NP,Gloucester,South West,51.851753,-2.216594,200,OK
50.836163,-0.787095,PO19 3DQ,Chichester,South East,50.836008,-0.786952,200,OK
51.579357,-0.18211,NW11 6UH,Barnet,London,51.579357,-0.18211,200,OK
51.972819,-3.398345,LD3 9TS,Powys,,51.972819,-3.398345,200,OK
52.905635,-1.377075,DE72 3FN,Erewash,East Midlands,52.905552,-1.376701,200,OK
52.993753,-2.216103,ST5 3BY,Newcastle-under-Lyme,West Midlands,52.993753,-2.216103,200,OK
51.39191,-0.529641,KT16 9NU,Runnymede,South East,51.392769,-0.529307,200,OK
51.22561,-0.997614,RG25 2RU,Basingstoke and Deane,South East,51.22561,-0.997614,200,OK
50.754111,-1.619067,SO41 0YQ,New Forest,South East,50.754111,-1.619067,200,OK
51.458345,-1.039926,RG31 5AT,Reading,South East,51.458389,-1.03981,200,OK
51.481883,-0.642753,SL4 5QE,Windsor and Maidenhead,South East,51.481883,-0.642753,200,OK
51.590998,-2.990141,NP19 0AH,Newport,,51.590998,-2.990141,200,OK
51.949966,-0.274804,SG5 1QX,North Hertfordshire,East of England,51.949966,-0.274804,200,OK
53.875606,-2.957195,FY6 9AQ,Wyre,North West,53.875606,-2.957195,200,OK
52.861114,-2.418495,TF9 2NZ,Shropshire,West Midlands,52.861114,-2.418495,200,OK
51.508962,-0.686518,SL6 0EE,Buckinghamshire,South East,51.508962,-0.686518,200,OK
53.962869,-1.078626,YO31 7PD,York,Yorkshire and The Humber,53.962932,-1.07864,200,OK
53.523263,-1.138691,DN1 1LA,Doncaster,Yorkshire and The Humber,53.523263,-1.138392,200,OK
53.461661,-1.971013,SK13 1NS,High Peak,East Midlands,53.461661,-1.971013,200,OK
50.37413,-4.180523,PL1 4NL,Plymouth,South West,50.373767,-4.181139,200,OK
51.093356,-3.198256,TA4 3EN,Somerset,South West,51.093356,-3.198256,200,OK
51.510625,-0.127635,WC2N 4EZ,Westminster,London,51.510625,-0.127635,200,OK
55.006885,-1.457842,NE29 0EB,North Tyneside,North East,55.006885,-1.457842,200,OK
51.463736,-0.063864,SE15 3PG,Southwark,London,51.463619,-0.063786,200,OK
55.771976,-4.172764,G74 4DU,South Lanarkshire,,55.771976,-4.172764,200,OK
51.607622,-2.521346,BS35 2EG,South Gloucestershire,South West,51.607622,-2.521346,200,OK
50.470329,-3.788481,TQ11 0LS,South Hams,South West,50.470329,-3.788481,200,OK
51.472185,-0.241666,SW13 0EB,Richmond upon Thames,London,51.472185,-0.241666,200,OK
51.285795,-0.825379,GU51 3BA,Hart,South East,51.285795,-0.825379,200,OK
55.861456,-4.26089,G2 5NW,Glasgow City,,55.861671,-4.260649,200,OK
53.138954,-3.797414,LL26 0LL,Conwy,,53.138974,-3.797295,200,OK
55.130279,-6.559462,BT53 6QP,Causeway Coast and Glens,,55.130279,-6.559462,200,OK
53.441608,-1.472587,S35 9YY,Sheffield,Yorkshire and The Humber,53.441634,-1.472421,200,OK
54.606297,-1.105338,TS10 5QA,Redcar and Cleveland,North East,54.606297,-1.105338,200,OK
55.971986,-3.178527,EH6 5JL,City of Edinburgh,,55.97184,-3.177882,200,OK
51.09837,-1.295822,SO23 7FL,Winchester,South East,51.09837,-1.295822,200,OK
51.180296,-2.192241,BA12 8AP,Wiltshire,South West,51.180296,-2.192241,200,OK
52.5152,-2.051797,DY4 7TL,Sandwell,West Midlands,52.5152,-2.051797,200,OK
54.961098,-1.639213,NE4 7YJ,Newcastle upon Tyne,North East,54.961206,-1.639896,200,OK
54.555602,-1.178333,TS3 0RB,Middlesbrough,North East,54.555602,-1.178333,200,OK
56.406268,-3.455386,PH1 2TA,Perth and Kinross,,56.406666,-3.455109,200,OK
53.303696,-3.516853,LL18 5FH,Conwy,,53.303696,-3.516853,200,OK
56.314063,-2.994731,KY15 5SU,Fife,,56.313881,-2.995017,200,OK
51.459601,-0.410871,TW14 0LG,Hounslow,London,51.459459,-0.411725,200,OK
50.388761,-4.118364,PL3 6JU,Plymouth,South West,50.388761,-4.118364,200,OK
53.864168,-0.666004,YO43 3AA,East Riding of Yorkshire,Yorkshire and The Humber,53.864187,-0.665996,200,OK
51.859262,1.172967,CO16 0EU,Tendring,East of England,51.859096,1.173478,200,OK
53.588987,-1.204855,DN6 8NR,Doncaster,Yorkshire and The Humber,53.588987,-1.204855,200,OK
55.731045,-3.67745,,,,,,200,OK
51.49193,-0.552729,SL3 7GG,Slough,South East,51.49193,-0.552729,200,OK
52.986943,-0.535524,NG32 3QT,South Kesteven,East Midlands,52.986943,-0.535524,200,OK
52.569638,-1.957421,WS5 3NF,Walsall,West Midlands,52.569638,-1.957421,200,OK
57.422624,-1.885115,,,,,,200,OK
51.57373,-0.12907,N19 3UG,Islington,London,51.57373,-0.12907,200,OK
55.946715,-3.25108,EH12 6JA,City of Edinburgh,,55.946156,-3.251254,200,OK
51.668992,-0.409556,WD17 4YJ,Watford,East of England,51.668992,-0.409556,200,OK
55.978907,-3.949858,G68 0HB,North Lanarkshire,,55.978907,-3.949858,200,OK
52.330373,1.67968,IP18 6BS,East Suffolk,East of England,52.330373,1.67968,200,OK
51.402478,0.166277,BR8 7XF,Sevenoaks,South East,51.402478,0.166277,200,OK
56.959581,-2.225286,AB39 2GP,Aberdeenshire,,56.959581,-2.225286,200,OK
56.316092,-3.028973,KY15 5DR,Fife,,56.316092,-3.028973,200,OK
55.891526,-3.052216,EH22 2ET,Midlothian,,55.8915,-3.05212,200,OK
53.638116,-2.178459,OL12 7JA,Rochdale,North West,53.638116,-2.178459,200,OK
52.070999,-1.609301,CV36 5AD,Stratford-on-Avon,West Midlands,52.070999,-1.609301,200,OK
50.478811,-3.570349,TQ2 7RG,Torbay,South West,50.478811,-3.570349,200,OK
57.235332,-2.345528,AB51 0UX,Aberdeenshire,,57.235332,-2.345528,200,OK
51.754549,-4.796565,SA68 0NY,Pembrokeshire,,51.754549,-4.796565,200,OK
51.256155,-0.534893,GU4 7BD,Guildford,South East,51.256155,-0.534893,200,OK
54.99879,-7.323088,BT48 7BD,Derry City and Strabane,,54.99879,-7.323088,200,OK
53.847614,-2.991867,FY6 7BA,Wyre,North West,53.847614,-2.991867,200,OK
51.489774,-2.602846,BS9 4RL,"Bristol, City of",South West,51.489774,-2.602846,200,OK
55.613732,-4.475284,KA3 7LX,East Ayrshire,,55.613732,-4.475284,200,OK
54.976206,-1.585959,NE6 1PG,Newcastle upon Tyne,North East,54.975773,-1.585714,200,OK
50.388175,-4.135177,PL3 4QD,Plymouth,South West,50.38821,-4.135235,200,OK
50.915416,-1.486712,SO40 9DL,New Forest,South East,50.915417,-1.486726,200,OK
51.230207,1.134373,CT4 5HT,Canterbury,South East,51.230207,1.134373,200,OK
51.512212,-0.08556,EC3V 9DH,City of London,London,51.512493,-0.085707,200,OK
54.37839,-2.905505,LA23 9AY,Westmorland and Furness,North West,54.378372,-2.905507,200,OK
51.915737,0.584457,CM7 5PB,Braintree,East of England,51.915737,0.584457,200,OK
51.549735,-3.236431,CF83 1NG,Cardiff,,51.549735,-3.236431,200,OK
57.115665,-2.1746,AB15 9NE,Aberdeen City,,57.115665,-2.1746,200,OK
51.80999,-0.341733,AL5 5TL,St Albans,East of England,51.80999,-0.341733,200,OK
55.923186,-4.40347,G81 5NA,West Dunbartonshire,,55.923186,-4.40347,200,OK
53.59664,-2.279518,BL9 7QB,Bury,North West,53.59664,-2.279518,200,OK
50.988964,-1.377336,SO53 2EE,Eastleigh,South East,50.988964,-1.377321,200,OK
52.060393,1.140095,IP1 2JU,Ipswich,East of England,52.060393,1.140095,200,OK
53.543862,-1.483088,S70 1QS,Barnsley,Yorkshire and The Humber,53.543862,-1.483088,200,OK
52.947093,-1.166649,NG7 1FP,Nottingham,East Midlands,52.947093,-1.166649,200,OK
52.608941,1.73137,NR30 2EE,Great Yarmouth,East of England,52.608941,1.73137,200,OK
52.954712,-1.152094,NG1 6AX,Nottingham,East Midlands,52.954712,-1.152094,200,OK
51.271818,0.174448,TN13 2JS,Sevenoaks,South East,51.271818,0.174448,200,OK
52.312819,-0.688982,NN8 4TS,North Northamptonshire,East Midlands,52.312819,-0.688982,200,OK
52.065017,-1.324897,OX16 3QS,Cherwell,South East,52.065135,-1.324675,200,OK
51.571204,0.19621,RM11 1DA,Havering,London,51.571583,0.196618,200,OK
55.785812,-4.277466,G76 7AQ,East Renfrewshire,,55.785787,-4.277385,200,OK
51.908267,1.014356,CO7 7XA,Tendring,East of England,51.908267,1.014356,200,OK
51.613415,-0.280887,HA8 7PH,Barnet,London,51.613409,-0.280879,200,OK
53.553009,-3.052601,L37 4EH,Sefton,North West,53.553009,-3.052601,200,OK
57.682117,-4.032957,IV11 8XP,Highland,,57.682117,-4.032957,200,OK
54.573273,-1.322303,TS19 0ES,Stockton-on-Tees,North East,54.573273,-1.322303,200,OK
51.507106,-0.462102,UB7 9FY,Hillingdon,London,51.507106,-0.462102,200,OK
53.656882,-1.545077,WF4 5ED,Wakefield,Yorkshire and The Humber,53.656882,-1.545077,200,OK
51.0122,-0.097313,RH16 1RB,Mid Sussex,South East,51.0122,-0.097313,200,OK
51.272431,0.518863,ME14 1SY,Maidstone,South East,51.272294,0.519373,200,OK
51.434751,0.500187,ME3 8TS,Medway,South East,51.434751,0.500187,200,OK
53.634721,-2.666303,PR7 5WJ,Chorley,North West,53.634721,-2.666303,200,OK
53.962166,-2.007463,BD23 1HD,North Yorkshire,Yorkshire and The Humber,53.962166,-2.007463,200,OK
52.343911,-4.086683,SY23 4QL,Ceredigion,,52.343911,-4.086683,200,OK
55.94792,-4.585425,G82 4JE,West Dunbartonshire,,55.94792,-4.585425,200,OK
54.86758,-1.703058,DH9 0ND,County Durham,North East,54.86758,-1.703058,200,OK
53.689924,-2.713924,PR25 1HU,South Ribble,North West,53.689888,-2.713878,200,OK
53.434839,-2.213428,M14 6SQ,Manchester,North West,53.434839,-2.213428,200,OK
50.921686,-1.401922,SO14 6WQ,Southampton,South East,50.921686,-1.401922,200,OK
51.538772,-0.141823,NW1 0AP,Camden,London,51.53871,-0.141685,200,OK
51.378231,-2.360485,BA1 1TS,Bath and North East Somerset,South West,51.378231,-2.360485,200,OK
51.735899,0.276881,CM5 0SE,Epping Forest,East of England,51.735899,0.276881,200,OK
51.539971,-3.137739,CF23 8GL,Cardiff,,51.539971,-3.137739,200,OK
50.845363,-0.143571,BN1 6PD,Brighton and Hove,South East,50.845363,-0.143571,200,OK
54.998372,-1.427866,NE33 2RH,South Tyneside,North East,54.998372,-1.427866,200,OK
53.383051,-2.289151,M23 2SX,Manchester,North West,53.382906,-2.288834,200,OK
53.732067,-0.382538,,,,,,200,OK
53.821406,-1.73184,BD2 2LQ,Bradford,Yorkshire and The Humber,53.821406,-1.73184,200,OK
51.578315,0.064704,IG2 6XQ,Redbridge,London,51.578315,0.064704,200,OK
53.204156,-1.440038,S42 6TP,North East Derbyshire,East Midlands,53.204284,-1.44029,200,OK
51.766205,0.002761,EN11 0DA,Broxbourne,East of England,51.766101,0.003958,200,OK
51.675993,0.585073,CM3 4HQ,Chelmsford,East of England,51.675993,0.585073,200,OK
54.067748,-2.27722,BD24 9DU,North Yorkshire,Yorkshire and The Humber,54.067814,-2.277148,200,OK
54.774309,-6.844172,BT45 7BT,Mid Ulster,,54.774309,-6.844172,200,OK
51.745059,-0.021888,EN10 7DX,Broxbourne,East of England,51.745059,-0.021888,200,OK
53.818582,-1.46331,LS14 6RN,Leeds,Yorkshire and The Humber,53.818582,-1.46331,200,OK
52.892825,-1.496586,DE23 1HJ,Derby,East Midlands,52.89278,-1.496556,200,OK
52.833927,-1.525262,DE65 6EF,South Derbyshire,East Midlands,52.834312,-1.525075,200,OK
53.834928,-1.795074,BD18 4JH,Bradford,Yorkshire and The Humber,53.834928,-1.795074,200,OK
53.409768,-4.347446,LL68 9AN,Isle of Anglesey,,53.409768,-4.347446,200,OK
53.546064,-2.713477,,,,,,200,OK
52.118983,-2.326563,WR14 2JW,Malvern Hills,West Midlands,52.118983,-2.326563,200,OK
51.483626,-3.162786,CF24 0HW,Cardiff,,51.483626,-3.162786,200,OK
54.600874,-3.135326,CA12 5HH,Cumberland,North West,54.600874,-3.135326,200,OK
51.123905,1.316489,CT16 1LG,Dover,South East,51.123905,1.316489,200,OK
51.703399,-1.789726,GL7 4FY,Cotswold,South West,51.703399,-1.789726,200,OK
53.01293,-1.004227,NG14 7BB,Newark and Sherwood,East Midlands,53.01293,-1.004227,200,OK
51.604618,0.217434,RM3 8JA,Havering,London,51.604618,0.217434,200,OK
52.51151,-0.649569,,,,,,200,OK
52.441017,-1.467692,CV2 1GB,Coventry,West Midlands,52.441017,-1.467692,200,OK
52.465336,-2.117409,DY5 2LG,Dudley,West Midlands,52.465336,-2.117409,200,OK
53.871168,-1.923785,BD21 2RW,Bradford,Yorkshire and The Humber,53.871168,-1.923785,200,OK
51.799314,-1.545364,OX29 0RS,West Oxfordshire,South East,51.799861,-1.545532,200,OK
52.926122,-1.511789,DE22 4AD,Derby,East Midlands,52.926122,-1.511789,200,OK
56.331871,-4.324068,FK18 8ND,Stirling,,56.331871,-4.324068,200,OK
52.974668,-2.112435,ST3 5NN,Stoke-on-Trent,West Midlands,52.974668,-2.112435,200,OK
50.88871,0.337949,BN27 4TZ,Wealden,South East,50.888253,0.33831,200,OK
57.598008,-4.437596,IV15 9QA,Highland,,57.598008,-4.437596,200,OK
51.213161,-3.779205,EX35 6PT,North Devon,South West,51.213161,-3.779205,200,OK
53.382891,-2.769078,WA8 4TT,Halton,North West,53.382891,-2.769078,200,OK
52.52466,-1.494259,CV10 8AF,Nuneaton and Bedworth,West Midlands,52.52466,-1.494259,200,OK
52.539683,1.36216,NR15 1HZ,South Norfolk,East of England,52.539683,1.36216,200,OK
50.702834,-3.080662,EX12 2PZ,East Devon,South West,50.702834,-3.080662,200,OK
56.019322,-3.831881,FK5 3AL,Falkirk,,56.019322,-3.831881,200,OK
51.588593,0.495893,SS14 3NW,Basildon,East of England,51.588362,0.494523,200,OK
51.353705,-1.943975,SN10 3LB,Wiltshire,South West,51.353705,-1.943975,200,OK
52.367429,-2.149686,DY10 4NR,Wyre Forest,West Midlands,52.367429,-2.149686,200,OK
53.625509,-1.857065,HD7 5QQ,Kirklees,Yorkshire and The Humber,53.625509,-1.857065,200,OK
52.478819,-1.879291,B9 4BB,Birmingham,West Midlands,52.47898,-1.878672,200,OK
52.94582,0.726543,PE31 8HF,King's Lynn and West Norfolk,East of England,52.945753,0.726297,200,OK
56.124929,-3.141422,KY1 2BD,Fife,,56.124653,-3.141108,200,OK
51.63113,-3.819357,SA11 2DX,Neath Port Talbot,,51.63113,-3.819357,200,OK
53.601642,-2.261554,BL9 7RN,Bury,North West,53.601642,-2.261554,200,OK
51.221855,-0.479704,GU5 9BH,Guildford,South East,51.221855,-0.479704,200,OK
50.150259,-5.065478,TR11 3JW,Cornwall,South West,50.150135,-5.065414,200,OK
55.920701,-4.217428,G64 3BJ,East Dunbartonshire,,55.920701,-4.217428,200,OK
51.757395,-0.446109,HP2 4HB,Dacorum,East of England,51.757395,-0.446109,200,OK
51.133167,0.26637,TN1 2UL,Tunbridge Wells,South East,51.133167,0.26637,200,OK
54.14437,-2.639546,LA6 1AT,Lancaster,North West,54.14437,-2.639546,200,OK
52.710311,-2.724748,SY2 5RA,Shropshire,West Midlands,52.710311,-2.724748,200,OK
51.424648,-1.322606,RG14 3AJ,West Berkshire,South East,51.424648,-1.322606,200,OK
52.960059,-1.123691,NG3 2NT,Nottingham,East Midlands,52.960059,-1.123691,200,OK
51.577411,-0.01792,E17 8LN,Waltham Forest,London,51.577411,-0.01792,200,OK
53.190566,-2.483151,CW7 3NL,Cheshire West and Chester,North West,53.190566,-2.483151,200,OK
51.466116,-2.579933,BS6 5PA,"Bristol, City of",South West,51.466116,-2.579933,200,OK
55.837032,-5.053075,PA20 9AA,Argyll and Bute,,55.836991,-5.053034,200,OK
54.702944,-1.596334,DL16 6DY,County Durham,North East,54.702944,-1.596334,200,OK
53.080237,-2.261201,,,,,,200,OK
57.153045,-2.159421,AB15 8YT,Aberdeen City,,57.153045,-2.159421,200,OK
51.176322,-3.324592,TA23 0DU,Somerset,South West,51.176322,-3.324592,200,OK
52.061163,-2.704841,HR1 1BQ,"Herefordshire, County of",West Midlands,52.061163,-2.704841,200,OK
51.447264,-2.475426,BS30 8XA,South Gloucestershire,South West,51.447264,-2.475426,200,OK
52.572434,-2.134029,WV2 4XB,Wolverhampton,West Midlands,52.572434,-2.134029,200,OK
53.131788,-0.635046,LN5 9JR,North Kesteven,East Midlands,53.131788,-0.635046,200,OK
50.581682,-3.467477,EX7 9HZ,Teignbridge,South West,50.581789,-3.467579,200,OK
53.875704,-1.705834,LS20 9PQ,Leeds,Yorkshire and The Humber,53.875704,-1.705834,200,OK
53.484877,-2.309118,M5 5HH,Salford,North West,53.484877,-2.309118,200,OK
51.44678,0.018543,SE12 9LG,Lewisham,London,51.44678,0.018543,200,OK
52.295187,-0.897359,NN2 8SR,West Northamptonshire,East Midlands,52.295187,-0.897359,200,OK
53.636405,-2.447063,BL7 9PR,Bolton,North West,53.636405,-2.447063,200,OK
51.707757,-1.316796,OX1 5JW,Vale of White Horse,South East,51.707757,-1.316796,200,OK
50.912072,-1.394762,SO14 0NH,Southampton,South East,50.912072,-1.394762,200,OK
54.532678,-1.535707,DL1 2LA,Darlington,North East,54.532678,-1.535707,200,OK
52.474096,-1.918331,B15 1BF,Birmingham,West Midlands,52.474096,-1.918331,200,OK
51.665741,-3.449945,CF43 4RD,Rhondda Cynon Taf,,51.665741,-3.449945,200,OK
51.627637,-3.409043,CF39 0HN,Rhondda Cynon Taf,,51.627637,-3.409043,200,OK
53.806524,-1.454171,LS15 7LA,Leeds,Yorkshire and The Humber,53.806524,-1.454171,200,OK
50.826557,-0.374997,BN14 7BF,Worthing,South East,50.826557,-0.374997,200,OK
53.447659,-2.250352,M16 8PN,Manchester,North West,53.447659,-2.250352,200,OK
53.783851,-3.03855,FY4 2LR,Blackpool,North West,53.783851,-3.03855,200,OK
52.952527,-1.148581,NG1 2NX,Nottingham,East Midlands,52.952692,-1.14898,200,OK
53.44559,-1.46662,S35 9WG,Sheffield,Yorkshire and The Humber,53.44559,-1.46662,200,OK
54.295325,-2.884137,LA8 8JJ,Westmorland and Furness,North West,54.295325,-2.884137,200,OK
53.777351,-1.255747,LS25 5BF,North Yorkshire,Yorkshire and The Humber,53.777351,-1.255747,200,OK
53.239573,-4.142196,LL59 5NY,Isle of Anglesey,,53.239573,-4.142196,200,OK
51.481658,0.181002,DA8 1QY,Bexley,London,51.481658,0.181002,200,OK
52.98853,-3.955176,LL41 3SB,Gwynedd,,52.98853,-3.955176,200,OK
52.194829,-2.220863,WR1 1UG,Worcester,West Midlands,52.19492,-2.220527,200,OK
55.853125,-4.418699,PA3 4DR,Renfrewshire,,55.852999,-4.419331,200,OK
52.056312,-0.755881,MK14 6PD,Milton Keynes,South East,52.056248,-0.756626,200,OK
51.137535,-0.210797,RH11 0NY,Horsham,South East,51.137185,-0.210825,200,OK
53.371892,-4.554768,LL65 4EU,Isle of Anglesey,,53.371892,-4.554768,200,OK
57.570472,-2.418363,AB53 5PG,Aberdeenshire,,57.570472,-2.418363,200,OK
51.9005,-1.169901,OX26 2LW,Cherwell,South East,51.900492,-1.169945,200,OK
54.788181,-4.10052,,,,,,200,OK
52.930857,1.302513,NR27 9EZ,North Norfolk,East of England,52.930857,1.302513,200,OK
54.885773,-1.443476,SR4 9RD,Sunderland,North East,54.885942,-1.443084,200,OK
53.485224,-2.179022,M11 4NF,Manchester,North West,53.485233,-2.178946,200,OK
50.876763,-2.798406,TA18 8JY,Somerset,South West,50.876763,-2.798406,200,OK
56.003702,-3.786107,FK2 7HX,Falkirk,,56.003702,-3.786107,200,OK
51.885004,-2.129507,GL51 6GF,Tewkesbury,South West,51.885004,-2.129507,200,OK
54.890518,-1.544917,NE38 0DZ,Sunderland,North East,54.890518,-1.544917,200,OK
53.909794,-3.042275,FY7 8NA,Wyre,North West,53.909794,-3.042275,200,OK
51.554046,0.718219,SS2 5NF,Southend-on-Sea,East of England,51.554046,0.718219,200,OK
51.522155,-3.194296,CF14 3WE,Cardiff,,51.522155,-3.194296,200,OK
52.829969,-1.630907,DE13 0EU,East Staffordshire,West Midlands,52.829969,-1.630907,200,OK
50.702958,-1.303047,PO30 5FE,Isle of Wight,South East,50.702958,-1.303047,200,OK
55.123066,-1.543062,NE24 4EW,Northumberland,North East,55.123066,-1.543062,200,OK
55.855521,-4.225842,G31 1AP,Glasgow City,,55.855521,-4.225842,200,OK
51.431039,-0.097932,SE27 9PU,Lambeth,London,51.430771,-0.097469,200,OK
53.237883,-1.432586,S40 9TB,Chesterfield,East Midlands,53.237883,-1.432586,200,OK
54.634348,-1.654425,DL4 1BP,County Durham,North East,54.634321,-1.65408,200,OK
54.180807,-1.345842,YO7 3HS,North Yorkshire,Yorkshire and The Humber,54.180752,-1.345567,200,OK
52.949667,0.861548,NR23 1NE,North Norfolk,East of England,52.949667,0.861548,200,OK
54.201698,-2.834077,LA5 0DB,Westmorland and Furness,North West,54.201698,-2.834077,200,OK
55.084656,-6.564235,BT53 6RA,Causeway Coast and Glens,,55.084656,-6.564235,200,OK
54.589212,-5.944564,BT12 5PZ,Belfast,,54.589147,-5.944397,200,OK
54.360716,-2.919228,LA23 3EW,Westmorland and Furness,North West,54.360716,-2.919228,200,OK
51.399814,-2.899885,BS21 6XL,North Somerset,South West,51.399814,-2.899885,200,OK
52.037534,-2.713974,HR2 6GG,"Herefordshire, County of",West Midlands,52.037534,-2.713974,200,OK
50.838474,-0.789649,PO19 3EL,Chichester,South East,50.838474,-0.789649,200,OK
53.313761,-0.940968,DN22 7SX,Bassetlaw,East Midlands,53.313761,-0.940968,200,OK
53.831441,-2.340079,BB7 9UB,Ribble Valley,North West,53.831441,-2.340079,200,OK
51.327325,-0.71531,GU15 1EL,Surrey Heath,South East,51.327325,-0.71531,200,OK
52.451493,-2.05457,B63 3TU,Dudley,West Midlands,52.451493,-2.05457,200,OK
54.890504,-2.969046,CA2 7HR,Cumberland,North West,54.890504,-2.969046,200,OK
51.31693,-2.051864,SN10 5SF,Wiltshire,South West,51.31693,-2.051864,200,OK
53.384209,-1.347489,S60 5UY,Rotherham,Yorkshire and The Humber,53.384325,-1.347276,200,OK
53.137404,-1.18867,NG18 2RS,Mansfield,East Midlands,53.137404,-1.18867,200,OK
52.023675,-0.873047,MK19 6DZ,Buckinghamshire,South East,52.023675,-0.873047,200,OK
51.67153,-3.99921,SA4 9AN,Swansea,,51.671518,-3.999215,200,OK
53.398847,-3.046716,CH41 8DQ,Wirral,North West,53.398847,-3.046716,200,OK
51.610837,-0.676369,HP9 1GF,Buckinghamshire,South East,51.610837,-0.676369,200,OK
51.616784,-3.223867,CF83 3PN,Caerphilly,,51.616784,-3.223867,200,OK
51.519763,-0.157256,W1U 6LD,Westminster,London,51.519763,-0.157256,200,OK
51.062731,-2.388551,BA9 9NN,Somerset,South West,51.062731,-2.388551,200,OK
51.557153,-3.35297,CF38 2BU,Rhondda Cynon Taf,,51.557153,-3.35297,200,OK
50.927893,-2.189058,DT11 8NB,Dorset,South West,50.927893,-2.189058,200,OK
53.42453,-2.116631,,,,,,200,OK
50.719469,-1.866934,BH1 3DD,"Bournemouth, Christchurch and Poole",South West,50.719469,-1.866934,200,OK
53.91045,-1.986705,BD20 9AY,North Yorkshire,Yorkshire and The Humber,53.91045,-1.986705,200,OK
50.864514,-3.009681,TA20 3EJ,Somerset,South West,50.864514,-3.009681,200,OK
51.902679,-0.383059,LU2 8DR,Luton,East of England,51.902679,-0.383059,200,OK
53.493001,-2.749605,WA11 8RU,St. Helens,North West,53.493001,-2.749605,200,OK
53.239485,-1.385756,S44 5TX,North East Derbyshire,East Midlands,53.239485,-1.385756,200,OK
51.359096,-0.513198,KT15 1EY,Runnymede,South East,51.359096,-0.513198,200,OK
57.691399,-4.15745,IV18 0PZ,Highland,,57.691399,-4.15745,200,OK
53.614666,-1.152191,DN6 0AB,Doncaster,Yorkshire and The Humber,53.614666,-1.152191,200,OK
55.011635,-1.510084,NE28 9UH,North Tyneside,North East,55.011635,-1.510084,200,OK
51.769755,-0.223038,AL10 0QJ,Welwyn Hatfield,East of England,51.76976,-0.222999,200,OK
50.797653,-1.984028,BH21 1QA,Dorset,South West,50.797653,-1.984028,200,OK
57.338406,-2.214546,AB41 6TA,Aberdeenshire,,57.338406,-2.214546,200,OK
51.362571,1.131942,CT6 5UB,Canterbury,South East,51.362571,1.131942,200,OK
53.730709,-1.757927,BD12 9LX,Kirklees,Yorkshire and The Humber,53.730823,-1.757944,200,OK
52.709716,1.534998,NR29 5QE,North Norfolk,East of England,52.709716,1.534998,200,OK
51.403002,0.014932,BR1 1EY,Bromley,London,51.403002,0.014932,200,OK
51.461676,0.106225,DA16 2LB,Bexley,London,51.461676,0.106225,200,OK
55.941812,-3.20851,EH3 9QP,City of Edinburgh,,55.941812,-3.20851,200,OK
53.340259,-1.940111,SK23 6AA,High Peak,East Midlands,53.340257,-1.94011,200,OK
52.631363,-1.149109,LE3 0TA,Leicester,East Midlands,52.631318,-1.149029,200,OK
52.766894,-2.384229,TF10 7QS,Telford and Wrekin,West Midlands,52.766894,-2.384229,200,OK
53.03368,-2.24969,ST5 7JZ,Newcastle-under-Lyme,West Midlands,53.033767,-2.250929,200,OK
50.843128,-1.196881,PO14 1EA,Fareham,South East,50.843128,-1.196881,200,OK
51.932258,-1.664189,GL56 0US,Cotswold,South West,51.932258,-1.664189,200,OK
52.492459,-2.063759,B65 8NG,Sandwell,West Midlands,52.492438,-2.063739,200,OK
52.29329,-0.255199,PE19 5EY,Huntingdonshire,East of England,52.293106,-0.255544,200,OK
51.522708,-3.074666,CF3 2WF,Newport,,51.522708,-3.074666,200,OK
51.516767,-0.15092,W1U 2AA,Westminster,London,51.516767,-0.15092,200,OK
50.751959,-2.456536,DT2 9UY,Dorset,South West,50.751959,-2.456536,200,OK
53.435978,-2.632694,WA5 4BQ,Warrington,North West,53.435978,-2.632694,200,OK
51.749523,-2.213004,GL5 1TH,Stroud,South West,51.749523,-2.213004,200,OK
53.432716,-3.055074,CH45 0LW,Wirral,North West,53.432742,-3.054157,200,OK
51.375433,-0.004182,BR4 0TA,Bromley,London,51.375433,-0.004182,200,OK
51.508622,-0.140802,W1S 4AB,Westminster,London,51.508622,-0.140802,200,OK
53.396391,-3.133613,CH46 5NA,Wirral,North West,53.396473,-3.134365,200,OK
53.651698,-2.982541,PR9 9EB,Sefton,North West,53.651698,-2.982541,200,OK
53.585876,-2.38481,BL2 5LR,Bolton,North West,53.585876,-2.38481,200,OK
55.030727,-1.578546,NE12 6QW,North Tyneside,North East,55.030727,-1.578546,200,OK
52.236463,0.276859,CB25 0LX,East Cambridgeshire,East of England,52.236463,0.276859,200,OK
55.682007,-4.522948,KA3 3HB,East Ayrshire,,55.682007,-4.522948,200,OK
50.808136,-0.510232,BN16 2RJ,Arun,South East,50.808136,-0.510232,200,OK
50.824845,-1.170972,PO13 0JQ,Gosport,South East,50.824845,-1.170972,200,OK
51.594662,0.082976,IG6 2HH,Redbridge,London,51.594662,0.082976,200,OK
53.491251,-2.097734,OL6 6DJ,Tameside,North West,53.491251,-2.097734,200,OK
53.382046,-3.186122,CH47 4AH,Wirral,North West,53.382202,-3.186728,200,OK
51.57872,-4.042488,SA3 3AJ,Swansea,,51.578743,-4.042495,200,OK
53.911919,-2.194971,BB18 5SE,Pendle,North West,53.911888,-2.195141,200,OK
51.076217,-2.322242,SP8 5BA,Dorset,South West,51.076316,-2.322386,200,OK
57.058932,-2.142431,AB12 4XT,Aberdeenshire,,57.059283,-2.142267,200,OK
52.985247,-1.986225,ST10 1EA,Staffordshire Moorlands,West Midlands,52.985247,-1.986225,200,OK
51.148054,-2.98201,TA6 4FQ,Somerset,South West,51.148054,-2.98201,200,OK
51.783101,-1.265631,OX2 7QN,Oxford,South East,51.783101,-1.265631,200,OK
50.972323,0.066273,TN22 3YH,Wealden,South East,50.972319,0.0663,200,OK
54.634109,-1.646217,DL4 1DX,County Durham,North East,54.634109,-1.646217,200,OK
50.976781,-1.387601,SO53 3AL,Eastleigh,South East,50.976781,-1.387601,200,OK
51.855521,1.175303,CO16 0JS,Tendring,East of England,51.8556,1.175381,200,OK
51.185723,-2.552211,BA4 5SQ,Somerset,South West,51.185723,-2.552211,200,OK
50.787591,-0.986992,PO11 0AE,Havant,South East,50.787591,-0.986992,200,OK
51.477407,0.304033,RM20 4AA,Thurrock,East of England,51.477633,0.303079,200,OK
50.9373,-0.381363,RH20 3AX,Horsham,South East,50.9373,-0.381363,200,OK
53.04197,-1.217743,NG15 6NA,Ashfield,East Midlands,53.04197,-1.217743,200,OK
51.399285,0.052407,BR1 2HN,Bromley,London,51.399285,0.052407,200,OK
53.076948,-2.40248,CW2 5XN,Cheshire East,North West,53.076948,-2.40248,200,OK
50.754278,-1.308849,PO31 7NL,Isle of Wight,South East,50.754278,-1.308849,200,OK
50.817338,-0.448925,BN12 6PU,Arun,South East,50.817338,-0.448925,200,OK
51.143642,-0.973289,GU34 2TL,East Hampshire,South East,51.143642,-0.973289,200,OK
55.866605,-4.289623,G3 8AA,Glasgow City,,55.866605,-4.289623,200,OK
52.520112,-1.936482,B20 1AH,Birmingham,West Midlands,52.520112,-1.936482,200,OK
51.413694,-3.432407,CF62 4DN,Vale of Glamorgan,,51.413694,-3.432407,200,OK
51.613594,-2.996467,NP20 6LW,Newport,,51.614008,-2.996375,200,OK
51.356403,1.168082,CT6 7AA,Canterbury,South East,51.356403,1.168082,200,OK
52.204923,0.899153,IP30 0RN,Mid Suffolk,East of England,52.204923,0.899153,200,OK
51.587451,-0.342568,HA1 4TB,Harrow,London,51.587451,-0.342568,200,OK
54.582316,-5.94058,BT9 6DL,Belfast,,54.582426,-5.940698,200,OK
51.271413,-0.736107,GU11 2EN,Rushmoor,South East,51.271413,-0.736107,200,OK
55.937881,-3.197421,EH9 1DG,City of Edinburgh,,55.937881,-3.197421,200,OK
52.559489,-1.959097,WS5 4EP,Sandwell,West Midlands,52.559165,-1.958065,200,OK
54.304736,-2.200298,DL8 3RF,North Yorkshire,Yorkshire and The Humber,54.304736,-2.200298,200,OK
50.73683,-1.811718,BH6 5NY,"Bournemouth, Christchurch and Poole",South West,50.73683,-1.811718,200,OK
51.518443,0.025804,E13 8JX,Newham,London,51.518443,0.025804,200,OK
51.363117,0.504874,ME1 2UR,Medway,South East,51.363117,0.504874,200,OK
51.652478,-3.283126,CF46 6NX,Caerphilly,,51.652017,-3.283732,200,OK
53.376553,-2.248958,M22 5EZ,Manchester,North West,53.376643,-2.248251,200,OK
51.36911,-2.931691,BS22 9LP,North Somerset,South West,51.36911,-2.931691,200,OK
54.557193,-1.893277,DL12 8UE,County Durham,North East,54.557048,-1.892164,200,OK
53.022769,-1.482641,DE56 1QB,Amber Valley,East Midlands,53.022811,-1.482179,200,OK
50.927017,-1.357645,SO18 2DE,Southampton,South East,50.927017,-1.357645,200,OK
53.423433,-2.246809,M20 2NB,Manchester,North West,53.423439,-2.246824,200,OK
51.366174,-1.97268,SN10 2EU,Wiltshire,South West,51.366066,-1.972522,200,OK
53.744012,-1.884866,HX2 8AN,Calderdale,Yorkshire and The Humber,53.743886,-1.885078,200,OK
51.205762,-1.481775,SP10 1QL,Test Valley,South East,51.205811,-1.481476,200,OK
51.514905,-0.158274,W1H 7HY,Westminster,London,51.514905,-0.158274,200,OK
53.377995,-2.723802,WA8 6TT,Halton,North West,53.377995,-2.723802,200,OK
52.604833,-1.680569,B77 1NR,Tamworth,West Midlands,52.604833,-1.680569,200,OK
53.53856,-1.380973,S73 9DZ,Barnsley,Yorkshire and The Humber,53.53856,-1.380973,200,OK
55.853318,-4.205199,G31 4EG,Glasgow City,,55.853756,-4.205067,200,OK
55.865715,-4.180841,G33 3BY,Glasgow City,,55.865715,-4.180841,200,OK
51.765512,-0.153135,AL9 6AH,Welwyn Hatfield,East of England,51.765517,-0.153124,200,OK
51.671106,-3.239835,CF82 8DA,Caerphilly,,51.671106,-3.239835,200,OK
55.863838,-4.25454,G1 2SB,Glasgow City,,55.863793,-4.254537,200,OK
51.111693,-0.220181,RH11 8DJ,Crawley,South East,51.111693,-0.220181,200,OK
55.018755,-1.642669,NE3 2BH,Newcastle upon Tyne,North East,55.018755,-1.642669,200,OK
55.943238,-4.746078,PA15 4RW,Inverclyde,,55.943492,-4.746445,200,OK
51.483203,-0.645709,SL4 5PX,Windsor and Maidenhead,South East,51.483203,-0.645709,200,OK
55.803904,-4.026177,ML4 2SE,North Lanarkshire,,55.803904,-4.026177,200,OK
53.3825,-3.185699,CH47 4AW,Wirral,North West,53.3825,-3.185699,200,OK
50.857134,0.563329,TN37 6HD,Hastings,South East,50.857134,0.563329,200,OK
52.706582,0.590988,PE32 1FB,King's Lynn and West Norfolk,East of England,52.706582,0.590988,200,OK
53.288046,-2.960434,CH66 5PF,Cheshire West and Chester,North West,53.288046,-2.960434,200,OK
54.527461,-1.310361,TS17 0ST,Stockton-on-Tees,North East,54.527461,-1.310361,200,OK
52.022345,-0.484909,MK45 2UP,Central Bedfordshire,East of England,52.022345,-0.484909,200,OK
51.213947,-0.812948,GU9 7DG,Waverley,South East,51.213947,-0.812948,200,OK
53.45505,-2.733952,WA10 1JN,St. Helens,North West,53.454716,-2.734127,200,OK
50.852577,0.572342,,,,,,200,OK
52.556668,-0.116856,PE7 1XA,Fenland,East of England,52.556668,-0.116856,200,OK
53.746795,-2.276026,BB11 5PJ,Burnley,North West,53.746795,-2.276026,200,OK
53.759204,-2.69576,PR1 3BQ,Preston,North West,53.759204,-2.69576,200,OK
52.626643,-2.844951,,,,,,200,OK
53.264748,-3.266265,CH8 8PR,Flintshire,,53.264748,-3.266265,200,OK
51.499704,-0.141497,SW1E 6NR,Westminster,London,51.49958,-0.141055,200,OK
51.614928,-0.318737,HA7 4FZ,Harrow,London,51.614928,-0.318737,200,OK
54.189876,-0.941816,YO62 4BA,North Yorkshire,Yorkshire and The Humber,54.189725,-0.940977,200,OK
53.785564,-1.777084,BD7 3HS,Bradford,Yorkshire and The Humber,53.785564,-1.777084,200,OK
53.427695,-2.801401,L34 5SH,Knowsley,North West,53.427695,-2.801401,200,OK
54.892802,-1.402016,SR3 1XD,Sunderland,North East,54.892802,-1.402016,200,OK
52.261019,-0.859202,NN3 2RS,West Northamptonshire,East Midlands,52.261019,-0.859202,200,OK
53.646442,-2.309437,BL0 0AR,Bury,North West,53.646442,-2.309437,200,OK
52.298549,-1.978473,B97 5PD,Redditch,West Midlands,52.298549,-1.978473,200,OK
50.348472,-3.5731,TQ6 0AA,South Hams,South West,50.348472,-3.5731,200,OK
55.770123,-4.048848,ML3 6PR,South Lanarkshire,,55.770123,-4.048848,200,OK
54.677446,-6.892039,BT80 9TP,Mid Ulster,,54.677446,-6.892039,200,OK
56.029346,-3.788751,FK2 8BX,Falkirk,,56.029346,-3.788751,200,OK
55.877311,-4.281317,G12 8EX,Glasgow City,,55.877311,-4.281317,200,OK
52.497409,-1.953625,B66 2NW,Sandwell,West Midlands,52.497409,-1.953625,200,OK
52.118645,-1.671041,CV37 8UF,Stratford-on-Avon,West Midlands,52.118645,-1.671041,200,OK
54.870539,-3.381896,CA7 4DY,Cumberland,North West,54.870539,-3.381896,200,OK
56.729615,-2.471893,DD10 9DF,Angus,,56.729615,-2.471893,200,OK
53.007518,-2.2041,ST4 7QB,Stoke-on-Trent,West Midlands,53.007518,-2.2041,200,OK
51.48189,-0.096134,SE5 0NG,Southwark,London,51.4821,-0.095779,200,OK
52.232185,-0.940125,NN5 4EY,West Northamptonshire,East Midlands,52.232185,-0.940125,200,OK
51.527313,-2.570663,BS34 6PY,South Gloucestershire,South West,51.527313,-2.570663,200,OK
51.51431,-0.155315,W1H 6PA,Westminster,London,51.514457,-0.155554,200,OK
52.986111,-1.326569,DE7 9JZ,Erewash,East Midlands,52.986111,-1.326569,200,OK
51.432619,-2.562074,BS4 2LP,"Bristol, City of",South West,51.432619,-2.562074,200,OK
51.376153,0.04173,BR2 8ND,Bromley,London,51.375933,0.042468,200,OK
51.787764,-1.263627,OX2 7HZ,Oxford,South East,51.787764,-1.263627,200,OK
53.370911,-3.011041,CH42 2BY,Wirral,North West,53.370911,-3.011041,200,OK
51.55885,-1.783826,SN1 5PA,Swindon,South West,51.55885,-1.783826,200,OK
52.476344,-2.172532,DY8 5JB,Dudley,West Midlands,52.476344,-2.172532,200,OK
51.11681,-0.154044,RH10 7DY,Crawley,South East,51.117256,-0.153869,200,OK
52.463706,-1.975714,B17 8RJ,Birmingham,West Midlands,52.463706,-1.975714,200,OK
52.272912,-1.601859,CV34 6LD,Warwick,West Midlands,52.272912,-1.601859,200,OK
51.605252,-1.259825,OX11 0AJ,South Oxfordshire,South East,51.605252,-1.259825,200,OK
50.749204,-1.542111,SO41 8FH,New Forest,South East,50.749723,-1.541573,200,OK
51.565581,-0.122204,N19 4EU,Islington,London,51.565581,-0.122204,200,OK
52.859076,-4.48599,LL53 7NR,Gwynedd,,52.859076,-4.48599,200,OK
51.133902,0.358276,TN12 7HJ,Tunbridge Wells,South East,51.133902,0.358276,200,OK
54.525959,-1.310061,TS17 0RT,Stockton-on-Tees,North East,54.525959,-1.310061,200,OK
50.718307,-3.287964,EX10 0AE,East Devon,South West,50.718318,-3.287837,200,OK
51.020755,-3.538717,TA22 9BN,Somerset,South West,51.020755,-3.538717,200,OK
51.414878,-2.565983,BS14 9NW,"Bristol, City of",South West,51.414878,-2.565983,200,OK
51.483956,0.071114,SE18 7JJ,Greenwich,London,51.483956,0.071114,200,OK
53.724804,-2.784793,,,,,,200,OK
51.389161,-0.75497,RG12 7LE,Bracknell Forest,South East,51.389161,-0.75497,200,OK
51.732056,0.427075,CM1 3EG,Chelmsford,East of England,51.732056,0.427075,200,OK
55.305654,-3.406676,DG10 9LX,Dumfries and Galloway,,55.305739,-3.406629,200,OK
50.850565,-1.400445,SO45 3QT,New Forest,South East,50.850565,-1.400445,200,OK
52.41453,-1.972154,B31 2NQ,Birmingham,West Midlands,52.415258,-1.972168,200,OK
51.320271,0.059684,TN16 3AB,Bromley,London,51.320271,0.059684,200,OK
53.853238,-1.56016,LS17 5EP,Leeds,Yorkshire and The Humber,53.853238,-1.56016,200,OK
56.712043,-2.469582,DD10 8GZ,Angus,,56.712043,-2.469582,200,OK
53.188203,-2.547297,CW7 2RG,Cheshire West and Chester,North West,53.188203,-2.547297,200,OK
53.607251,-1.34253,WF9 4TB,Wakefield,Yorkshire and The Humber,53.607352,-1.342831,200,OK
55.736926,-3.846453,ML8 5BH,South Lanarkshire,,55.736926,-3.846453,200,OK
53.328479,-1.54763,S17 3DE,Sheffield,Yorkshire and The Humber,53.328496,-1.547644,200,OK
52.475076,1.752797,NR32 1EB,East Suffolk,East of England,52.475273,1.752778,200,OK
53.611367,-2.395713,BL2 4ND,Bolton,North West,53.611367,-2.395713,200,OK
51.826504,-3.030631,NP7 7AP,Monmouthshire,,51.826504,-3.030631,200,OK
54.706242,-6.158582,BT41 2HF,Antrim and Newtownabbey,,54.706242,-6.158582,200,OK
51.574602,-4.049649,SA3 3HB,Swansea,,51.574602,-4.049649,200,OK
51.424365,-0.129164,SW16 3HB,Lambeth,London,51.424365,-0.129164,200,OK
56.016989,-3.912727,FK6 5BA,Falkirk,,56.016989,-3.912727,200,OK
54.612444,-1.085323,TS10 5BP,Redcar and Cleveland,North East,54.612444,-1.085323,200,OK
53.55648,-1.811845,HD9 2PN,Kirklees,Yorkshire and The Humber,53.55648,-1.811845,200,OK
54.063413,-1.362392,YO51 9PT,North Yorkshire,Yorkshire and The Humber,54.063413,-1.362392,200,OK
51.034515,-3.067275,TA2 8XB,Somerset,South West,51.034515,-3.067275,200,OK
53.424084,-2.837344,L36 8BJ,Knowsley,North West,53.424189,-2.837722,200,OK
51.105565,-3.652079,TA24 7RB,Somerset,South West,51.105565,-3.652079,200,OK
52.396872,-1.432251,CV3 2TA,Coventry,West Midlands,52.396693,-1.432489,200,OK
51.434711,-0.153833,SW17 8RR,Wandsworth,London,51.434711,-0.153833,200,OK
54.03214,-2.80167,LA1 5LA,Lancaster,North West,54.03214,-2.80167,200,OK
53.810521,-1.663996,LS28 5UT,Leeds,Yorkshire and The Humber,53.810521,-1.663996,200,OK
51.427398,0.349234,DA11 8SB,Gravesham,South East,51.427398,0.349234,200,OK
51.357824,-0.33122,KT10 0TT,Elmbridge,South East,51.357824,-0.33122,200,OK
52.568372,-1.158133,LE8 4HD,Blaby,East Midlands,52.568389,-1.158007,200,OK
52.311654,-0.381781,PE28 0LF,Huntingdonshire,East of England,52.311725,-0.381089,200,OK
53.826578,-2.198754,BB9 0HZ,Pendle,North West,53.826578,-2.198754,200,OK
51.695678,-3.227239,CF81 9AU,Caerphilly,,51.695669,-3.227253,200,OK
50.47692,-3.539561,TQ1 4EU,Torbay,South West,50.47692,-3.539561,200,OK
51.331598,-0.139991,CR8 3HW,Croydon,London,51.331598,-0.139991,200,OK
53.306422,-3.536401,LL22 9HH,Conwy,,53.306422,-3.536401,200,OK
50.724276,-1.785856,BH6 4EG,"Bournemouth, Christchurch and Poole",South West,50.724276,-1.785856,200,OK
52.504742,-1.964171,B66 2HB,Sandwell,West Midlands,52.504742,-1.964171,200,OK
53.546263,-2.632301,WN1 1QS,Wigan,North West,53.54611,-2.632299,200,OK
51.637748,-3.430266,CF43 3EL,Rhondda Cynon Taf,,51.637748,-3.430266,200,OK
54.403575,-1.741693,DL10 4DX,North Yorkshire,Yorkshire and The Humber,54.403575,-1.741693,200,OK
52.758647,-1.206624,LE11 2HJ,Charnwood,East Midlands,52.758647,-1.206624,200,OK
54.712539,-1.530469,DH6 5NU,County Durham,North East,54.712293,-1.529556,200,OK
51.511869,-0.079997,EC3R 7LU,City of London,London,51.511817,-0.080114,200,OK
52.255448,0.024843,CB23 8EU,South Cambridgeshire,East of England,52.255393,0.024928,200,OK
51.246715,-0.878697,GU10 5EQ,Hart,South East,51.246715,-0.878697,200,OK
51.526453,-0.060772,E2 0BZ,Tower Hamlets,London,51.526453,-0.060772,200,OK
53.28109,-2.906328,CH65 8DW,Cheshire West and Chester,North West,53.28109,-2.906328,200,OK
52.174231,-1.374646,CV47 2XD,Stratford-on-Avon,West Midlands,52.174231,-1.374558,200,OK
53.807511,-1.636626,LS13 3QG,Leeds,Yorkshire and The Humber,53.807511,-1.636626,200,OK
53.145488,-4.131064,LL55 3EA,Gwynedd,,53.145488,-4.131064,200,OK
57.150697,-2.113827,AB25 2RN,Aberdeen City,,57.150786,-2.113893,200,OK
51.739496,-0.976592,OX9 3BP,South Oxfordshire,South East,51.73923,-0.977019,200,OK
50.935214,-1.424219,SO16 6RS,Southampton,South East,50.935214,-1.424219,200,OK
54.946793,-1.91666,NE43 7NH,Northumberland,North East,54.946793,-1.91666,200,OK
50.465263,-3.492741,TQ1 2PH,Torbay,South West,50.465263,-3.492741,200,OK
51.332458,-2.885402,BS29 6JD,North Somerset,South West,51.332366,-2.885291,200,OK
50.905572,-1.396923,SO14 1NY,Southampton,South East,50.905447,-1.396958,200,OK
51.471909,-0.210882,SW6 5SL,Hammersmith and Fulham,London,51.471909,-0.210882,200,OK
51.497362,-0.195416,W8 6PP,Kensington and Chelsea,London,51.497362,-0.195416,200,OK
52.559082,-1.939311,B43 7AH,Sandwell,West Midlands,52.559127,-1.939267,200,OK
55.850604,-4.063291,ML5 5SS,North Lanarkshire,,55.850604,-4.063291,200,OK
50.324991,-3.862663,TQ7 4NJ,South Hams,South West,50.324991,-3.862663,200,OK
51.389099,-0.7525,RG12 7HB,Bracknell Forest,South East,51.389372,-0.75278,200,OK
52.279108,-1.178429,NN11 8BN,West Northamptonshire,East Midlands,52.279108,-1.178429,200,OK
51.396943,-0.135702,CR4 1LH,Merton,London,51.396943,-0.135702,200,OK
50.881555,-1.032138,,,,,,200,OK
51.588632,-0.058187,N17 9FW,Haringey,London,51.588655,-0.058067,200,OK
56.103598,-3.930271,FK7 0BQ,Stirling,,56.103598,-3.930271,200,OK
53.699697,-2.68416,PR25 4NU,South Ribble,North West,53.699697,-2.68416,200,OK
50.844509,-0.135153,BN1 6JT,Brighton and Hove,South East,50.844509,-0.135153,200,OK
51.884823,0.880779,CO3 3PB,Colchester,East of England,51.884823,0.880779,200,OK
50.934125,-1.795782,SP6 1LF,New Forest,South East,50.934125,-1.795782,200,OK
53.031886,-1.547263,DE56 2DY,Amber Valley,East Midlands,53.031886,-1.547263,200,OK
53.622542,-2.204942,OL11 5YF,Rochdale,North West,53.622542,-2.204942,200,OK
50.151485,-5.065038,TR11 4ET,Cornwall,South West,50.151511,-5.065068,200,OK
52.517744,-1.904168,B42 1AA,Birmingham,West Midlands,52.517615,-1.90294,200,OK
51.539485,-0.90106,RG9 2LL,South Oxfordshire,South East,51.539542,-0.901361,200,OK
50.778387,-2.202231,DT11 9FG,Dorset,South West,50.778387,-2.202231,200,OK
50.879297,-0.326922,,,,,,200,OK
53.926024,-1.843296,LS29 9DA,Bradford,Yorkshire and The Humber,53.926024,-1.843296,200,OK
53.543839,-2.806461,WN8 8BG,West Lancashire,North West,53.543839,-2.806461,200,OK
50.735566,-1.262494,PO32 6NX,Isle of Wight,South East,50.735566,-1.262494,200,OK
51.532419,0.15397,RM10 9EX,Barking and Dagenham,London,51.532821,0.154176,200,OK
53.471648,-2.568023,WA3 2QW,Wigan,North West,53.471648,-2.568023,200,OK
53.679969,-2.329258,BB4 4AN,Rossendale,North West,53.679969,-2.329258,200,OK
57.457364,-4.223128,IV2 4EL,Highland,,57.457364,-4.223128,200,OK
51.53879,-0.518381,SL0 0BX,Buckinghamshire,South East,51.53879,-0.518381,200,OK
50.916099,-1.341393,SO18 5HE,Southampton,South East,50.916099,-1.341393,200,OK
51.564594,-0.033929,E10 7QB,Waltham Forest,London,51.564594,-0.033929,200,OK
53.379916,-2.18862,SK8 5BL,Stockport,North West,53.379916,-2.18862,200,OK
53.580614,-2.447685,BL1 4RB,Bolton,North West,53.580614,-2.447685,200,OK
52.987848,-2.144452,ST3 2LW,Stoke-on-Trent,West Midlands,52.987956,-2.144348,200,OK
51.389489,-0.412956,KT12 2BZ,Elmbridge,South East,51.389489,-0.412956,200,OK
54.623627,-5.925733,BT15 3QJ,Belfast,,54.623627,-5.925733,200,OK
52.462723,-1.813675,B25 8UJ,Birmingham,West Midlands,52.462507,-1.813676,200,OK
52.477295,-0.89885,LE16 7XR,Harborough,East Midlands,52.477295,-0.89885,200,OK
54.831455,-1.456536,DH5 9PY,Sunderland,North East,54.831455,-1.456536,200,OK
51.745443,-0.528361,HP1 2RT,Dacorum,East of England,51.745443,-0.528361,200,OK
51.00332,-0.951561,GU32 3QB,East Hampshire,South East,51.003315,-0.951545,200,OK
53.966346,-2.738961,LA2 9DQ,Lancaster,North West,53.966346,-2.738961,200,OK
55.165094,-6.30424,BT54 6HT,Causeway Coast and Glens,,55.165094,-6.30424,200,OK
50.831,-4.51947,EX23 9AR,Cornwall,South West,50.831,-4.51947,200,OK
51.349996,-1.375487,RG20 9QZ,Basingstoke and Deane,South East,51.349994,-1.375469,200,OK
53.058472,-2.161325,ST6 8DW,Stoke-on-Trent,West Midlands,53.058472,-2.161325,200,OK
52.614325,-1.673647,B77 2LX,Tamworth,West Midlands,52.614325,-1.673647,200,OK
50.899626,-0.358917,BN44 3DZ,Horsham,South East,50.899626,-0.358917,200,OK
53.646294,-2.973944,PR9 7AA,Sefton,North West,53.646294,-2.973944,200,OK
51.515185,-0.112996,WC2A 3RJ,Camden,London,51.515185,-0.112996,200,OK
54.439716,-1.409773,DL6 2AP,North Yorkshire,Yorkshire and The Humber,54.439716,-1.409773,200,OK
51.459928,-1.045463,RG31 5ED,Reading,South East,51.459928,-1.045463,200,OK
51.429831,-0.171191,SW17 0EJ,Wandsworth,London,51.429831,-0.171191,200,OK
50.633221,-4.354954,PL15 9BW,Cornwall,South West,50.633221,-4.354954,200,OK
52.686803,1.197237,NR8 6AD,Broadland,East of England,52.686803,1.197237,200,OK
53.750074,-2.352038,BB5 2AN,Hyndburn,North West,53.750074,-2.352038,200,OK
52.902921,-1.103108,NG12 4EJ,Rushcliffe,East Midlands,52.902921,-1.103108,200,OK
51.817993,-2.716246,NP25 3AX,Monmouthshire,,51.817993,-2.716246,200,OK
55.926316,-3.169794,EH16 5QB,City of Edinburgh,,55.926316,-3.169794,200,OK
55.866837,-3.678353,EH47 8JH,West Lothian,,55.866837,-3.678353,200,OK
52.292038,-1.543363,CV32 5BJ,Warwick,West Midlands,52.292038,-1.543363,200,OK
53.786288,-2.242941,BB11 2EN,Burnley,North West,53.786403,-2.243989,200,OK
53.551565,-1.597585,S75 4EF,Barnsley,Yorkshire and The Humber,53.551565,-1.597585,200,OK
53.557426,-2.012506,OL3 5BD,Oldham,North West,53.557426,-2.012506,200,OK
51.605768,0.138621,IG7 4QP,Redbridge,London,51.605768,0.138621,200,OK
50.834112,-0.236313,BN42 4FP,Adur,South East,50.834112,-0.236313,200,OK
50.989665,-3.484869,EX16 9LX,Mid Devon,South West,50.98971,-3.484928,200,OK
51.418967,-0.752996,RG42 2AB,Bracknell Forest,South East,51.418949,-0.75298,200,OK
55.280004,-1.811019,NE65 8RQ,Northumberland,North East,55.280004,-1.811019,200,OK
51.473786,-1.049004,RG31 6FD,West Berkshire,South East,51.473786,-1.049004,200,OK
50.83808,0.47328,TN40 1BT,Rother,South East,50.838052,0.473322,200,OK
51.104386,-1.693697,SP5 1BL,Wiltshire,South West,51.104386,-1.693697,200,OK
52.296905,0.674876,,,,,,200,OK
52.443822,-1.876787,B13 9HW,Birmingham,West Midlands,52.443822,-1.876787,200,OK
53.411808,-2.171266,SK4 1DN,Stockport,North West,53.411825,-2.171265,200,OK
52.188645,-2.212183,WR5 1DH,Worcester,West Midlands,52.188645,-2.212183,200,OK
54.053123,-2.788735,LA1 3HL,Lancaster,North West,54.053439,-2.788543,200,OK
53.421522,-2.327347,M33 7SY,Trafford,North West,53.421522,-2.327347,200,OK
51.493161,-0.125916,SW1P 4WY,Westminster,London,51.49273,-0.125963,200,OK
53.419098,-2.876158,L14 9BA,Liverpool,North West,53.419098,-2.876158,200,OK
51.492907,0.374989,RM16 4TE,Thurrock,East of England,51.492907,0.374989,200,OK
51.847067,-1.343796,OX20 1NA,West Oxfordshire,South East,51.847209,-1.34346,200,OK
52.335878,-0.164164,PE29 1XW,Huntingdonshire,East of England,52.335884,-0.164017,200,OK
53.550819,-2.286264,M45 8NP,Bury,North West,53.550819,-2.286264,200,OK
56.125459,-3.802012,FK10 2JB,Clackmannanshire,,56.125459,-3.802012,200,OK
51.05253,0.455538,TN5 7FJ,Rother,South East,51.052111,0.455302,200,OK
50.742863,-1.897905,BH12 5BB,"Bournemouth, Christchurch and Poole",South West,50.742979,-1.897168,200,OK
55.964515,-4.160232,G66 8DB,East Dunbartonshire,,55.964515,-4.160232,200,OK
52.297531,-1.632707,CV35 7TD,Warwick,West Midlands,52.297531,-1.632707,200,OK
53.461059,-2.986627,L20 6JY,Sefton,North West,53.461059,-2.986627,200,OK
53.555771,-2.641093,WN6 7HD,Wigan,North West,53.555771,-2.641093,200,OK
52.926835,-1.158621,NG11 7AS,Nottingham,East Midlands,52.926835,-1.158621,200,OK
52.774706,-1.560815,DE11 0FE,South Derbyshire,East Midlands,52.774706,-1.560815,200,OK
52.487324,-0.917892,LE16 7LP,Harborough,East Midlands,52.487324,-0.917892,200,OK
52.918506,-1.542928,DE3 9FE,Derby,East Midlands,52.918506,-1.542928,200,OK
51.442053,-0.192762,SW18 4PY,Wandsworth,London,51.442019,-0.192303,200,OK
52.657987,-2.459292,TF4 3PN,Telford and Wrekin,West Midlands,52.657987,-2.459292,200,OK
55.945409,-3.062399,EH21 6DB,East Lothian,,55.945409,-3.062399,200,OK
53.889523,-0.327771,HU17 5LW,East Riding of Yorkshire,Yorkshire and The Humber,53.889637,-0.32875,200,OK
51.495674,-0.140897,SW1P 1NP,Westminster,London,51.495574,-0.140786,200,OK
51.473847,-2.721262,BS20 7TU,North Somerset,South West,51.473847,-2.721262,200,OK
53.816966,-1.521155,LS8 4JL,Leeds,Yorkshire and The Humber,53.816966,-1.521155,200,OK
52.476729,-1.924354,B16 8RB,Birmingham,West Midlands,52.476729,-1.924354,200,OK
55.806898,-4.855693,KA30 8TN,North Ayrshire,,55.806898,-4.855693,200,OK
53.504247,-2.098246,OL7 9TG,Tameside,North West,53.504247,-2.098246,200,OK
53.572076,-1.412676,S72 8EZ,Barnsley,Yorkshire and The Humber,53.572076,-1.412676,200,OK
57.670327,-2.489149,AB44 1RS,Aberdeenshire,,57.670473,-2.488766,200,OK
53.819387,-1.600675,LS5 3ET,Leeds,Yorkshire and The Humber,53.819387,-1.600675,200,OK
50.614421,-3.408239,EX8 2AX,East Devon,South West,50.614421,-3.408239,200,OK
53.413975,-1.458094,S5 7EB,Sheffield,Yorkshire and The Humber,53.413975,-1.458094,200,OK
53.373414,-3.171873,CH48 4ET,Wirral,North West,53.373414,-3.171873,200,OK
51.316681,-0.727847,GU16 8XJ,Surrey Heath,South East,51.316432,-0.728141,200,OK
51.177785,-3.323463,TA23 0EB,Somerset,South West,51.177785,-3.323463,200,OK
51.738008,-3.435715,CF44 0BX,Rhondda Cynon Taf,,51.737774,-3.436432,200,OK
52.342923,-0.175499,PE29 1AH,Huntingdonshire,East of England,52.34285,-0.176074,200,OK
51.385972,0.084652,BR5 1QQ,Bromley,London,51.385972,0.084652,200,OK
51.898093,0.320032,CM6 2ET,Uttlesford,East of England,51.898093,0.320032,200,OK
54.553342,-5.891183,BT8 6XY,Lisburn and Castlereagh,,54.553207,-5.891206,200,OK
52.675714,-1.186762,LE7 7DQ,Charnwood,East Midlands,52.675714,-1.186762,200,OK
50.97163,-1.589676,SO51 6RN,Test Valley,South East,50.97163,-1.589676,200,OK
52.985669,-2.515031,CW3 0EE,Cheshire East,North West,52.985669,-2.515031,200,OK
53.453805,-2.844676,L34 8HB,Knowsley,North West,53.454028,-2.844754,200,OK
54.468401,-6.900427,BT70 1SB,Mid Ulster,,54.468401,-6.900427,200,OK
52.952472,-1.029863,NG12 1DH,Rushcliffe,East Midlands,52.952472,-1.029863,200,OK
52.401158,-0.725568,NN16 8JH,North Northamptonshire,East Midlands,52.401456,-0.725706,200,OK
53.13388,-2.376332,CW11 3LH,Cheshire East,North West,53.13388,-2.376332,200,OK
54.737608,-3.330412,CA7 2DE,Cumberland,North West,54.737632,-3.330461,200,OK
52.869614,-1.548062,DE65 6QB,South Derbyshire,East Midlands,52.869614,-1.548062,200,OK
53.809484,-1.773799,BD9 4QJ,Bradford,Yorkshire and The Humber,53.809484,-1.773799,200,OK
54.32066,-2.743008,LA9 7DS,Westmorland and Furness,North West,54.32066,-2.743008,200,OK
51.536135,-0.044746,E9 7HW,Hackney,London,51.536161,-0.044701,200,OK
54.710851,-2.705891,CA11 9LH,Westmorland and Furness,North West,54.710851,-2.705891,200,OK
53.50218,-2.228193,M8 0UA,Manchester,North West,53.502378,-2.228254,200,OK
52.669135,-0.592777,LE15 8PP,Rutland,East Midlands,52.669135,-0.592777,200,OK
53.570516,-2.129446,OL2 5UE,Oldham,North West,53.570516,-2.129446,200,OK
50.737193,-1.858792,BH8 8TN,"Bournemouth, Christchurch and Poole",South West,50.737193,-1.858792,200,OK
52.280081,-2.303459,WR6 6LQ,Malvern Hills,West Midlands,52.280081,-2.303459,200,OK
51.420633,-0.052396,SE26 5NS,Bromley,London,51.420633,-0.052396,200,OK
53.316296,-3.474155,LL18 4RR,Denbighshire,,53.316296,-3.474155,200,OK
53.761584,-2.683709,PR1 5JH,Preston,North West,53.761584,-2.683709,200,OK
51.383083,-0.051533,CR0 7PF,Croydon,London,51.383083,-0.051533,200,OK
50.367551,-4.135912,PL1 2LD,Plymouth,South West,50.367551,-4.135912,200,OK
51.415246,-0.046959,SE20 7NN,Bromley,London,51.415246,-0.046959,200,OK
51.538767,-0.001471,E15 1AJ,Newham,London,51.53854,-0.001757,200,OK
56.444547,-2.932168,DD6 8DX,Fife,,56.444257,-2.932485,200,OK
51.868986,0.257072,CM22 6QL,Uttlesford,East of England,51.868951,0.257432,200,OK
53.445916,-2.222774,,,,,,200,OK
51.794583,-0.097828,SG14 2AR,East Hertfordshire,East of England,51.794583,-0.097828,200,OK
51.473429,-0.394883,TW4 7RT,Hounslow,London,51.473348,-0.394893,200,OK
53.815621,-1.777639,BD9 4EE,Bradford,Yorkshire and The Humber,53.815621,-1.777639,200,OK
52.63599,-2.441476,TF7 4LB,Telford and Wrekin,West Midlands,52.63599,-2.441476,200,OK
52.553617,-0.251395,PE2 9FQ,Peterborough,East of England,52.553617,-0.251395,200,OK
55.81224,-4.297793,G43 2UL,Glasgow City,,55.81224,-4.297793,200,OK
51.46762,-2.509944,BS15 1TD,South Gloucestershire,South West,51.46762,-2.509944,200,OK
53.212072,-3.039491,CH5 1DF,Flintshire,,53.212204,-3.039809,200,OK
54.569345,-5.95294,BT9 6LF,Belfast,,54.569345,-5.95294,200,OK
55.898465,-4.254133,G22 7NT,Glasgow City,,55.898465,-4.254133,200,OK
53.967389,-1.079639,YO31 7NB,York,Yorkshire and The Humber,53.967425,-1.079739,200,OK
58.492218,-6.231037,HS2 0XA,Na h-Eileanan Siar,,58.492291,-6.230719,200,OK
53.388281,-2.262378,M22 9NL,Manchester,North West,53.388281,-2.262378,200,OK
56.961933,-2.210813,AB39 2JJ,Aberdeenshire,,56.961933,-2.210813,200,OK
52.24175,-4.262318,SA46 0BB,Ceredigion,,52.24175,-4.262318,200,OK
53.524405,-2.178418,M40 5RT,Manchester,North West,53.524405,-2.178433,200,OK
53.414962,-2.856454,L36 4PF,Knowsley,North West,53.414962,-2.856454,200,OK
51.352884,1.02991,CT5 4RH,Canterbury,South East,51.352884,1.02991,200,OK
51.762326,-0.484963,HP1 3HF,Dacorum,East of England,51.762326,-0.484963,200,OK
51.248074,-1.507878,SP11 0HH,Test Valley,South East,51.248074,-1.507878,200,OK
51.639477,-2.672103,NP16 5PF,Monmouthshire,,51.63945,-2.67216,200,OK
57.556119,-4.439778,IV7 8AH,Highland,,57.556033,-4.439637,200,OK
54.563542,-1.246096,TS5 6BG,Middlesbrough,North East,54.563542,-1.246019,200,OK
51.014635,-3.106171,TA1 4BS,Somerset,South West,51.014506,-3.105963,200,OK
54.045591,-2.806339,LA1 1UB,Lancaster,North West,54.045591,-2.806339,200,OK
51.43829,0.10748,,,,,,200,OK
51.903629,-1.160933,OX26 2EX,Cherwell,South East,51.903326,-1.161375,200,OK
51.196023,-3.137612,TA5 1QQ,Somerset,South West,51.195622,-3.137259,200,OK
53.509645,-2.207095,M9 4HX,Manchester,North West,53.509367,-2.206612,200,OK
57.281121,-2.381635,AB51 3YJ,Aberdeenshire,,57.281202,-2.381768,200,OK
53.315068,-2.237147,SK9 1AT,Cheshire East,North West,53.314736,-2.235958,200,OK
52.121161,-1.746913,CV37 8TG,Stratford-on-Avon,West Midlands,52.121161,-1.746913,200,OK
51.048675,0.505318,TN18 4JP,Tunbridge Wells,South East,51.048675,0.505318,200,OK
51.482967,-3.235906,CF5 4AL,Cardiff,,51.482967,-3.235906,200,OK
57.178553,-2.09203,AB23 8ER,Aberdeen City,,57.178537,-2.092036,200,OK
53.785956,-0.358016,HU6 7DZ,"Kingston upon Hull, City of",Yorkshire and The Humber,53.785956,-0.358016,200,OK
55.8618,-4.248988,G2 1EH,Glasgow City,,55.861677,-4.249349,200,OK
56.153775,-3.745634,FK13 6AD,Clackmannanshire,,56.153775,-3.745634,200,OK
51.606877,-3.651011,CF34 9LX,Bridgend,,51.606877,-3.651011,200,OK
51.472752,-0.027484,SE8 4PY,Lewisham,London,51.472752,-0.027484,200,OK
56.47179,-2.957785,DD4 6TB,Dundee City,,56.47179,-2.957785,200,OK
55.836453,-4.279865,G41 4NG,Glasgow City,,55.836453,-4.279865,200,OK
52.980226,-2.135982,ST3 4EA,Stoke-on-Trent,West Midlands,52.980226,-2.135982,200,OK
55.949042,-3.239081,EH12 6BE,City of Edinburgh,,55.949042,-3.239081,200,OK
52.792819,-2.466182,TF10 8NG,Shropshire,West Midlands,52.792784,-2.466107,200,OK
54.107893,-0.180542,YO16 6GS,East Riding of Yorkshire,Yorkshire and The Humber,54.107973,-0.18112,200,OK
51.557107,-0.248794,NW10 1SA,Brent,London,51.557234,-0.248832,200,OK
55.553616,-3.847342,ML11 0PN,South Lanarkshire,,55.553616,-3.847342,200,OK
53.107186,-1.041668,NG22 8LY,Newark and Sherwood,East Midlands,53.107186,-1.041668,200,OK
52.306762,-0.698167,NN8 4QY,North Northamptonshire,East Midlands,52.306762,-0.698167,200,OK
51.684397,-0.033734,EN8 7AS,Broxbourne,East of England,51.684397,-0.033734,200,OK
51.549554,0.689706,SS0 9LS,Southend-on-Sea,East of England,51.549554,0.689706,200,OK
51.383423,-2.140341,SN12 8BA,Wiltshire,South West,51.383423,-2.140341,200,OK
52.73261,0.219046,PE14 7LF,King's Lynn and West Norfolk,East of England,52.73261,0.219046,200,OK
54.284106,-7.633714,BT92 3AD,Fermanagh and Omagh,,54.284106,-7.633714,200,OK
50.59597,-4.113412,PL19 9PG,West Devon,South West,50.59597,-4.113412,200,OK
53.28176,-3.831784,LL32 8NU,Conwy,,53.281918,-3.832045,200,OK
51.342023,-0.212881,SM2 7ER,Sutton,London,51.342023,-0.212881,200,OK
55.870776,-4.169057,G33 3RE,Glasgow City,,55.870468,-4.168704,200,OK
52.312093,-2.593831,WR15 8AZ,Malvern Hills,West Midlands,52.312093,-2.593831,200,OK
53.233868,-2.595761,CW8 2NN,Cheshire West and Chester,North West,53.233868,-2.595761,200,OK
54.972602,-1.610257,NE1 6SF,Newcastle upon Tyne,North East,54.97255,-1.611023,200,OK
52.062064,1.174707,IP4 4BL,Ipswich,East of England,52.062064,1.174707,200,OK
53.648713,-1.746022,HD5 9UA,Kirklees,Yorkshire and The Humber,53.648713,-1.746022,200,OK
53.942461,-1.127324,YO24 3LN,York,Yorkshire and The Humber,53.942479,-1.127363,200,OK
53.372595,-3.043066,CH42 9PB,Wirral,North West,53.372788,-3.04265,200,OK
52.135811,-1.104403,NN12 8SA,West Northamptonshire,East Midlands,52.135839,-1.10449,200,OK
51.662203,-0.402911,WD17 4EL,Watford,East of England,51.662203,-0.402911,200,OK
53.805832,-2.227322,BB10 3DZ,Burnley,North West,53.805832,-2.227322,200,OK
57.050888,-2.129757,AB12 4QT,Aberdeenshire,,57.050888,-2.129757,200,OK
54.015652,-0.919503,YO41 1LH,North Yorkshire,Yorkshire and The Humber,54.015652,-0.919503,200,OK
51.881447,-1.013806,HP18 0SR,Buckinghamshire,South East,51.881447,-1.013806,200,OK
51.063319,-0.326321,RH12 1GJ,Horsham,South East,51.063319,-0.326321,200,OK
51.500762,-0.151539,SW1X 7DE,Westminster,London,51.500723,-0.151271,200,OK
53.379062,-3.1229,CH49 3QZ,Wirral,North West,53.379242,-3.122889,200,OK
51.612623,0.422098,CM12 9RS,Basildon,East of England,51.613317,0.422439,200,OK
53.304381,-2.384869,WA16 0AQ,Cheshire East,North West,53.304381,-2.384869,200,OK
53.474964,-2.1692,M11 1GG,Manchester,North West,53.474964,-2.1692,200,OK
52.251033,-0.873507,NN1 4RN,West Northamptonshire,East Midlands,52.251033,-0.873507,200,OK
50.708268,-3.074598,EX12 2BA,East Devon,South West,50.708268,-3.074598,200,OK
51.524306,-0.210828,W10 5BG,Kensington and Chelsea,London,51.524306,-0.210828,200,OK
52.549618,-1.870769,B44 0TA,Birmingham,West Midlands,52.549618,-1.870769,200,OK
50.971204,-3.23114,TA21 8BN,Somerset,South West,50.971204,-3.23114,200,OK
52.045075,-0.68545,MK10 7AZ,Milton Keynes,South East,52.045075,-0.68545,200,OK
54.050701,-1.40734,,,,,,200,OK
53.461321,-2.29015,M32 0RZ,Trafford,North West,53.461849,-2.290695,200,OK
57.141366,-2.088533,,,,,,200,OK
51.497932,-0.542886,SL3 8LD,Slough,South East,51.497932,-0.542886,200,OK
50.857363,0.451396,TN39 5HT,Rother,South East,50.857363,0.451396,200,OK
56.962149,-7.446262,HS9 5UN,Na h-Eileanan Siar,,56.962149,-7.446262,200,OK
51.362349,-0.485585,KT15 2DE,Runnymede,South East,51.362349,-0.485585,200,OK
50.76601,-1.317397,PO31 8BS,Isle of Wight,South East,50.76601,-1.317397,200,OK
52.627458,1.348353,NR7 0QY,Broadland,East of England,52.627458,1.348353,200,OK
53.963873,-1.117854,YO26 5SP,York,Yorkshire and The Humber,53.963873,-1.117854,200,OK
55.692492,-4.863446,KA23 9LQ,North Ayrshire,,55.692492,-4.863446,200,OK
53.217644,-1.686965,DE45 1GT,Derbyshire Dales,East Midlands,53.21762,-1.688372,200,OK
51.110645,-2.657052,BA6 8RP,Somerset,South West,51.111236,-2.656507,200,OK
52.133161,0.316564,CB21 4DS,South Cambridgeshire,East of England,52.133161,0.316564,200,OK
50.828081,-0.544272,BN17 7PS,Arun,South East,50.827755,-0.544173,200,OK
51.433668,-3.198264,CF64 3JX,Vale of Glamorgan,,51.433823,-3.197132,200,OK
51.995746,-0.802532,MK4 4LN,Milton Keynes,South East,51.995434,-0.802803,200,OK
54.594536,-5.93006,BT2 8AB,Belfast,,54.59444,-5.930235,200,OK
53.667353,-2.173573,OL12 8LW,Rossendale,North West,53.667353,-2.173573,200,OK
51.849134,-2.569631,GL17 9SU,Forest of Dean,South West,51.849134,-2.569631,200,OK
50.711053,-4.297957,EX21 5DZ,Torridge,South West,50.711053,-4.297957,200,OK
54.171301,-6.333615,BT34 2EB,"Newry, Mourne and Down",,54.171301,-6.333615,200,OK
51.995677,0.742598,CO8 5HA,Braintree,East of England,51.995677,0.742598,200,OK
52.534909,-1.994944,B71 1JW,Sandwell,West Midlands,52.534909,-1.994944,200,OK
51.159436,-1.454238,SP11 7JU,Test Valley,South East,51.159436,-1.454238,200,OK
53.879347,-3.036033,FY5 2BG,Wyre,North West,53.879347,-3.036033,200,OK
53.051687,-1.403914,DE5 3DN,Amber Valley,East Midlands,53.051687,-1.403914,200,OK
53.827475,-1.387158,LS15 4HE,Leeds,Yorkshire and The Humber,53.827475,-1.387158,200,OK
50.738043,-1.956868,BH15 3NS,"Bournemouth, Christchurch and Poole",South West,50.738043,-1.956868,200,OK
52.358185,0.010904,PE28 3NY,Huntingdonshire,East of England,52.358168,0.010903,200,OK
50.738055,-2.899028,DT6 6QT,Dorset,South West,50.738055,-2.899028,200,OK
51.515079,-0.151032,W1U 1AZ,Westminster,London,51.515079,-0.151032,200,OK
55.910707,-2.938589,,,,,,200,OK
51.512148,-0.132343,W1D 6LF,Westminster,London,51.512084,-0.132303,200,OK
52.059778,-1.440451,OX15 6PH,Cherwell,South East,52.059778,-1.440451,200,OK
51.579045,0.417166,SS15 6HZ,Basildon,East of England,51.578995,0.41699,200,OK
60.478102,-1.480599,ZE2 9XP,Shetland Islands,,60.478102,-1.480599,200,OK
51.401505,-2.350706,BA1 8DL,Bath and North East Somerset,South West,51.401424,-2.350662,200,OK
52.788694,0.958246,NR20 5AQ,Breckland,East of England,52.788694,0.958246,200,OK
52.438587,-2.137742,DY9 0RZ,Dudley,West Midlands,52.438587,-2.137742,200,OK
50.226394,-3.785465,TQ8 8LQ,South Hams,South West,50.226394,-3.785465,200,OK
51.486157,-0.19534,SW6 1DZ,Hammersmith and Fulham,London,51.486193,-0.195286,200,OK
53.473081,-1.515978,,,,,,200,OK
53.592447,-2.530134,BL6 6NX,Bolton,North West,53.592225,-2.529572,200,OK
51.504395,0.018595,E16 2AA,Newham,London,51.504395,0.018595,200,OK
52.285218,-0.596674,NN10 9LY,North Northamptonshire,East Midlands,52.285218,-0.596674,200,OK
53.496446,-2.030305,SK15 3JW,Tameside,North West,53.496445,-2.030243,200,OK
55.938514,-3.171745,EH16 5BE,City of Edinburgh,,55.938514,-3.171745,200,OK
57.661327,-3.61327,IV36 3QJ,Moray,,57.661327,-3.61327,200,OK
51.454367,-2.621434,BS8 4BZ,"Bristol, City of",South West,51.454367,-2.621434,200,OK
52.337781,-0.163982,PE29 1RX,Huntingdonshire,East of England,52.337772,-0.163997,200,OK
51.534284,-0.167484,NW8 7BU,Westminster,London,51.534178,-0.167632,200,OK
52.920527,-4.559105,LL53 6YX,Gwynedd,,52.920527,-4.559105,200,OK
54.27443,-1.208009,YO7 2HP,North Yorkshire,Yorkshire and The Humber,54.274292,-1.208949,200,OK
52.228866,-0.241795,PE19 6AQ,Huntingdonshire,East of England,52.228866,-0.241795,200,OK
52.419262,-4.056036,SY23 3PR,Ceredigion,,52.419262,-4.056036,200,OK
55.480836,-4.609975,KA8 9ED,South Ayrshire,,55.480836,-4.609975,200,OK
51.605106,-0.716063,HP10 9ER,Buckinghamshire,South East,51.605106,-0.716063,200,OK
57.477966,-4.136974,IV2 5GT,Highland,,57.477966,-4.136974,200,OK
54.865119,-1.696641,DH9 6HX,County Durham,North East,54.865119,-1.696641,200,OK
54.969144,-2.082726,NE46 1LL,Northumberland,North East,54.969144,-2.082726,200,OK
51.593527,-3.804658,SA12 6PW,Neath Port Talbot,,51.593527,-3.804658,200,OK
52.364131,-1.990975,B45 8DJ,Bromsgrove,West Midlands,52.364131,-1.990975,200,OK
54.776579,-1.58018,DH1 4SH,County Durham,North East,54.776624,-1.580081,200,OK
51.753098,-0.340278,AL3 5EG,St Albans,East of England,51.753098,-0.340278,200,OK
52.575439,-1.135752,LE18 4QD,Oadby and Wigston,East Midlands,52.575439,-1.135752,200,OK
51.763489,-0.742358,HP22 6LF,Buckinghamshire,South East,51.763489,-0.742358,200,OK
51.415593,0.021124,BR1 4DZ,Bromley,London,51.415593,0.021124,200,OK
55.617872,-2.87272,TD1 3AL,Scottish Borders,,55.617872,-2.87272,200,OK
51.526019,-2.641884,BS10 7RS,South Gloucestershire,South West,51.526019,-2.641884,200,OK
51.544179,-0.148814,NW1 8EY,Camden,London,51.544179,-0.148814,200,OK
54.039799,-0.46177,,,,,,200,OK
52.504203,-1.964673,B66 2HT,Sandwell,West Midlands,52.504203,-1.964673,200,OK
54.703302,-1.753186,DL15 8JD,County Durham,North East,54.703302,-1.753186,200,OK
52.59495,-2.146682,WV6 0RA,Wolverhampton,West Midlands,52.59495,-2.146682,200,OK
54.601414,-1.071948,TS10 4LT,Redcar and Cleveland,North East,54.601414,-1.071948,200,OK
51.663092,-3.793454,SA11 3EA,Neath Port Talbot,,51.663092,-3.793454,200,OK
53.593743,-2.320065,BL8 2RF,Bury,North West,53.593749,-2.320048,200,OK
51.512467,-0.091847,EC4N 8AR,City of London,London,51.512166,-0.09143,200,OK
52.425958,-1.909919,B14 7NP,Birmingham,West Midlands,52.425895,-1.909772,200,OK
57.162512,-2.088733,AB24 5RL,Aberdeen City,,57.162512,-2.088733,200,OK
51.102288,1.007515,TN25 6JA,Folkestone and Hythe,South East,51.102288,1.007515,200,OK
51.277551,0.521654,ME14 1FX,Maidstone,South East,51.277551,0.521654,200,OK
51.440432,-1.007295,RG30 3HU,Reading,South East,51.440432,-1.007295,200,OK
53.63834,-2.313323,BL0 9LD,Bury,North West,53.63834,-2.313323,200,OK
54.964017,-1.846895,NE42 5FL,Northumberland,North East,54.964017,-1.846895,200,OK
50.857546,-0.782562,PO19 5RE,Chichester,South East,50.857546,-0.782562,200,OK
52.515015,-3.315775,SY16 2PN,Powys,,52.515015,-3.315775,200,OK
52.988734,-3.961338,LL41 3SW,Gwynedd,,52.988734,-3.961338,200,OK
51.191482,-2.58296,BA5 3RR,Somerset,South West,51.191482,-2.58296,200,OK
53.580259,-2.090584,OL2 8EY,Oldham,North West,53.580412,-2.090645,200,OK
53.472707,-1.08031,DN11 0RB,Doncaster,Yorkshire and The Humber,53.472707,-1.08031,200,OK
53.678452,-2.661182,PR7 7DS,Chorley,North West,53.678452,-2.661182,200,OK
51.806521,-0.286533,AL4 8TW,St Albans,East of England,51.806594,-0.286588,200,OK
