lat,lon,postcode,admin_district,region,latitude,longitude,estado_api,descripcion_estado
51.18563,-0.61869,GU7 1EZ,Waverley,South East,51.18563,-0.61869,200,OK
51.569681,0.261362,RM14 1RE,Havering,London,51.569596,0.261546,200,OK
51.460939,-2.116469,SN15 1EP,Wiltshire,South West,51.460939,-2.116469,200,OK
57.178277,-2.180056,AB21 9AU,Aberdeen City,,57.178245,-2.180061,200,OK
55.189568,-6.646382,BT56 8QD,Causeway Coast and Glens,,55.189568,-6.646382,200,OK
51.980653,-1.324243,OX15 0TZ,Cherwell,South East,51.980653,-1.324243,200,OK
51.881375,-0.405254,LU2 0AW,Luton,East of England,51.881375,-0.405254,200,OK
54.569992,-1.321644,TS19 0BY,Stockton-on-Tees,North East,54.569992,-1.321644,200,OK
51.51608,-0.216762,W10 6NQ,Kensington and Chelsea,London,51.51608,-0.216762,200,OK
50.872141,-1.265668,SO31 1AJ,Fareham,South East,50.872242,-1.265894,200,OK
53.498672,-2.740766,WA11 8QY,St. Helens,North West,53.498672,-2.740766,200,OK
50.898456,-0.165537,BN45 7FR,Mid Sussex,South East,50.898753,-0.16443,200,OK
53.140132,-1.249687,NG17 3AP,Ashfield,East Midlands,53.140132,-1.249687,200,OK
55.73276,-3.840841,ML8 5TX,South Lanarkshire,,55.73276,-3.840841,200,OK
53.704645,-2.737866,,,,,,200,OK
55.884271,-4.247906,G22 5HP,Glasgow City,,55.884202,-4.249213,200,OK
53.585116,-0.660833,DN15 7DB,North Lincolnshire,Yorkshire and The Humber,53.585116,-0.660833,200,OK
51.399185,-0.770914,RG12 8UX,Bracknell Forest,South East,51.399417,-0.770821,200,OK
50.557901,-3.502217,TQ14 8QP,Teignbridge,South West,50.557901,-3.502217,200,OK
53.561063,-2.901902,L39 3LJ,West Lancashire,North West,53.561063,-2.901902,200,OK
53.722687,-2.530317,BB2 5DL,Blackburn with Darwen,North West,53.722687,-2.530317,200,OK
50.965785,-1.290809,SO50 7BN,Eastleigh,South East,50.965785,-1.290809,200,OK
51.609355,-3.353453,CF37 2ED,Rhondda Cynon Taf,,51.609355,-3.353453,200,OK
51.526264,-3.515641,CF35 6JJ,Bridgend,,51.526264,-3.515641,200,OK
53.087199,-2.470211,CW2 8RL,Cheshire East,North West,53.087199,-2.470211,200,OK
52.160068,-0.49009,MK41 6EE,Bedford,East of England,52.160068,-0.49009,200,OK
51.367075,-0.198144,SM1 1RT,Sutton,London,51.367075,-0.198144,200,OK
51.584242,-0.080094,N15 5HQ,Haringey,London,51.584242,-0.080094,200,OK
51.892122,0.914882,CO1 2ZG,Colchester,East of England,51.892122,0.914882,200,OK
52.4546,0.311544,CB6 1NL,East Cambridgeshire,East of England,52.4546,0.311544,200,OK
51.514691,-0.161857,W2 2EH,Westminster,London,51.514691,-0.161857,200,OK
50.213801,-5.302396,TR14 7DF,Cornwall,South West,50.213801,-5.302396,200,OK
56.46993,-2.99674,DD3 6BE,Dundee City,,56.46993,-2.99674,200,OK
54.39651,-1.853463,DL11 7NQ,North Yorkshire,Yorkshire and The Humber,54.39651,-1.853463,200,OK
50.839379,-0.329017,BN15 0JA,Adur,South East,50.839379,-0.329017,200,OK
50.889865,-1.026847,PO7 7SB,Havant,South East,50.889865,-1.026847,200,OK
51.02885,-3.026653,,,,,,200,OK
52.632387,-1.134122,LE1 6BU,Leicester,East Midlands,52.632494,-1.13395,200,OK
55.820525,-4.332447,G43 1AG,Glasgow City,,55.820525,-4.332447,200,OK
52.399322,-1.482244,CV3 1PT,Coventry,West Midlands,52.399322,-1.482244,200,OK
51.494912,-0.122963,,,,,,200,OK
53.110982,-2.035887,ST13 8YG,Staffordshire Moorlands,West Midlands,53.111099,-2.035661,200,OK
50.54094,-2.447636,DT5 2HW,Dorset,South West,50.540929,-2.447633,200,OK
54.855451,-7.366457,BT82 0HT,Derry City and Strabane,,54.855451,-7.366457,200,OK
51.463763,0.22308,DA1 5RU,Dartford,South East,51.463763,0.22308,200,OK
51.682718,-3.033249,NP4 5EY,Torfaen,,51.682718,-3.033249,200,OK
51.466638,-0.110014,SW9 7NE,Lambeth,London,51.466638,-0.110014,200,OK
51.719398,-0.830422,HP27 0DR,Buckinghamshire,South East,51.719398,-0.830422,200,OK
52.432947,-1.899777,B14 7TJ,Birmingham,West Midlands,52.432947,-1.899777,200,OK
51.591118,-0.08594,N17 6LJ,Haringey,London,51.591118,-0.08594,200,OK
52.105606,-0.499772,MK42 7UP,Bedford,East of England,52.105606,-0.499772,200,OK
53.453538,-2.105206,M34 6DZ,Tameside,North West,53.453529,-2.105236,200,OK
55.316185,-1.960076,NE65 7LP,Northumberland,North East,55.316185,-1.960076,200,OK
51.486783,-0.813525,RG10 0JT,Windsor and Maidenhead,South East,51.486783,-0.813525,200,OK
53.57974,-1.412086,S72 8NA,Barnsley,Yorkshire and The Humber,53.57996,-1.411499,200,OK
53.719531,-1.862066,HX1 2QQ,Calderdale,Yorkshire and The Humber,53.719347,-1.861235,200,OK
56.965901,-2.21794,AB39 2EJ,Aberdeenshire,,56.965901,-2.21794,200,OK
52.915212,-1.539661,DE3 9HQ,Derby,East Midlands,52.915212,-1.539661,200,OK
51.71484,-0.026449,EN8 0JZ,Broxbourne,East of England,51.71484,-0.026449,200,OK
51.519653,-0.142299,W1W 6PW,Westminster,London,51.519608,-0.142286,200,OK
50.225142,-5.287628,TR14 0AT,Cornwall,South West,50.22526,-5.287272,200,OK
51.866906,0.93032,CO2 8EW,Colchester,East of England,51.866906,0.93032,200,OK
50.750691,-1.837942,BH8 9TR,"Bournemouth, Christchurch and Poole",South West,50.750691,-1.837942,200,OK
56.189034,-3.039991,KY8 2LB,Fife,,56.189034,-3.039991,200,OK
53.634991,-1.748662,HD5 8RU,Kirklees,Yorkshire and The Humber,53.634991,-1.748662,200,OK
53.362424,-1.482234,S7 1HL,Sheffield,Yorkshire and The Humber,53.362424,-1.482234,200,OK
53.096958,-2.39968,CW1 5FY,Cheshire East,North West,53.096958,-2.39968,200,OK
53.491959,-1.144239,DN4 8SZ,Doncaster,Yorkshire and The Humber,53.491959,-1.144239,200,OK
53.960963,-1.085664,YO1 7DT,York,Yorkshire and The Humber,53.961017,-1.085641,200,OK
52.937991,-1.235882,NG9 3BA,Broxtowe,East Midlands,52.937991,-1.235882,200,OK
53.077811,-3.019266,LL11 4NF,Wrexham,,53.077811,-3.019266,200,OK
52.449278,-1.792491,B92 8EH,Solihull,West Midlands,52.449124,-1.792035,200,OK
50.781204,0.287653,BN22 8UD,Eastbourne,South East,50.781204,0.287653,200,OK
53.490871,-3.022333,L23 5TL,Sefton,North West,53.490871,-3.022333,200,OK
54.857654,-6.272116,BT42 3AT,Mid and East Antrim,,54.857654,-6.272116,200,OK
55.162008,-1.690784,NE61 2QA,Northumberland,North East,55.162008,-1.690784,200,OK
54.93449,-1.37702,SR6 8DU,Sunderland,North East,54.93449,-1.37702,200,OK
50.82045,-1.088157,PO2 8PN,Portsmouth,South East,50.82045,-1.088157,200,OK
50.363256,-5.090089,TR8 5QE,Cornwall,South West,50.363256,-5.090089,200,OK
54.728992,-1.874908,,,,,,200,OK
52.267073,-2.147926,WR9 8AH,Wychavon,West Midlands,52.267073,-2.147926,200,OK
51.270883,0.523898,ME15 6LU,Maidstone,South East,51.270883,0.523898,200,OK
50.813699,-0.502929,BN16 3EQ,Arun,South East,50.813699,-0.502929,200,OK
50.868148,-1.39742,SO45 6GS,New Forest,South East,50.868046,-1.3969,200,OK
54.436729,-2.592125,CA10 3TR,Westmorland and Furness,North West,54.436783,-2.592126,200,OK
51.450712,-0.033428,SE4 1AW,Lewisham,London,51.450712,-0.033428,200,OK
51.567408,0.121959,RM6 4JH,Redbridge,London,51.567408,0.121959,200,OK
52.490749,-1.876244,B7 4QD,Birmingham,West Midlands,52.490476,-1.876888,200,OK
53.333748,-2.249234,,,,,,200,OK
54.550298,-1.19271,TS3 0EA,Middlesbrough,North East,54.550298,-1.19271,200,OK
53.405813,-2.1579,SK1 3NQ,Stockport,North West,53.40556,-2.157822,200,OK
51.665986,-4.727138,SA70 7NT,Pembrokeshire,,51.665986,-4.727138,200,OK
51.916359,-3.984046,SA19 7UR,Carmarthenshire,,51.916359,-3.984046,200,OK
51.476483,-0.968024,RG4 8PW,Reading,South East,51.476912,-0.967784,200,OK
52.173327,0.14231,CB2 0PY,Cambridge,East of England,52.173327,0.14231,200,OK
52.455038,0.048312,PE16 6NG,Fenland,East of England,52.455038,0.048312,200,OK
51.593323,-2.946941,NP19 9EX,Newport,,51.592826,-2.947306,200,OK
50.683493,-1.147153,PO36 0JE,Isle of Wight,South East,50.683493,-1.147153,200,OK
52.963544,-1.160678,NG1 4HH,Nottingham,East Midlands,52.963544,-1.160678,200,OK
57.134762,-2.0905,AB11 8EA,Aberdeen City,,57.134762,-2.0905,200,OK
52.25631,-0.808471,NN3 5AG,West Northamptonshire,East Midlands,52.25631,-0.808471,200,OK
52.276464,-0.826941,NN3 5NU,West Northamptonshire,East Midlands,52.276464,-0.826941,200,OK
51.769359,-0.586119,HP4 1TJ,Dacorum,East of England,51.769359,-0.586119,200,OK
55.947407,-4.761014,PA15 1PB,Inverclyde,,55.947666,-4.761158,200,OK
56.402107,-3.438504,PH1 5RN,Perth and Kinross,,56.401746,-3.439447,200,OK
52.545951,-0.283024,PE2 5SD,Peterborough,East of England,52.546042,-0.28305,200,OK
52.705125,-1.135178,LE7 7SP,Charnwood,East Midlands,52.705125,-1.135178,200,OK
53.267259,-1.907288,SK17 7AS,High Peak,East Midlands,53.267259,-1.907288,200,OK
53.803518,-2.93886,PR4 3NQ,Fylde,North West,53.803518,-2.93886,200,OK
50.229371,-5.244424,TR15 3EU,Cornwall,South West,50.229371,-5.244424,200,OK
51.405212,-0.021347,BR3 6LL,Bromley,London,51.405212,-0.021347,200,OK
52.902872,-1.483282,DE23 8SB,Derby,East Midlands,52.902872,-1.483282,200,OK
51.391214,-0.13056,CR9 3AS,Croydon,London,51.391214,-0.13056,200,OK
53.266338,-3.916188,LL34 6ER,Conwy,,53.266338,-3.916188,200,OK
51.500043,-0.540586,SL3 8BD,Slough,South East,51.500043,-0.540586,200,OK
51.660522,-1.864884,SN6 6FQ,Wiltshire,South West,51.660522,-1.864884,200,OK
56.005662,-2.784423,EH39 5AR,East Lothian,,56.005662,-2.784423,200,OK
51.757339,-0.336268,AL3 5HE,St Albans,East of England,51.757339,-0.336268,200,OK
51.79819,1.151178,CO15 3QG,Tendring,East of England,51.79819,1.151178,200,OK
51.72731,-0.297638,AL2 1JF,St Albans,East of England,51.72731,-0.297638,200,OK
51.478535,-0.650326,SL4 4LG,Windsor and Maidenhead,South East,51.478535,-0.650326,200,OK
51.831925,1.245109,CO13 9DE,Tendring,East of England,51.83201,1.245086,200,OK
51.885049,-1.231368,,,,,,200,OK
51.746116,-2.571071,GL15 6AP,Forest of Dean,South West,51.746116,-2.571071,200,OK
51.47606,0.33258,RM17 6ED,Thurrock,East of England,51.47606,0.33258,200,OK
51.377861,-2.437638,BA2 9BQ,Bath and North East Somerset,South West,51.378088,-2.436878,200,OK
53.251492,-1.918008,SK17 9DY,High Peak,East Midlands,53.251492,-1.918008,200,OK
53.37187,-1.565581,S10 4LT,Sheffield,Yorkshire and The Humber,53.37187,-1.565581,200,OK
51.542819,-0.259091,NW10 8RE,Brent,London,51.542819,-0.259091,200,OK
54.678298,-1.224137,TS26 9BL,Hartlepool,North East,54.678298,-1.224137,200,OK
55.065083,-3.576381,DG1 4EF,Dumfries and Galloway,,55.065083,-3.576381,200,OK
52.307967,-0.690035,NN8 4EE,North Northamptonshire,East Midlands,52.307967,-0.690035,200,OK
51.681385,-3.154169,,,,,,200,OK
51.908656,-0.182015,SG1 5HN,Stevenage,East of England,51.908656,-0.182015,200,OK
52.671712,-0.173871,PE6 0LJ,South Holland,East Midlands,52.671712,-0.173871,200,OK
52.249886,-0.482062,MK44 1DU,Bedford,East of England,52.249886,-0.482062,200,OK
55.003721,-1.71761,NE5 1QJ,Newcastle upon Tyne,North East,55.003721,-1.71761,200,OK
52.604441,1.735138,NR30 2LU,Great Yarmouth,East of England,52.604441,1.735138,200,OK
52.621545,-1.151419,LE3 2AG,Leicester,East Midlands,52.621545,-1.151419,200,OK
51.273592,0.415563,ME19 4NW,Tonbridge and Malling,South East,51.273592,0.415563,200,OK
53.265317,-2.574369,CW8 3PQ,Cheshire West and Chester,North West,53.265317,-2.574369,200,OK
54.635044,-2.725884,CA10 2EB,Westmorland and Furness,North West,54.635044,-2.725884,200,OK
51.2797,-2.78155,BS27 3HR,Somerset,South West,51.280058,-2.7819,200,OK
51.708341,-5.065236,SA73 3RU,Pembrokeshire,,51.708341,-5.065236,200,OK
51.180705,-0.011402,RH7 6DU,Tandridge,South East,51.180705,-0.011402,200,OK
51.909605,-0.4176,LU2 7BP,Luton,East of England,51.909605,-0.4176,200,OK
52.548032,-1.200331,LE9 1SW,Blaby,East Midlands,52.548032,-1.200331,200,OK
53.500689,-1.442758,S74 9DJ,Barnsley,Yorkshire and The Humber,53.500689,-1.442758,200,OK
51.651519,-0.713379,HP15 7LQ,Buckinghamshire,South East,51.651519,-0.713379,200,OK
56.40948,-5.465987,PA34 4EP,Argyll and Bute,,56.40948,-5.465987,200,OK
55.979357,-3.206667,EH5 3LB,City of Edinburgh,,55.979357,-3.206667,200,OK
52.956749,-1.205184,NG8 1JB,Nottingham,East Midlands,52.956749,-1.205184,200,OK
57.407452,-2.292175,AB53 8PS,Aberdeenshire,,57.407452,-2.292175,200,OK
51.535857,-0.343448,UB6 8SU,Ealing,London,51.535857,-0.343448,200,OK
53.776839,-0.304937,HU7 4XB,"Kingston upon Hull, City of",Yorkshire and The Humber,53.777164,-0.304969,200,OK
52.414782,-1.777244,B91 3DX,Solihull,West Midlands,52.414782,-1.777244,200,OK
51.527606,-0.093795,EC1V 8BD,Islington,London,51.527606,-0.093795,200,OK
51.515509,-0.178514,W2 3UY,Westminster,London,51.515509,-0.178514,200,OK
55.643127,-4.783659,KA21 5SD,North Ayrshire,,55.643127,-4.783659,200,OK
53.319225,-2.738929,WA7 4LY,Halton,North West,53.319225,-2.738929,200,OK
53.981551,-1.558352,HG2 0AG,North Yorkshire,Yorkshire and The Humber,53.981551,-1.558352,200,OK
56.712305,-2.464407,DD10 8HA,Angus,,56.711945,-2.46437,200,OK
51.403548,-1.326267,RG14 1BF,West Berkshire,South East,51.403501,-1.325981,200,OK
51.764973,-0.241109,AL10 9GT,Welwyn Hatfield,East of England,51.764973,-0.241109,200,OK
52.456937,-1.947786,B17 0EQ,Birmingham,West Midlands,52.456937,-1.947786,200,OK
51.513029,-0.101004,EC4V 5AQ,City of London,London,51.513029,-0.101004,200,OK
51.021368,-0.388857,RH13 0QE,Horsham,South East,51.021368,-0.388857,200,OK
53.834715,-0.782994,YO43 4HX,East Riding of Yorkshire,Yorkshire and The Humber,53.834715,-0.782994,200,OK
51.450552,-2.576181,,,,,,200,OK
51.598554,-0.243431,NW9 5NY,Barnet,London,51.598521,-0.243393,200,OK
53.695275,-1.500955,WF1 2QQ,Wakefield,Yorkshire and The Humber,53.695275,-1.500955,200,OK
54.007198,-1.550809,HG1 3BR,North Yorkshire,Yorkshire and The Humber,54.007198,-1.550809,200,OK
53.272299,-2.382556,WA16 9PH,Cheshire East,North West,53.272299,-2.382556,200,OK
51.41379,-2.614255,BS13 7SH,"Bristol, City of",South West,51.41379,-2.614255,200,OK
53.938914,-1.114252,YO24 2PU,York,Yorkshire and The Humber,53.938914,-1.114252,200,OK
51.51835,-0.13784,W1T 3JD,Westminster,London,51.51835,-0.13784,200,OK
50.434668,-3.568535,TQ4 5JY,Torbay,South West,50.434803,-3.568497,200,OK
54.712608,-6.697018,BT45 7TZ,Mid Ulster,,54.712608,-6.697018,200,OK
51.434309,-0.317084,TW10 7UG,Richmond upon Thames,London,51.434309,-0.317084,200,OK
53.381414,-2.355857,WA14 2NU,Trafford,North West,53.381414,-2.355857,200,OK
53.380283,-1.428712,,,,,,200,OK
52.735682,-2.714194,SY1 4UB,Shropshire,West Midlands,52.735706,-2.714192,200,OK
51.360436,0.031206,BR2 6BD,Bromley,London,51.360436,0.031206,200,OK
50.313796,-3.835875,TQ7 4JY,South Hams,South West,50.313796,-3.835875,200,OK
52.215186,-1.43411,CV47 2QP,Stratford-on-Avon,West Midlands,52.215186,-1.43411,200,OK
50.88768,-4.214532,EX21 5RG,Torridge,South West,50.88768,-4.214532,200,OK
50.259852,-5.281523,TR16 4JP,Cornwall,South West,50.259464,-5.281875,200,OK
51.642136,-0.739471,HP13 5LH,Buckinghamshire,South East,51.642136,-0.739471,200,OK
50.846813,-0.886536,PO18 8FE,Chichester,South East,50.846813,-0.886536,200,OK
52.292581,-0.248584,PE19 5ST,Huntingdonshire,East of England,52.292415,-0.248943,200,OK
52.05994,1.177431,IP4 4EA,Ipswich,East of England,52.05994,1.177431,200,OK
51.899516,-1.014289,HP18 0XL,Buckinghamshire,South East,51.899516,-1.014289,200,OK
54.23836,-0.420497,YO12 4UD,North Yorkshire,Yorkshire and The Humber,54.23836,-0.420497,200,OK
51.394471,-0.11943,CR7 6DQ,Croydon,London,51.394471,-0.11943,200,OK
51.406168,-2.75795,BS48 4AF,North Somerset,South West,51.406168,-2.75795,200,OK
50.393192,-4.146996,PL2 3PX,Plymouth,South West,50.392981,-4.146988,200,OK
53.18988,-0.5949,LN6 8QF,North Kesteven,East Midlands,53.18988,-0.5949,200,OK
52.242308,0.159446,CB24 6AU,South Cambridgeshire,East of England,52.242308,0.159446,200,OK
56.426273,-3.520959,PH1 3BF,Perth and Kinross,,56.426273,-3.520959,200,OK
52.611504,-1.614418,B78 1LT,North Warwickshire,West Midlands,52.611504,-1.614418,200,OK
51.827056,-0.38349,AL5 3HR,St Albans,East of England,51.827056,-0.38349,200,OK
55.100962,-5.005867,KA26 0NN,South Ayrshire,,55.100962,-5.005867,200,OK
55.974509,-3.168956,EH6 6SB,City of Edinburgh,,55.974509,-3.168956,200,OK
51.427306,-0.200958,SW19 7BD,Merton,London,51.427306,-0.200958,200,OK
50.912102,-1.304869,SO30 4AB,Eastleigh,South East,50.912102,-1.304869,200,OK
53.313814,-1.105673,S81 0QG,Bassetlaw,East Midlands,53.313814,-1.105673,200,OK
55.835249,-4.247662,G42 0QD,Glasgow City,,55.835194,-4.247707,200,OK
51.486388,0.011995,SE10 0SA,Greenwich,London,51.486388,0.011995,200,OK
51.461136,0.179534,DA1 4QS,Bexley,London,51.461136,0.179534,200,OK
51.819795,-0.81497,HP20 2NJ,Buckinghamshire,South East,51.819795,-0.81497,200,OK
51.565187,0.561263,SS7 5XU,Castle Point,East of England,51.565187,0.561263,200,OK
51.891883,-0.481787,LU4 0JH,Luton,East of England,51.891883,-0.481787,200,OK
51.673628,-2.420772,GL11 6DB,Stroud,South West,51.673628,-2.420772,200,OK
54.420232,-7.660937,BT94 2FF,Fermanagh and Omagh,,54.420232,-7.660937,200,OK
51.5819,0.170526,RM7 7EN,Havering,London,51.5819,0.170526,200,OK
54.155961,-6.323761,BT34 2BH,"Newry, Mourne and Down",,54.155961,-6.323761,200,OK
51.81712,-0.808323,HP20 1RF,Buckinghamshire,South East,51.81712,-0.808323,200,OK
50.682685,-1.089965,PO35 5PX,Isle of Wight,South East,50.682685,-1.089965,200,OK
52.951477,-1.127764,NG2 4LG,Nottingham,East Midlands,52.951659,-1.127654,200,OK
52.927947,-1.484096,DE1 3SZ,Derby,East Midlands,52.927947,-1.484096,200,OK
53.773716,-2.386102,BB5 5HH,Hyndburn,North West,53.773716,-2.386102,200,OK
52.571597,-1.178316,LE8 6NW,Blaby,East Midlands,52.57152,-1.178952,200,OK
53.375865,0.006964,LN11 0BZ,East Lindsey,East Midlands,53.375865,0.006964,200,OK
55.948778,-4.56123,G82 2DL,West Dunbartonshire,,55.948778,-4.56123,200,OK
50.874801,-1.110036,PO17 6HD,Winchester,South East,50.874801,-1.110036,200,OK
51.526309,-0.080961,EC2A 3QA,Hackney,London,51.526167,-0.080984,200,OK
55.910798,-4.199341,G64 1XU,East Dunbartonshire,,55.910798,-4.199341,200,OK
55.471264,-4.590068,KA8 0NW,South Ayrshire,,55.471264,-4.590068,200,OK
52.969553,-1.126239,NG3 3DF,Nottingham,East Midlands,52.969553,-1.126239,200,OK
57.508314,-1.775515,AB42 1JT,Aberdeenshire,,57.508576,-1.776165,200,OK
55.821548,-4.179981,G72 7BT,South Lanarkshire,,55.821579,-4.179791,200,OK
51.510379,-0.226376,W12 7FS,Hammersmith and Fulham,London,51.510352,-0.226238,200,OK
52.095579,-0.461276,MK42 6DG,Bedford,East of England,52.09559,-0.461239,200,OK
52.466517,-1.926358,B15 3TP,Birmingham,West Midlands,52.466733,-1.925224,200,OK
50.74159,-1.315573,PO31 8QP,Isle of Wight,South East,50.74159,-1.315573,200,OK
52.450358,-0.062912,PE26 2YF,Huntingdonshire,East of England,52.450358,-0.062912,200,OK
51.740798,-3.639261,SA11 5SF,Neath Port Talbot,,51.740798,-3.639261,200,OK
55.03783,-6.628511,BT51 4AJ,Causeway Coast and Glens,,55.03783,-6.628511,200,OK
52.347086,1.320653,IP21 5PZ,Mid Suffolk,East of England,52.347086,1.320653,200,OK
51.500923,-0.095888,SE1 1RB,Southwark,London,51.500923,-0.095888,200,OK
52.833748,-1.646847,DE13 0AY,East Staffordshire,West Midlands,52.833748,-1.646847,200,OK
54.349707,-6.268803,BT32 3JL,"Armagh City, Banbridge and Craigavon",,54.349959,-6.268823,200,OK
53.637093,-1.848511,HD7 4DX,Kirklees,Yorkshire and The Humber,53.637093,-1.848511,200,OK
52.968342,-2.171158,ST4 8HZ,Stoke-on-Trent,West Midlands,52.968342,-2.171158,200,OK
54.492776,-6.698913,BT71 6XT,Mid Ulster,,54.492956,-6.698954,200,OK
54.679544,-3.19559,CA12 4QP,Cumberland,North West,54.679552,-3.195579,200,OK
53.9319,-0.765577,YO42 2LL,East Riding of Yorkshire,Yorkshire and The Humber,53.9319,-0.765577,200,OK
52.218243,1.491892,IP17 1DY,East Suffolk,East of England,52.218243,1.491892,200,OK
54.871942,-1.390762,SR3 2YG,Sunderland,North East,54.871942,-1.390762,200,OK
51.885444,-1.125733,OX26 6HH,Cherwell,South East,51.885444,-1.125733,200,OK
51.716412,-3.439609,CF44 0PY,Rhondda Cynon Taf,,51.716412,-3.439609,200,OK
53.606181,-2.145545,OL16 5LL,Rochdale,North West,53.606181,-2.145545,200,OK
52.342446,-2.446572,,,,,,200,OK
54.572148,-1.22337,TS4 2FD,Middlesbrough,North East,54.572148,-1.22337,200,OK
55.783676,-4.092556,G72 0HU,South Lanarkshire,,55.783676,-4.092556,200,OK
50.784609,-3.642017,EX17 3FH,Mid Devon,South West,50.784609,-3.642017,200,OK
50.900832,-1.348136,SO19 8LY,Southampton,South East,50.900832,-1.348136,200,OK
52.625076,-0.245225,PE6 7SE,Peterborough,East of England,52.625076,-0.245225,200,OK
51.444043,-0.470294,TW15 3AJ,Spelthorne,South East,51.444043,-0.470294,200,OK
53.881788,-1.924302,BD20 6HN,Bradford,Yorkshire and The Humber,53.881788,-1.924302,200,OK
54.748824,-1.628129,DH7 8NQ,County Durham,North East,54.748824,-1.628129,200,OK
51.226427,-2.98831,TA8 1LU,Somerset,South West,51.226427,-2.98831,200,OK
53.447819,-2.96792,L9 1BN,Liverpool,North West,53.448232,-2.967915,200,OK
53.326879,0.04225,LN11 8FS,East Lindsey,East Midlands,53.326879,0.04225,200,OK
53.707513,-1.942245,HX6 1JP,Calderdale,Yorkshire and The Humber,53.707441,-1.942245,200,OK
55.795679,-4.334788,G46 7UL,Glasgow City,,55.795679,-4.334788,200,OK
51.672655,-4.915826,SA71 4EL,Pembrokeshire,,51.672655,-4.915826,200,OK
50.803914,-0.493123,BN16 2TT,Arun,South East,50.803914,-0.493123,200,OK
50.733777,-1.747795,BH23 3SN,"Bournemouth, Christchurch and Poole",South West,50.733777,-1.747795,200,OK
53.761229,-0.349681,HU5 1BA,"Kingston upon Hull, City of",Yorkshire and The Humber,53.761229,-0.349681,200,OK
52.9264,-1.515966,DE22 4BU,Derby,East Midlands,52.9264,-1.515966,200,OK
54.887417,-2.938838,CA2 5EU,Cumberland,North West,54.887417,-2.938838,200,OK
53.69813,-1.601051,WF12 7SY,Kirklees,Yorkshire and The Humber,53.69813,-1.601051,200,OK
51.515925,-0.143719,W1G 0AB,Westminster,London,51.515959,-0.143476,200,OK
51.706895,-3.264129,CF81 9HB,Caerphilly,,51.706895,-3.264129,200,OK
53.49872,-2.263874,M7 1LT,Salford,North West,53.49872,-2.263874,200,OK
52.485326,-1.851225,B8 3SU,Birmingham,West Midlands,52.485676,-1.85087,200,OK
54.432716,-2.962713,LA22 9DU,Westmorland and Furness,North West,54.432769,-2.962791,200,OK
52.957017,-2.107804,ST3 7PG,Stafford,West Midlands,52.957017,-2.107804,200,OK
54.737063,-1.64105,DH7 8ED,County Durham,North East,54.737063,-1.64105,200,OK
57.129648,-2.156281,AB15 7QQ,Aberdeen City,,57.129648,-2.156281,200,OK
51.512968,-0.092806,EC4N 1TX,City of London,London,51.512984,-0.092676,200,OK
51.571147,0.447226,SS15 5AP,Basildon,East of England,51.571147,0.447226,200,OK
53.038144,-2.188153,ST6 2HT,Stoke-on-Trent,West Midlands,53.038144,-2.188153,200,OK
50.818129,-1.982863,BH21 4HL,Dorset,South West,50.818165,-1.982792,200,OK
52.067785,1.129975,IP1 4BG,Ipswich,East of England,52.067785,1.129975,200,OK
54.57415,-5.558676,BT22 2GR,Ards and North Down,,54.57415,-5.558676,200,OK
57.441495,-2.217548,,,,,,200,OK
51.569489,0.443039,SS15 5EA,Basildon,East of England,51.569489,0.443039,200,OK
53.417515,-3.027298,CH44 8HQ,Wirral,North West,53.417533,-3.027313,200,OK
53.442642,-2.232889,M14 7FD,Manchester,North West,53.442642,-2.232889,200,OK
51.423593,-0.846398,RG41 1AJ,Wokingham,South East,51.423593,-0.846398,200,OK
55.951521,-4.766815,PA16 8JL,Inverclyde,,55.951504,-4.766798,200,OK
51.540643,-0.260948,NW10 8EY,Brent,London,51.540643,-0.260948,200,OK
51.330328,-2.602173,BS39 5XL,Bath and North East Somerset,South West,51.330346,-2.602188,200,OK
52.069921,1.127454,IP1 5BS,Ipswich,East of England,52.069915,1.127556,200,OK
57.586476,-3.869209,IV12 4NE,Highland,,57.586512,-3.869395,200,OK
53.284424,-3.3984,LL18 5SH,Denbighshire,,53.284424,-3.3984,200,OK
51.347657,0.534965,ME5 8ER,Medway,South East,51.347657,0.534965,200,OK
50.895127,-1.31601,SO31 8BE,Eastleigh,South East,50.895278,-1.315712,200,OK
51.912498,-0.436312,LU3 2LA,Luton,East of England,51.912498,-0.436312,200,OK
51.252388,-0.017726,RH8 9JT,Tandridge,South East,51.252388,-0.017726,200,OK
52.549771,-1.841392,B73 5UZ,Birmingham,West Midlands,52.549771,-1.841392,200,OK
51.703272,-0.363231,AL2 3XR,St Albans,East of England,51.703272,-0.363231,200,OK
53.422656,-3.074388,CH45 8LU,Wirral,North West,53.423133,-3.074325,200,OK
53.744131,-2.976524,,,,,,200,OK
51.615674,-0.256651,NW7 3RU,Barnet,London,51.615632,-0.256812,200,OK
54.671444,-2.877637,CA11 0TG,Westmorland and Furness,North West,54.671444,-2.877637,200,OK
55.741341,-3.976272,ML9 1DL,South Lanarkshire,,55.741329,-3.976259,200,OK
53.838794,-3.04915,FY2 9TL,Blackpool,North West,53.838794,-3.04915,200,OK
53.795604,-2.707004,PR2 9SS,Preston,North West,53.795604,-2.707004,200,OK
53.919101,-1.105353,YO23 2RR,York,Yorkshire and The Humber,53.919119,-1.105359,200,OK
53.386765,-2.559269,WA4 1SG,Warrington,North West,53.386765,-2.559269,200,OK
51.675122,-4.772875,SA70 8NB,Pembrokeshire,,51.675122,-4.772875,200,OK
51.961864,-0.682726,MK17 9AP,Buckinghamshire,South East,51.961864,-0.682726,200,OK
50.803744,0.262695,BN22 0SF,Eastbourne,South East,50.803744,0.262695,200,OK
51.533252,-0.376444,UB5 6BH,Ealing,London,51.533252,-0.376444,200,OK
54.922164,-1.423299,SR5 3FN,Sunderland,North East,54.922349,-1.422717,200,OK
53.267274,-3.059992,,,,,,200,OK
53.522709,-2.224882,M9 8FH,Manchester,North West,53.522709,-2.224882,200,OK
51.564272,-0.222894,NW2 6GW,Barnet,London,51.564238,-0.222856,200,OK
51.320113,-2.809043,BS25 1UG,Somerset,South West,51.320113,-2.809043,200,OK
53.957998,-1.078764,YO1 9XD,York,Yorkshire and The Humber,53.957998,-1.078764,200,OK
54.733797,-1.880701,DL13 3ET,County Durham,North East,54.733797,-1.880701,200,OK
54.066357,-2.828061,LA4 6NP,Lancaster,North West,54.066357,-2.828061,200,OK
59.101163,-3.301219,KW17 2NA,Orkney Islands,,59.101163,-3.301219,200,OK
51.573574,-0.076604,N16 5RT,Hackney,London,51.573574,-0.076604,200,OK
51.696423,0.468163,CM2 8QN,Chelmsford,East of England,51.696423,0.468163,200,OK
51.529673,-0.019877,E3 2TL,Tower Hamlets,London,51.529673,-0.019877,200,OK
52.620109,-2.057608,WV11 2NH,Wolverhampton,West Midlands,52.620109,-2.057608,200,OK
54.728309,-1.381939,TS28 5AR,County Durham,North East,54.728309,-1.381939,200,OK
53.759238,-1.59483,LS27 7PN,Leeds,Yorkshire and The Humber,53.759238,-1.59483,200,OK
51.61587,-1.78201,SN26 7DG,Swindon,South West,51.615941,-1.781822,200,OK
53.849899,-0.187205,HU11 4TU,East Riding of Yorkshire,Yorkshire and The Humber,53.849899,-0.187205,200,OK
51.898229,-2.102441,GL51 7EJ,Cheltenham,South West,51.898229,-2.102441,200,OK
51.438485,0.388468,DA12 2PE,Gravesham,South East,51.438485,0.388468,200,OK
52.99783,-0.415953,NG34 7QH,North Kesteven,East Midlands,52.99783,-0.415953,200,OK
51.292386,0.538086,ME14 3DN,Maidstone,South East,51.292386,0.538086,200,OK
52.567824,-1.10199,LE18 3TF,Oadby and Wigston,East Midlands,52.567217,-1.101324,200,OK
53.477056,-1.311245,S64 5UG,Rotherham,Yorkshire and The Humber,53.477102,-1.311246,200,OK
51.269425,1.055442,CT1 3WY,Canterbury,South East,51.269425,1.055442,200,OK
51.425534,0.097154,DA14 6NN,Bexley,London,51.425499,0.09711,200,OK
50.431025,-3.55853,TQ4 6EW,Torbay,South West,50.431025,-3.55853,200,OK
51.510068,-0.087552,EC4R 9AY,City of London,London,51.510414,-0.087811,200,OK
55.86322,-4.261264,G2 4QY,Glasgow City,,55.863114,-4.261388,200,OK
54.816505,-1.501349,DH4 6NX,County Durham,North East,54.816505,-1.501349,200,OK
51.483104,-0.172417,SW3 5AN,Kensington and Chelsea,London,51.483164,-0.17227,200,OK
54.062187,-2.797421,LA1 2DQ,Lancaster,North West,54.062187,-2.797421,200,OK
51.346834,-0.199383,SM2 6EF,Sutton,London,51.347028,-0.199117,200,OK
51.955428,-1.124198,OX27 8DU,Cherwell,South East,51.955428,-1.124198,200,OK
52.624798,-1.112053,LE2 1LF,Leicester,East Midlands,52.624781,-1.112075,200,OK
51.401177,-3.280967,CF62 7DT,Vale of Glamorgan,,51.401177,-3.280967,200,OK
51.809671,-0.796364,HP21 7PR,Buckinghamshire,South East,51.809671,-0.796364,200,OK
50.470491,-3.524471,TQ1 1JF,Torbay,South West,50.470491,-3.524471,200,OK
54.433235,-2.454997,CA17 4NZ,Westmorland and Furness,North West,54.433235,-2.454997,200,OK
52.432442,-1.920929,B30 2YP,Birmingham,West Midlands,52.432442,-1.920929,200,OK
51.516178,-0.229249,W12 0EZ,Hammersmith and Fulham,London,51.516178,-0.229249,200,OK
53.050362,-2.18121,ST6 7DW,Stoke-on-Trent,West Midlands,53.050362,-2.18121,200,OK
50.921215,-3.380249,EX16 7SN,Mid Devon,South West,50.921215,-3.380249,200,OK
52.09188,-1.833472,WR11 7PH,Wychavon,West Midlands,52.09188,-1.833472,200,OK
54.166032,-1.195382,,,,,,200,OK
52.646479,1.242791,NR5 0DQ,South Norfolk,East of England,52.646479,1.242791,200,OK
52.451984,0.61656,,,,,,200,OK
51.576169,-1.748721,SN3 4JP,Swindon,South West,51.576169,-1.748721,200,OK
53.551921,-0.979032,DN7 6BX,Doncaster,Yorkshire and The Humber,53.551921,-0.979032,200,OK
51.533743,0.091728,IG11 7YQ,Barking and Dagenham,London,51.533743,0.091728,200,OK
53.608653,-2.39546,BL2 4AT,Bolton,North West,53.608653,-2.39546,200,OK
53.259502,-1.909447,SK17 6BW,High Peak,East Midlands,53.259502,-1.909507,200,OK
51.398477,-0.109663,CR7 7DN,Croydon,London,51.398056,-0.109206,200,OK
53.078327,-2.498506,CW5 6NU,Cheshire East,North West,53.078327,-2.498506,200,OK
54.939681,-3.818453,DG5 4JE,Dumfries and Galloway,,54.939681,-3.818453,200,OK
53.540009,-2.94384,L31 4AE,Sefton,North West,53.540009,-2.94384,200,OK
51.160627,0.880383,TN24 9JB,Ashford,South East,51.160681,0.880431,200,OK
51.828044,-2.50202,GL14 2XQ,Forest of Dean,South West,51.827978,-2.502542,200,OK
56.225802,-2.682703,KY10 3AX,Fife,,56.225802,-2.682703,200,OK
53.292472,-3.249217,CH8 9ES,Flintshire,,53.292597,-3.249146,200,OK
51.455583,-1.025591,RG30 4LD,Reading,South East,51.455583,-1.025591,200,OK
51.727587,-1.213771,OX4 3QB,Oxford,South East,51.727197,-1.214632,200,OK
56.306308,-3.021227,KY15 5NU,Fife,,56.3063,-3.021229,200,OK
51.471433,-2.600877,BS6 7DZ,"Bristol, City of",South West,51.471433,-2.600877,200,OK
51.883911,-0.446254,LU1 1TD,Luton,East of England,51.883911,-0.446254,200,OK
53.253266,-2.13644,SK11 8HQ,Cheshire East,North West,53.253212,-2.13653,200,OK
51.586754,-1.428133,OX12 9BW,Vale of White Horse,South East,51.586754,-1.428133,200,OK
50.926503,0.707832,TN36 4HR,Rother,South East,50.926503,0.707832,200,OK
53.778991,-1.247812,LS25 5AR,North Yorkshire,Yorkshire and The Humber,53.778991,-1.247812,200,OK
53.619593,-0.209442,DN40 2LW,North East Lincolnshire,Yorkshire and The Humber,53.619593,-0.209442,200,OK
54.545653,-1.299774,TS17 8LQ,Stockton-on-Tees,North East,54.545653,-1.299774,200,OK
51.512793,-0.130486,W1D 5BT,Westminster,London,51.512793,-0.130486,200,OK
53.01711,-1.302236,NG16 3GD,Broxtowe,East Midlands,53.01711,-1.302236,200,OK
53.42849,-1.455773,S5 0JB,Sheffield,Yorkshire and The Humber,53.42849,-1.455773,200,OK
51.526636,-0.108309,EC1R 4QY,Islington,London,51.526685,-0.108524,200,OK
56.018619,-3.791079,FK2 7SN,Falkirk,,56.018619,-3.791079,200,OK
51.881076,0.808113,CO6 1BN,Colchester,East of England,51.881076,0.808113,200,OK
51.382877,-2.65987,BS40 8EP,North Somerset,South West,51.382896,-2.659683,200,OK
55.008766,-1.436693,NE30 1DQ,North Tyneside,North East,55.009342,-1.437199,200,OK
52.11914,1.154541,IP6 0QZ,Mid Suffolk,East of England,52.11914,1.154541,200,OK
51.66175,-0.398026,WD17 1DD,Watford,East of England,51.661808,-0.397691,200,OK
53.386561,-2.271929,M22 9QB,Manchester,North West,53.386561,-2.271929,200,OK
51.731655,-1.938761,GL7 5HF,Cotswold,South West,51.731655,-1.938761,200,OK
53.797814,-2.308167,BB12 8RP,Burnley,North West,53.797814,-2.308167,200,OK
51.603512,-0.24219,NW9 4AU,Barnet,London,51.603583,-0.242779,200,OK
56.46461,-4.319658,FK21 8XB,Stirling,,56.46461,-4.319658,200,OK
52.086202,-1.898808,WR11 7EJ,Wychavon,West Midlands,52.086202,-1.898808,200,OK
51.329761,0.433574,ME6 5RA,Tonbridge and Malling,South East,51.329761,0.433574,200,OK
53.527762,-2.71418,WN5 7AB,Wigan,North West,53.527762,-2.71418,200,OK
51.369743,0.493583,ME1 3FZ,Medway,South East,51.369743,0.493583,200,OK
57.601528,-3.626082,IV36 1FT,Moray,,57.60121,-3.625616,200,OK
53.903282,-1.089724,YO19 4RR,York,Yorkshire and The Humber,53.903571,-1.089908,200,OK
54.556831,-5.905844,BT8 6HT,Lisburn and Castlereagh,,54.556957,-5.905853,200,OK
51.261344,-1.120552,RG22 6PN,Basingstoke and Deane,South East,51.261344,-1.120552,200,OK
51.51858,-0.106726,EC1N 6TD,Camden,London,51.518601,-0.106772,200,OK
52.154593,-4.121558,SA48 8BA,Ceredigion,,52.154593,-4.121558,200,OK
50.859023,-0.963481,PO9 2PS,Havant,South East,50.859023,-0.963481,200,OK
51.424547,-0.015564,SE6 3AL,Lewisham,London,51.424547,-0.015564,200,OK
53.765563,-1.850143,BD13 2AN,Bradford,Yorkshire and The Humber,53.765581,-1.850811,200,OK
51.871077,-1.128263,OX25 2RU,Cherwell,South East,51.871077,-1.128263,200,OK
53.784868,-1.525592,LS10 1EQ,Leeds,Yorkshire and The Humber,53.784868,-1.525592,200,OK
51.587372,-0.00992,E17 3EW,Waltham Forest,London,51.587372,-0.00992,200,OK
52.250966,-0.877786,NN1 4RY,West Northamptonshire,East Midlands,52.250966,-0.877786,200,OK
52.064977,-1.366296,OX16 0HZ,Cherwell,South East,52.064977,-1.366296,200,OK
51.230303,0.498757,ME17 4FR,Maidstone,South East,51.230303,0.498757,200,OK
51.47745,-3.70389,CF36 3AP,Bridgend,,51.477496,-3.70391,200,OK
53.739939,-2.500227,BB2 2PB,Blackburn with Darwen,North West,53.739972,-2.500271,200,OK
52.033993,0.754304,CO10 0DX,Babergh,East of England,52.033993,0.754304,200,OK
52.180745,1.363515,IP13 0DZ,East Suffolk,East of England,52.180745,1.363515,200,OK
54.96117,-1.441544,NE34 9TL,South Tyneside,North East,54.96117,-1.441544,200,OK
51.624044,-3.933553,SA1 8DJ,Swansea,,51.624048,-3.9336,200,OK
51.449199,-2.569804,BS2 0SW,"Bristol, City of",South West,51.44886,-2.570736,200,OK
50.498099,-3.53695,TQ2 8QP,Torbay,South West,50.498099,-3.53695,200,OK
51.508678,-0.153986,W1K 7HG,Westminster,London,51.508678,-0.153986,200,OK
52.62769,-2.132698,WV10 6QR,Wolverhampton,West Midlands,52.62769,-2.132698,200,OK
54.819689,-2.234939,NE47 9JP,Northumberland,North East,54.819689,-2.234939,200,OK
51.299853,0.459206,ME20 6AY,Tonbridge and Malling,South East,51.299853,0.459206,200,OK
55.851334,-4.06531,ML5 5SF,North Lanarkshire,,55.851334,-4.06531,200,OK
56.033216,-3.366893,KY11 9XH,Fife,,56.033216,-3.366893,200,OK
51.52351,-0.129269,WC1H 0NS,Camden,London,51.52351,-0.129269,200,OK
51.436148,-0.025147,SE6 3JW,Lewisham,London,51.436148,-0.025147,200,OK
50.724194,-1.587689,SO41 0AX,New Forest,South East,50.724252,-1.586448,200,OK
52.086829,0.025845,SG8 6HB,South Cambridgeshire,East of England,52.087264,0.025805,200,OK
51.686047,-1.144347,OX44 7XE,South Oxfordshire,South East,51.686021,-1.144507,200,OK
50.997607,0.088159,TN22 2EJ,Wealden,South East,50.997607,0.088159,200,OK
51.598721,-0.090616,N17 7PX,Haringey,London,51.598721,-0.090616,200,OK
53.486046,-2.251543,M3 7EF,Salford,North West,53.486046,-2.251543,200,OK
51.549607,-0.145161,NW5 3AY,Camden,London,51.549607,-0.145161,200,OK
51.333326,-2.597935,BS39 5XE,Bath and North East Somerset,South West,51.333326,-2.597935,200,OK
53.418316,-2.171307,SK4 2PF,Stockport,North West,53.418316,-2.171307,200,OK
51.331388,-2.174041,BA14 7UA,Wiltshire,South West,51.331388,-2.174041,200,OK
51.931699,-1.718804,GL54 1DQ,Cotswold,South West,51.931736,-1.718982,200,OK
53.810388,-2.212859,BB10 2EZ,Burnley,North West,53.810388,-2.212859,200,OK
50.352949,-3.580013,TQ6 9JF,South Hams,South West,50.352949,-3.580013,200,OK
51.743369,0.474397,CM1 1RB,Chelmsford,East of England,51.743787,0.474188,200,OK
52.390053,-1.664164,CV7 7AL,Solihull,West Midlands,52.390053,-1.664164,200,OK
50.415225,-4.964658,TR8 4LP,Cornwall,South West,50.415225,-4.964658,200,OK
55.074028,-1.528586,NE25 0DL,Northumberland,North East,55.074028,-1.528586,200,OK
51.150176,-1.859839,,,,,,200,OK
55.214502,-3.875546,DG3 4LA,Dumfries and Galloway,,55.214502,-3.875546,200,OK
52.898945,-1.317916,DE72 3AY,Erewash,East Midlands,52.898945,-1.317916,200,OK
50.828903,-0.203765,BN3 4PQ,Brighton and Hove,South East,50.828732,-0.203771,200,OK
51.753705,-0.226711,AL10 8SE,Welwyn Hatfield,East of England,51.753828,-0.226712,200,OK
53.624182,-2.963969,PR8 5HR,West Lancashire,North West,53.623882,-2.964157,200,OK
53.339221,-2.848942,L24 1UA,Liverpool,North West,53.339221,-2.848942,200,OK
52.129275,-0.511424,MK40 4GR,Bedford,East of England,52.129275,-0.511424,200,OK
51.453226,-0.966634,RG1 4JB,Reading,South East,51.453018,-0.966409,200,OK
54.993106,-7.290359,BT47 5QP,Derry City and Strabane,,54.993224,-7.290575,200,OK
52.502248,-1.934813,B21 0SQ,Birmingham,West Midlands,52.502248,-1.934813,200,OK
53.812255,-1.553466,LS6 2RA,Leeds,Yorkshire and The Humber,53.812931,-1.55399,200,OK
51.619075,0.421445,CM12 9QH,Basildon,East of England,51.619075,0.421445,200,OK
53.7979,-1.494257,LS9 0TL,Leeds,Yorkshire and The Humber,53.797288,-1.494037,200,OK
54.213434,-1.13823,YO61 4AY,North Yorkshire,Yorkshire and The Humber,54.213434,-1.13823,200,OK
53.268792,-2.117646,SK10 2BU,Cheshire East,North West,53.268792,-2.117646,200,OK
52.409174,-1.846336,B90 2JA,Solihull,West Midlands,52.409174,-1.846336,200,OK
54.542152,-6.67007,BT71 4QD,Mid Ulster,,54.542152,-6.67007,200,OK
53.716632,-1.882713,HX1 3PZ,Calderdale,Yorkshire and The Humber,53.716632,-1.882713,200,OK
54.663033,-1.221668,TS25 5HD,Hartlepool,North East,54.66315,-1.221665,200,OK
50.410381,-5.099308,TR7 1QG,Cornwall,South West,50.410381,-5.099308,200,OK
52.609656,-1.946676,WS4 1HP,Walsall,West Midlands,52.609656,-1.946676,200,OK
53.727666,-1.888851,HX2 0EX,Calderdale,Yorkshire and The Humber,53.728061,-1.888198,200,OK
53.51682,-2.509071,M46 0PQ,Wigan,North West,53.51682,-2.509071,200,OK
52.181853,-0.397321,MK44 2QB,Bedford,East of England,52.181853,-0.397321,200,OK
51.317124,-0.601859,GU21 8AR,Woking,South East,51.317115,-0.601874,200,OK
52.051938,1.180991,IP3 8BZ,Ipswich,East of England,52.051938,1.180991,200,OK
50.129715,-5.505334,TR20 8HX,Cornwall,South West,50.13026,-5.505135,200,OK
52.009123,-2.120017,GL20 8SW,Tewkesbury,South West,52.009123,-2.120017,200,OK
53.276504,-2.764077,WA6 0PL,Cheshire West and Chester,North West,53.276504,-2.764077,200,OK
53.427082,-1.018461,DN10 6HN,Doncaster,Yorkshire and The Humber,53.427082,-1.018461,200,OK
54.07298,-1.996882,BD23 5AA,North Yorkshire,Yorkshire and The Humber,54.07298,-1.996882,200,OK
50.794906,-3.130637,,,,,,200,OK
51.531003,0.22363,RM13 9EJ,Havering,London,51.531003,0.22363,200,OK
51.427217,-0.442878,TW15 1LX,Spelthorne,South East,51.427307,-0.443551,200,OK
53.735559,-2.519928,BB2 5GX,Blackburn with Darwen,North West,53.735259,-2.520088,200,OK
52.274956,-0.861161,NN3 6QB,West Northamptonshire,East Midlands,52.274507,-0.860644,200,OK
52.740272,-1.481844,LE65 2PA,North West Leicestershire,East Midlands,52.740272,-1.481844,200,OK
53.83423,-1.593666,LS16 5LN,Leeds,Yorkshire and The Humber,53.83423,-1.593666,200,OK
52.318039,-2.461469,WR15 8JS,Malvern Hills,West Midlands,52.318039,-2.461469,200,OK
53.269145,-3.918323,LL34 6YJ,Conwy,,53.269145,-3.918323,200,OK
53.177273,-0.590463,LN6 9SZ,North Kesteven,East Midlands,53.177273,-0.590463,200,OK
56.034354,-2.825158,EH31 2HL,East Lothian,,56.034354,-2.825158,200,OK
52.2089,-0.897052,NN4 0XB,West Northamptonshire,East Midlands,52.2089,-0.897052,200,OK
54.915429,-1.815022,NE17 7EQ,Gateshead,North East,54.915429,-1.815022,200,OK
54.645958,-1.935535,DL13 5NL,County Durham,North East,54.645958,-1.935535,200,OK
55.770798,-3.965216,ML1 2LY,North Lanarkshire,,55.770798,-3.965216,200,OK
52.712465,-2.045977,WS12 4UY,South Staffordshire,West Midlands,52.712465,-2.045977,200,OK
53.155527,-1.311598,NG17 3JH,Ashfield,East Midlands,53.156104,-1.311828,200,OK
51.262474,-1.796898,SN9 6AR,Wiltshire,South West,51.262474,-1.796898,200,OK
53.233114,-1.204809,NG20 9BP,Bolsover,East Midlands,53.233114,-1.204809,200,OK
52.917861,-1.251064,NG9 5NN,Broxtowe,East Midlands,52.917861,-1.251064,200,OK
53.558564,-3.048527,L37 8DH,Sefton,North West,53.558564,-3.048527,200,OK
51.059951,0.257969,TN6 3PH,Wealden,South East,51.059833,0.25792,200,OK
53.024083,-2.177969,ST1 1HX,Stoke-on-Trent,West Midlands,53.023975,-2.177983,200,OK
51.78424,-0.205231,AL7 4TZ,Welwyn Hatfield,East of England,51.78424,-0.205231,200,OK
51.556842,-0.216822,NW2 6GS,Brent,London,51.556738,-0.216903,200,OK
50.882068,-2.135742,DT11 8UB,Dorset,South West,50.882061,-2.135737,200,OK
51.672859,-0.026192,EN3 6DZ,Enfield,London,51.672859,-0.026192,200,OK
50.947309,-2.530177,DT9 6EX,Dorset,South West,50.947202,-2.530176,200,OK
54.566352,-5.915531,BT7 3JL,Belfast,,54.566352,-5.915531,200,OK
52.715665,-2.499349,TF1 6XT,Telford and Wrekin,West Midlands,52.71561,-2.499467,200,OK
54.981639,-1.680202,NE5 2JL,Newcastle upon Tyne,North East,54.981639,-1.680202,200,OK
51.48406,-0.282689,TW9 3BG,Richmond upon Thames,London,51.48406,-0.282689,200,OK
50.07252,-5.578755,TR19 6NZ,Cornwall,South West,50.07294,-5.578856,200,OK
54.561691,-5.982962,BT10 0BL,Belfast,,54.561691,-5.982962,200,OK
50.388388,-4.142165,PL3 4LW,Plymouth,South West,50.388388,-4.142165,200,OK
53.52666,-2.422225,M28 0YG,Salford,North West,53.527227,-2.421944,200,OK
51.61269,-3.959907,SA1 3UP,Swansea,,51.61269,-3.959907,200,OK
51.537367,-0.044288,E9 7HJ,Hackney,London,51.537367,-0.044288,200,OK
51.944379,-0.025075,SG9 9DR,East Hertfordshire,East of England,51.944881,-0.024442,200,OK
53.403054,-3.152111,CH47 7BQ,Wirral,North West,53.40292,-3.152077,200,OK
52.262842,-1.546798,CV34 6SF,Warwick,West Midlands,52.262842,-1.546798,200,OK
52.958244,-1.14939,NG1 3FB,Nottingham,East Midlands,52.958307,-1.149404,200,OK
52.549028,0.075551,PE15 9FE,Fenland,East of England,52.549028,0.075551,200,OK
53.201326,-2.871829,CH2 3NB,Cheshire West and Chester,North West,53.201464,-2.871412,200,OK
53.377315,-1.443422,S2 5FD,Sheffield,Yorkshire and The Humber,53.377368,-1.443361,200,OK
57.153524,-2.300301,AB32 6JA,Aberdeenshire,,57.153524,-2.300301,200,OK
51.554942,-0.000762,E11 4HA,Waltham Forest,London,51.555025,-0.000889,200,OK
50.853207,-0.743948,PO18 0SH,Chichester,South East,50.853207,-0.743948,200,OK
52.311058,1.21861,IP21 5DP,Mid Suffolk,East of England,52.311147,1.218645,200,OK
55.998834,-3.800763,FK1 5JG,Falkirk,,55.998834,-3.800763,200,OK
53.041852,-2.973253,LL13 8TU,Wrexham,,53.041852,-2.973253,200,OK
51.381668,-2.661171,BS40 8EL,North Somerset,South West,51.381397,-2.660811,200,OK
53.131936,0.338641,PE25 3DA,East Lindsey,East Midlands,53.131936,0.338641,200,OK
50.819817,-0.863285,PO18 8QN,Chichester,South East,50.819817,-0.863285,200,OK
50.810204,-3.195508,EX14 4TG,East Devon,South West,50.810195,-3.195508,200,OK
53.260466,-2.119751,SK10 1GF,Cheshire East,North West,53.260466,-2.119751,200,OK
50.912087,-1.41001,SO15 2GB,Southampton,South East,50.912087,-1.41001,200,OK
52.481326,-0.732147,NN18 0TL,North Northamptonshire,East Midlands,52.481232,-0.731825,200,OK
51.483013,-2.493065,BS16 5QN,South Gloucestershire,South West,51.483013,-2.493065,200,OK
53.466563,-2.968663,L9 8ES,Liverpool,North West,53.466563,-2.968663,200,OK
50.716484,-3.074021,EX12 2EF,East Devon,South West,50.716484,-3.074021,200,OK
51.461708,-2.585793,BS2 8RD,"Bristol, City of",South West,51.4617,-2.585721,200,OK
51.594627,-0.267823,NW9 0QN,Brent,London,51.594627,-0.267823,200,OK
53.449399,-2.650826,WA12 9GZ,St. Helens,North West,53.44933,-2.650268,200,OK
57.396267,-3.339763,AB37 9EA,Moray,,57.396267,-3.339763,200,OK
53.313493,-3.832614,LL30 1HW,Conwy,,53.313493,-3.832614,200,OK
52.185485,-2.231948,WR2 4AE,Worcester,West Midlands,52.185485,-2.231948,200,OK
52.727918,-1.341762,LE67 5DW,North West Leicestershire,East Midlands,52.728135,-1.341942,200,OK
51.336699,1.415181,CT11 9TZ,Thanet,South East,51.336706,1.415207,200,OK
51.553829,-0.111062,N7 7DD,Islington,London,51.553829,-0.111062,200,OK
53.600755,-3.041517,PR8 3JN,Sefton,North West,53.600755,-3.041517,200,OK
52.097471,-2.012465,,,,,,200,OK
53.806982,-1.586929,LS4 2EZ,Leeds,Yorkshire and The Humber,53.807127,-1.587186,200,OK
50.851894,-0.974904,PO9 2RJ,Havant,South East,50.851894,-0.974904,200,OK
55.846468,-4.159747,G32 9TG,Glasgow City,,55.846468,-4.159747,200,OK
53.244168,-2.441107,CW9 7TA,Cheshire West and Chester,North West,53.244168,-2.441107,200,OK
57.658913,-3.3107,IV30 4HJ,Moray,,57.659087,-3.310388,200,OK
50.735678,-3.125093,,,,,,200,OK
53.374089,-1.225787,S25 3QB,Rotherham,Yorkshire and The Humber,53.374009,-1.225714,200,OK
50.71116,-3.562223,EX2 9PS,Exeter,South West,50.71116,-3.562223,200,OK
51.523079,-0.117524,WC1N 3EW,Camden,London,51.523079,-0.117524,200,OK
51.070074,-2.105536,SP3 6SG,Wiltshire,South West,51.070437,-2.104874,200,OK
54.937529,-2.734831,CA8 1QE,Cumberland,North West,54.937529,-2.734831,200,OK
51.346019,0.256308,TN15 6EP,Sevenoaks,South East,51.346019,0.256308,200,OK
53.738959,-1.594434,LS27 9HH,Leeds,Yorkshire and The Humber,53.738959,-1.594434,200,OK
50.907008,-3.479336,EX16 6DE,Mid Devon,South West,50.907008,-3.479336,200,OK
51.044513,-2.043627,SP3 5QH,Wiltshire,South West,51.044513,-2.043627,200,OK
55.903596,-3.207992,EH10 6RN,City of Edinburgh,,55.903596,-3.207992,200,OK
51.697038,-0.206657,EN6 3HB,Hertsmere,East of England,51.697038,-0.206657,200,OK
52.764058,1.355582,NR10 5DF,North Norfolk,East of England,52.764058,1.355582,200,OK
51.231763,-0.573123,GU1 3XJ,Guildford,South East,51.231763,-0.573123,200,OK
51.292371,-0.21567,KT20 6NX,Reigate and Banstead,South East,51.292371,-0.21567,200,OK
55.89622,-4.357638,G13 3LE,Glasgow City,,55.89622,-4.357638,200,OK
52.732598,-2.726125,SY1 4LP,Shropshire,West Midlands,52.732598,-2.726125,200,OK
53.932549,-1.404125,LS22 6XY,Leeds,Yorkshire and The Humber,53.932549,-1.404125,200,OK
52.244772,1.23243,IP13 7ET,Mid Suffolk,East of England,52.244772,1.23243,200,OK
53.448683,-2.208575,M13 0XD,Manchester,North West,53.448683,-2.208575,200,OK
51.624199,-3.805297,SA12 8LY,Neath Port Talbot,,51.624199,-3.805297,200,OK
57.486876,-4.148289,IV2 7LR,Highland,,57.486876,-4.148289,200,OK
53.527627,-1.08953,DN2 6NJ,Doncaster,Yorkshire and The Humber,53.527627,-1.08953,200,OK
54.863586,-6.180652,BT42 4QT,Mid and East Antrim,,54.863957,-6.179669,200,OK
52.619112,1.391952,NR13 5FN,Broadland,East of England,52.619112,1.391952,200,OK
51.58141,-1.309094,OX11 0TR,Vale of White Horse,South East,51.581523,-1.310001,200,OK
55.878974,-4.37733,PA4 8YW,Renfrewshire,,55.878974,-4.37733,200,OK
54.196016,-1.55807,HG4 5LN,North Yorkshire,Yorkshire and The Humber,54.196016,-1.55807,200,OK
52.97251,-3.077052,LL14 3BD,Wrexham,,52.97251,-3.077052,200,OK
52.137847,-0.514587,MK40 4BL,Bedford,East of England,52.137842,-0.514596,200,OK
52.74305,0.246215,PE14 7LT,King's Lynn and West Norfolk,East of England,52.74305,0.246215,200,OK
52.454801,-0.878749,LE16 8LD,North Northamptonshire,East Midlands,52.454801,-0.878749,200,OK
53.455745,-2.13432,M34 3SH,Tameside,North West,53.455611,-2.133311,200,OK
53.164018,-1.17903,NG19 9FB,Mansfield,East Midlands,53.164018,-1.17903,200,OK
51.441111,-2.602567,BS3 1EN,"Bristol, City of",South West,51.441111,-2.602567,200,OK
50.412782,-4.085724,PL6 8SQ,Plymouth,South West,50.412782,-4.085724,200,OK
53.410375,-2.355979,M33 4LQ,Trafford,North West,53.410375,-2.355979,200,OK
50.792507,-0.011478,BN10 7HN,Lewes,South East,50.792246,-0.011475,200,OK
52.765977,-1.23485,LE11 3TH,Charnwood,East Midlands,52.766061,-1.235248,200,OK
50.61144,-2.453549,DT4 8DE,Dorset,South West,50.611438,-2.453545,200,OK
50.849855,-0.144969,BN1 6QF,Brighton and Hove,South East,50.849855,-0.144969,200,OK
51.99159,-3.800961,SA20 0AY,Carmarthenshire,,51.99159,-3.800961,200,OK
52.852776,-1.56227,DE65 6DA,South Derbyshire,East Midlands,52.852794,-1.56227,200,OK
52.830421,0.852085,NR21 8AU,North Norfolk,East of England,52.830421,0.852085,200,OK
51.444032,-3.167426,CF64 1DX,Vale of Glamorgan,,51.444032,-3.167426,200,OK
53.490874,-2.356909,M30 8AF,Salford,North West,53.490874,-2.356909,200,OK
52.400875,-1.481638,CV3 1PA,Coventry,West Midlands,52.400875,-1.481638,200,OK
50.983401,-0.893611,GU31 5PB,Chichester,South East,50.983401,-0.893611,200,OK
51.318969,-0.607353,GU21 9DQ,Woking,South East,51.318969,-0.607353,200,OK
54.6329,-5.534338,BT21 0LF,Ards and North Down,,54.6329,-5.534338,200,OK
52.993092,-2.117251,ST3 5YW,Stoke-on-Trent,West Midlands,52.993092,-2.117251,200,OK
51.274785,-0.758017,GU14 6FJ,Rushmoor,South East,51.274785,-0.758017,200,OK
51.428966,-2.573881,BS4 2XN,"Bristol, City of",South West,51.428746,-2.574369,200,OK
53.445747,-2.064099,SK14 5NB,Tameside,North West,53.445747,-2.064099,200,OK
52.704757,-1.059829,LE7 3FP,Charnwood,East Midlands,52.70496,-1.059094,200,OK
54.903593,-5.019044,DG9 8AJ,Dumfries and Galloway,,54.903593,-5.019044,200,OK
53.797802,-1.641765,LS13 4QW,Leeds,Yorkshire and The Humber,53.797802,-1.641765,200,OK
52.00561,-2.126993,GL20 8GD,Tewkesbury,South West,52.00561,-2.126993,200,OK
51.136199,0.278369,TN2 3PX,Tunbridge Wells,South East,51.136199,0.278369,200,OK
51.523687,-0.140391,W1T 6DY,Camden,London,51.523687,-0.140391,200,OK
51.643302,-0.299833,WD6 3DU,Hertsmere,East of England,51.643302,-0.299833,200,OK
54.132245,-3.201271,LA13 9LE,Westmorland and Furness,North West,54.132245,-3.201271,200,OK
55.860866,-4.258299,G1 3RP,Glasgow City,,55.86084,-4.258234,200,OK
52.607749,-1.659453,B77 5PJ,Tamworth,West Midlands,52.607749,-1.659453,200,OK
51.38258,0.48458,ME2 2ZB,Medway,South East,51.38258,0.48458,200,OK
55.452376,-2.636196,TD9 8TE,Scottish Borders,,55.452376,-2.636196,200,OK
51.667862,-2.800976,NP16 6BA,Monmouthshire,,51.667958,-2.800391,200,OK
52.489984,-1.838529,B8 3LU,Birmingham,West Midlands,52.489984,-1.838529,200,OK
53.38428,-2.479554,WA13 9DQ,Warrington,North West,53.383973,-2.479926,200,OK
52.259666,-1.161206,NN11 4FF,West Northamptonshire,East Midlands,52.259657,-1.161206,200,OK
53.818799,-1.534592,LS7 3DS,Leeds,Yorkshire and The Humber,53.818799,-1.534592,200,OK
51.474049,-0.908771,RG4 6XA,Wokingham,South East,51.474067,-0.908785,200,OK
55.129366,-3.443116,DG11 1PH,Dumfries and Galloway,,55.129366,-3.443116,200,OK
50.863769,0.590866,TN34 3LG,Hastings,South East,50.863708,0.590791,200,OK
55.814605,-4.360042,G53 6SG,Glasgow City,,55.814605,-4.360042,200,OK
51.023057,0.271562,TN20 6UH,Wealden,South East,51.023057,0.271562,200,OK
53.496317,-2.269316,M7 2GB,Salford,North West,53.496317,-2.269316,200,OK
51.516222,-0.213206,W11 1RE,Kensington and Chelsea,London,51.516222,-0.213206,200,OK
55.712386,-4.094887,ML10 6SD,South Lanarkshire,,55.712386,-4.094887,200,OK
57.193617,-2.113827,AB22 8SQ,Aberdeen City,,57.193644,-2.113744,200,OK
51.513186,-0.152478,W1K 6TN,Westminster,London,51.513186,-0.152478,200,OK
52.823161,-1.146194,LE12 6XB,Rushcliffe,East Midlands,52.823161,-1.146194,200,OK
52.012172,-0.221027,SG5 4PQ,Central Bedfordshire,East of England,52.012172,-0.221027,200,OK
53.379801,-2.150483,SK7 3PT,Stockport,North West,53.379801,-2.150483,200,OK
52.903569,-2.148453,ST15 8AB,Stafford,West Midlands,52.903569,-2.148453,200,OK
55.863171,-4.258545,G2 2BA,Glasgow City,,55.863145,-4.258689,200,OK
51.517168,-0.184631,W2 6BN,Westminster,London,51.517049,-0.185068,200,OK
55.939079,-3.409444,EH28 8SR,City of Edinburgh,,55.939079,-3.409444,200,OK
52.763,0.945723,NR20 5LB,Breckland,East of England,52.763,0.945723,200,OK
55.931058,-4.125731,G66 3QT,East Dunbartonshire,,55.931058,-4.125731,200,OK
53.492238,-2.654287,WN4 9RB,Wigan,North West,53.492219,-2.654392,200,OK
51.505803,-0.061087,E1W 2QR,Tower Hamlets,London,51.505786,-0.061174,200,OK
52.47828,-1.895257,B2 4NB,Birmingham,West Midlands,52.47828,-1.895257,200,OK
52.700233,-2.429488,TF2 9FW,Telford and Wrekin,West Midlands,52.700233,-2.429488,200,OK
52.196158,0.672932,IP29 4UA,West Suffolk,East of England,52.196158,0.672932,200,OK
51.522453,-3.131407,CF3 4JG,Cardiff,,51.52278,-3.131992,200,OK
51.523921,0.026277,E13 8QB,Newham,London,51.523921,0.026277,200,OK
50.811769,-0.379982,BN11 4DA,Worthing,South East,50.811866,-0.379836,200,OK
50.142405,-5.091263,TR11 4QH,Cornwall,South West,50.142405,-5.091263,200,OK
55.942248,-3.287361,EH12 7TH,City of Edinburgh,,55.942248,-3.287361,200,OK
55.2442,-3.767798,DG3 5LN,Dumfries and Galloway,,55.2442,-3.767798,200,OK
51.078579,-0.308494,RH12 4AZ,Horsham,South East,51.078579,-0.308494,200,OK
53.842898,-1.831873,BD16 1DU,Bradford,Yorkshire and The Humber,53.842898,-1.831873,200,OK
53.500134,-2.270606,M7 2HR,Salford,North West,53.500134,-2.270576,200,OK
51.389937,-0.777339,RG40 3EE,Bracknell Forest,South East,51.389937,-0.777339,200,OK
53.257973,-1.918625,SK17 6BE,High Peak,East Midlands,53.257973,-1.918625,200,OK
51.586253,-0.068331,N15 4RH,Haringey,London,51.586253,-0.068331,200,OK
53.264764,-2.538814,CW8 4SQ,Cheshire West and Chester,North West,53.264764,-2.538814,200,OK
55.462033,-4.631719,KA7 1QJ,South Ayrshire,,55.462,-4.631632,200,OK
51.018711,-4.18916,EX39 4FT,Torridge,South West,51.018711,-4.18916,200,OK
50.905201,-1.39643,SO14 1NX,Southampton,South East,50.905076,-1.396517,200,OK
50.262954,-5.058118,TR1 3HX,Cornwall,South West,50.262954,-5.058118,200,OK
50.780331,-2.993115,EX13 5BD,East Devon,South West,50.780331,-2.993115,200,OK
50.921618,-1.353721,SO18 6PJ,Southampton,South East,50.921618,-1.353721,200,OK
52.350122,-1.575735,CV8 2GH,Warwick,West Midlands,52.350122,-1.575735,200,OK
50.710282,-4.351139,PL15 9RQ,Torridge,South West,50.710282,-4.351139,200,OK
52.02358,-0.768195,MK5 8HJ,Milton Keynes,South East,52.02358,-0.768195,200,OK
52.702217,-2.51392,TF1 3AY,Telford and Wrekin,West Midlands,52.702217,-2.51392,200,OK
55.8652,-3.674511,EH47 8JT,West Lothian,,55.8652,-3.674511,200,OK
54.139527,-1.52525,HG4 2HY,North Yorkshire,Yorkshire and The Humber,54.139527,-1.52525,200,OK
53.677508,-2.659578,PR7 7ER,Chorley,North West,53.677508,-2.659578,200,OK
51.485407,-3.164407,CF24 0AD,Cardiff,,51.485398,-3.164421,200,OK
57.612529,-2.42611,,,,,,200,OK
53.538182,-2.707686,WN5 8RS,Wigan,North West,53.538182,-2.707686,200,OK
51.468094,-2.563115,BS5 6JL,"Bristol, City of",South West,51.468094,-2.563115,200,OK
57.191291,-2.102403,AB23 8QS,Aberdeen City,,57.191121,-2.102452,200,OK
51.508964,-0.026323,E14 8SD,Tower Hamlets,London,51.508964,-0.026323,200,OK
53.951112,-1.098718,YO24 1GE,York,Yorkshire and The Humber,53.951112,-1.098718,200,OK
51.994012,-0.731391,MK2 2RU,Milton Keynes,South East,51.994344,-0.731215,200,OK
51.951894,-0.024934,SG9 9AZ,East Hertfordshire,East of England,51.951894,-0.024934,200,OK
50.847098,-1.776929,BH24 1WH,New Forest,South East,50.847098,-1.776929,200,OK
52.297891,-1.582234,CV34 5RQ,Warwick,West Midlands,52.297891,-1.582234,200,OK
53.711059,-2.251097,BB4 9NS,Rossendale,North West,53.711059,-2.251097,200,OK
53.174106,-2.441224,CW10 0GP,Cheshire East,North West,53.174106,-2.441224,200,OK
53.402851,-1.358965,S60 5LU,Rotherham,Yorkshire and The Humber,53.402851,-1.358965,200,OK
53.518151,-2.127838,OL8 3SQ,Oldham,North West,53.518151,-2.127838,200,OK
51.405604,-3.220017,CF64 5TJ,Vale of Glamorgan,,51.405604,-3.220074,200,OK
51.51687,-0.146563,W1G 9QD,Westminster,London,51.516903,-0.146389,200,OK
51.613821,-3.412428,CF39 9BQ,Rhondda Cynon Taf,,51.614229,-3.412364,200,OK
52.646687,-2.013496,WS6 6AP,South Staffordshire,West Midlands,52.646687,-2.013496,200,OK
51.914298,-2.600971,HR9 6BE,"Herefordshire, County of",West Midlands,51.914298,-2.600971,200,OK
55.969315,-3.308496,EH4 6GX,City of Edinburgh,,55.969559,-3.308296,200,OK
55.045563,-2.731957,CA6 6JX,Cumberland,North West,55.045563,-2.731957,200,OK
51.460692,-0.127247,SW4 7PB,Lambeth,London,51.460692,-0.127247,200,OK
51.431678,-3.183539,CF64 3JN,Vale of Glamorgan,,51.431696,-3.183482,200,OK
51.288289,1.094923,CT1 1ZH,Canterbury,South East,51.288289,1.094923,200,OK
50.719167,-3.523291,EX2 4ER,Exeter,South West,50.719167,-3.523291,200,OK
52.240876,-3.377452,LD1 5DL,Powys,,52.240931,-3.37749,200,OK
50.850884,-0.982839,PO9 1EE,Havant,South East,50.850973,-0.982724,200,OK
56.472666,-2.953794,DD4 6NN,Dundee City,,56.472666,-2.953794,200,OK
52.258924,-1.160502,NN11 4WN,West Northamptonshire,East Midlands,52.258772,-1.160871,200,OK
52.920423,-1.471929,DE1 2NG,Derby,East Midlands,52.920423,-1.471929,200,OK
55.629202,-4.737405,,,,,,200,OK
53.376385,-3.02061,CH42 5PT,Wirral,North West,53.376265,-3.020983,200,OK
53.378264,-3.179553,CH48 5HN,Wirral,North West,53.378264,-3.179553,200,OK
50.505957,-3.61092,TQ12 5PD,Teignbridge,South West,50.505957,-3.61092,200,OK
52.593064,-1.05515,LE2 4UE,Oadby and Wigston,East Midlands,52.593064,-1.05515,200,OK
54.943928,-1.563031,,,,,,200,OK
52.58652,-1.821496,B75 5DB,Birmingham,West Midlands,52.58652,-1.821496,200,OK
53.304957,-4.617955,LL65 2PW,Isle of Anglesey,,53.304957,-4.617955,200,OK
51.950269,-2.062329,GL52 8BT,Tewkesbury,South West,51.950269,-2.062329,200,OK
51.320533,-0.287726,KT21 1HA,Mole Valley,South East,51.320533,-0.287726,200,OK
50.902476,-1.202872,PO17 5NZ,Winchester,South East,50.902476,-1.202872,200,OK
51.659941,0.081414,IG10 2LL,Epping Forest,East of England,51.659941,0.081414,200,OK
52.315333,-0.230413,PE28 4LJ,Huntingdonshire,East of England,52.315324,-0.230428,200,OK
54.923148,-6.481929,BT44 8RN,Causeway Coast and Glens,,54.923205,-6.481521,200,OK
51.605718,-0.233667,NW7 2AZ,Barnet,London,51.605718,-0.233667,200,OK
50.723071,-1.595746,SO41 0WQ,New Forest,South East,50.723071,-1.595746,200,OK
51.518698,0.118829,IG11 0YP,Barking and Dagenham,London,51.518698,0.118829,200,OK
54.329389,-2.746994,LA9 4LU,Westmorland and Furness,North West,54.329265,-2.746686,200,OK
57.445945,-2.778253,AB54 8HF,Aberdeenshire,,57.445945,-2.778253,200,OK
51.416581,-2.623413,BS13 8EE,"Bristol, City of",South West,51.416581,-2.623413,200,OK
52.61806,-1.688302,B77 1DW,Tamworth,West Midlands,52.618088,-1.688892,200,OK
51.490074,-0.138157,SW1V 2DX,Westminster,London,51.489998,-0.138409,200,OK
51.563886,0.148517,RM8 1LR,Barking and Dagenham,London,51.563886,0.148517,200,OK
50.501351,-4.298012,PL17 8AA,Cornwall,South West,50.501351,-4.298012,200,OK
54.399308,-5.65041,BT30 9UR,"Newry, Mourne and Down",,54.399308,-5.65041,200,OK
51.427272,-2.664649,BS41 9AN,North Somerset,South West,51.427272,-2.664649,200,OK
51.474327,-0.209746,SW6 5LW,Hammersmith and Fulham,London,51.474327,-0.209746,200,OK
52.461878,-1.795478,B26 1LS,Birmingham,West Midlands,52.461878,-1.795478,200,OK
51.398968,-0.382784,KT8 2RY,Elmbridge,South East,51.399168,-0.383001,200,OK
53.640592,-2.32886,BL0 9XP,Bury,North West,53.640584,-2.32886,200,OK
54.71935,-4.467522,DG8 8ND,Dumfries and Galloway,,54.71935,-4.467522,200,OK
51.887116,0.427255,CM6 3SX,Uttlesford,East of England,51.887116,0.427255,200,OK
51.39959,0.173588,BR8 7WF,Sevenoaks,South East,51.39959,0.173588,200,OK
51.219535,-0.143151,,,,,,200,OK
51.366292,-0.085302,CR0 5JU,Croydon,London,51.366292,-0.085302,200,OK
51.755632,-3.596333,SA11 5NR,Neath Port Talbot,,51.755783,-3.596162,200,OK
52.532568,-1.858451,B23 5JP,Birmingham,West Midlands,52.53252,-1.85843,200,OK
52.694998,-1.995725,WS11 7GU,Cannock Chase,West Midlands,52.694998,-1.995725,200,OK
56.872934,-2.412768,AB30 1NF,Aberdeenshire,,56.873022,-2.413278,200,OK
53.996498,-1.534551,HG1 5FH,North Yorkshire,Yorkshire and The Humber,53.99621,-1.535216,200,OK
52.697618,-2.035115,WS11 4AS,Cannock Chase,West Midlands,52.697618,-2.035115,200,OK
52.185601,0.135661,CB2 8PH,Cambridge,East of England,52.186221,0.135937,200,OK
51.518549,-0.026788,E3 4GJ,Tower Hamlets,London,51.518549,-0.026788,200,OK
51.578953,-0.243595,NW9 7QF,Barnet,London,51.578953,-0.243595,200,OK
52.480746,-1.79461,B33 8JG,Birmingham,West Midlands,52.480746,-1.79461,200,OK
53.292832,-3.747135,LL28 5UZ,Conwy,,53.292832,-3.747135,200,OK
53.749073,-0.853243,DN14 7AT,East Riding of Yorkshire,Yorkshire and The Humber,53.749073,-0.853243,200,OK
51.674728,-0.029842,EN3 6SR,Enfield,London,51.674728,-0.029842,200,OK
51.640687,-2.34135,GL12 7NJ,Stroud,South West,51.640687,-2.34135,200,OK
51.579583,0.09402,IG2 7PT,Redbridge,London,51.579583,0.09402,200,OK
54.559704,-1.216833,TS4 2AN,Middlesbrough,North East,54.559704,-1.216833,200,OK
53.047589,-1.407759,DE5 3HN,Amber Valley,East Midlands,53.048308,-1.40766,200,OK
52.286494,-1.532455,CV31 1AA,Warwick,West Midlands,52.286522,-1.532762,200,OK
51.331284,-0.376559,KT11 2QN,Elmbridge,South East,51.331284,-0.376559,200,OK
53.324811,-3.098953,CH60 4RP,Wirral,North West,53.324811,-3.098953,200,OK
51.589811,-1.795804,SN25 3LU,Swindon,South West,51.589811,-1.795804,200,OK
51.860513,-1.300733,OX5 3AX,Cherwell,South East,51.860513,-1.300733,200,OK
51.499661,-0.102871,SE1 0RR,Southwark,London,51.499661,-0.102871,200,OK
52.209706,-2.228836,WR3 7BD,Worcester,West Midlands,52.209706,-2.228836,200,OK
51.118314,0.25777,TN2 5NJ,Tunbridge Wells,South East,51.118354,0.25797,200,OK
53.166743,-1.180638,NG19 9DJ,Mansfield,East Midlands,53.166743,-1.180638,200,OK
53.37573,-2.582979,WA4 6RS,Warrington,North West,53.37573,-2.582979,200,OK
51.239908,0.490364,,,,,,200,OK
52.761095,-1.537108,DE11 8AU,South Derbyshire,East Midlands,52.761095,-1.537108,200,OK
55.750579,-3.885372,ML8 5JB,South Lanarkshire,,55.750579,-3.885372,200,OK
50.728716,-1.179059,PO33 3NH,Isle of Wight,South East,50.728716,-1.179059,200,OK
53.388672,-2.583306,WA1 2DB,Warrington,North West,53.388672,-2.583306,200,OK
52.567808,-2.026955,WS10 9LH,Walsall,West Midlands,52.567808,-2.026955,200,OK
51.486836,0.015774,SE10 0SL,Greenwich,London,51.486679,0.016053,200,OK
54.582444,-6.731043,BT71 4DF,Mid Ulster,,54.582444,-6.731043,200,OK
50.363667,-4.090558,PL9 7DZ,Plymouth,South West,50.363667,-4.090558,200,OK
51.65383,-0.534965,WD3 5QA,Three Rivers,East of England,51.65383,-0.534965,200,OK
53.37306,-3.185873,CH48 0QH,Wirral,North West,53.372934,-3.184967,200,OK
51.482311,0.175359,DA8 1TU,Bexley,London,51.482311,0.175359,200,OK
55.83203,-4.292972,G41 4AE,Glasgow City,,55.83203,-4.292972,200,OK
51.521001,-0.062258,E1 5EE,Tower Hamlets,London,51.521001,-0.062258,200,OK
51.594534,-0.415926,HA5 2NA,Hillingdon,London,51.594534,-0.415926,200,OK
54.999644,-1.696629,NE5 5PN,Newcastle upon Tyne,North East,54.999644,-1.696629,200,OK
53.381904,-3.041504,CH43 5TG,Wirral,North West,53.381904,-3.041504,200,OK
53.739702,-0.335945,HU1 1AS,"Kingston upon Hull, City of",Yorkshire and The Humber,53.739702,-0.335945,200,OK
51.378509,0.493298,ME1 3BD,Medway,South East,51.378509,0.493298,200,OK
52.688922,-0.312354,PE6 8AH,South Kesteven,East Midlands,52.689059,-0.312482,200,OK
52.793405,-1.263302,LE12 5PP,Charnwood,East Midlands,52.793405,-1.263302,200,OK
53.17988,-2.445758,CW10 0RE,Cheshire East,North West,53.17988,-2.445758,200,OK
54.223024,-5.96394,BT33 0PZ,"Newry, Mourne and Down",,54.222746,-5.964536,200,OK
53.685457,-1.353759,WF7 6LR,Wakefield,Yorkshire and The Humber,53.685457,-1.353759,200,OK
53.57854,-0.301491,DN37 8LH,West Lindsey,East Midlands,53.57854,-0.301491,200,OK
52.563987,-1.78599,B75 7PY,Birmingham,West Midlands,52.563987,-1.78599,200,OK
53.474827,-2.272675,M5 3GB,Salford,North West,53.474925,-2.272962,200,OK
53.382717,-2.55224,WA4 1NU,Warrington,North West,53.382472,-2.552221,200,OK
52.544405,-4.045127,LL35 0EL,Gwynedd,,52.544487,-4.045028,200,OK
51.253076,-0.065848,RH9 8BU,Tandridge,South East,51.253076,-0.065848,200,OK
52.685235,-2.452285,,,,,,200,OK
50.896853,-1.394134,SO14 3AB,Southampton,South East,50.896853,-1.394134,200,OK
53.474636,-2.24462,M1 5JG,Manchester,North West,53.474636,-2.24462,200,OK
51.492554,-0.198502,SW5 9SF,Kensington and Chelsea,London,51.492554,-0.198502,200,OK
52.489301,1.754628,NR32 4PA,East Suffolk,East of England,52.489301,1.754628,200,OK
53.722815,-2.820158,PR4 5JY,South Ribble,North West,53.722815,-2.820158,200,OK
51.366413,-0.025419,CR0 8LP,Croydon,London,51.366413,-0.025419,200,OK
51.716222,-0.028115,EN8 0LP,Broxbourne,East of England,51.716177,-0.028146,200,OK
52.53439,-1.841978,B23 5QA,Birmingham,West Midlands,52.53439,-1.841978,200,OK
56.040051,-3.432851,KY11 2TH,Fife,,56.040051,-3.432851,200,OK
55.913566,-4.222893,G64 3ED,East Dunbartonshire,,55.913566,-4.222893,200,OK
51.754329,-1.271933,OX2 0AD,Oxford,South East,51.754222,-1.272036,200,OK
51.600852,-3.341389,CF37 4UY,Rhondda Cynon Taf,,51.600852,-3.341389,200,OK
50.856446,-0.969974,PO9 2QX,Havant,South East,50.856446,-0.969974,200,OK
54.602658,-6.693089,BT71 5PL,Mid Ulster,,54.602658,-6.693089,200,OK
52.651047,-2.470527,TF4 3JH,Telford and Wrekin,West Midlands,52.651047,-2.470527,200,OK
54.653164,-5.641729,BT20 4QH,Ards and North Down,,54.653164,-5.641729,200,OK
54.686721,-1.554706,DL17 8HQ,County Durham,North East,54.686721,-1.554706,200,OK
51.239778,-0.614534,GU2 7DA,Guildford,South East,51.239593,-0.615107,200,OK
53.434518,-1.109388,DN11 9HX,Doncaster,Yorkshire and The Humber,53.43402,-1.108796,200,OK
51.469891,-0.147575,SW8 3TH,Wandsworth,London,51.469617,-0.147932,200,OK
50.232907,-5.357371,,,,,,200,OK
51.291848,1.047191,CT2 9BY,Canterbury,South East,51.291848,1.047191,200,OK
50.971614,0.199125,TN21 0FE,Wealden,South East,50.971428,0.199473,200,OK
51.206235,-4.107334,EX34 9QL,North Devon,South West,51.206235,-4.107334,200,OK
52.772263,1.515306,NR12 9BA,North Norfolk,East of England,52.772263,1.515306,200,OK
51.500155,-0.073617,SE1 2BU,Southwark,London,51.500155,-0.073617,200,OK
51.904581,-1.663247,OX7 6XJ,Cotswold,South West,51.904581,-1.663247,200,OK
53.059146,-2.457804,CW2 5DY,Cheshire East,North West,53.059146,-2.457804,200,OK
52.227049,-0.891917,,,,,,200,OK
52.422857,-1.82673,B90 3PB,Solihull,West Midlands,52.422857,-1.82673,200,OK
50.741812,-1.938157,BH12 3PL,"Bournemouth, Christchurch and Poole",South West,50.741812,-1.938157,200,OK
55.984492,-2.658804,EH40 3DW,East Lothian,,55.984492,-2.658804,200,OK
54.655716,-1.556745,DL17 0DZ,County Durham,North East,54.655618,-1.556823,200,OK
51.489446,-3.170631,CF24 3DG,Cardiff,,51.489446,-3.170631,200,OK
51.325795,-0.520088,GU22 8RT,Woking,South East,51.325795,-0.520088,200,OK
52.580125,-2.083544,WV1 2UQ,Wolverhampton,West Midlands,52.580125,-2.083544,200,OK
50.105005,-5.136661,TR11 5LQ,Cornwall,South West,50.105005,-5.136661,200,OK
52.553667,-2.978516,SY9 5HR,Shropshire,West Midlands,52.553667,-2.978516,200,OK
51.109013,-0.184484,RH10 6BU,Crawley,South East,51.109013,-0.184484,200,OK
51.348943,-2.977438,BS23 1RP,North Somerset,South West,51.348943,-2.977438,200,OK
53.188976,-2.893549,CH1 1XS,Cheshire West and Chester,North West,53.188976,-2.893549,200,OK
52.399894,0.265067,CB7 4NA,East Cambridgeshire,East of England,52.399852,0.264918,200,OK
51.223189,-0.203356,RH2 8AX,Reigate and Banstead,South East,51.223189,-0.203356,200,OK
53.675019,-2.91932,PR9 8RY,West Lancashire,North West,53.675019,-2.91932,200,OK
53.770625,-1.163982,YO8 9WE,North Yorkshire,Yorkshire and The Humber,53.77046,-1.163398,200,OK
53.362071,-1.306338,S26 2FU,Rotherham,Yorkshire and The Humber,53.361586,-1.306375,200,OK
51.392478,-1.386708,RG20 0HE,West Berkshire,South East,51.392563,-1.387483,200,OK
52.837512,-1.538579,DE65 6RJ,South Derbyshire,East Midlands,52.837512,-1.538579,200,OK
52.481777,-1.895411,B4 6DW,Birmingham,West Midlands,52.48166,-1.895529,200,OK
53.364638,-1.420024,S2 1EY,Sheffield,Yorkshire and The Humber,53.364638,-1.420024,200,OK
54.353551,-0.887808,YO18 8SA,North Yorkshire,Yorkshire and The Humber,54.353296,-0.88786,200,OK
50.391186,-3.919703,PL21 0AS,South Hams,South West,50.391186,-3.919703,200,OK
51.445626,-0.99942,RG30 3FL,Reading,South East,51.445626,-0.99942,200,OK
52.585957,-2.11731,WV1 3EG,Wolverhampton,West Midlands,52.585957,-2.11731,200,OK
54.608063,-1.272554,TS23 4DA,Stockton-on-Tees,North East,54.608063,-1.272554,200,OK
54.933117,-3.823401,DG5 4AH,Dumfries and Galloway,,54.933117,-3.823401,200,OK
55.941584,-3.296208,EH12 7AG,City of Edinburgh,,55.941584,-3.296208,200,OK
51.529667,-0.976005,RG9 5JW,South Oxfordshire,South East,51.529667,-0.976005,200,OK
51.244793,1.304086,CT13 0JS,Dover,South East,51.244371,1.304987,200,OK
51.153092,0.857202,TN23 3HX,Ashford,South East,51.153092,0.857202,200,OK
51.468635,-0.167236,SW11 2TB,Wandsworth,London,51.468803,-0.167042,200,OK
52.689933,-1.092135,LE7 1JA,Charnwood,East Midlands,52.689933,-1.092135,200,OK
50.801674,-0.728749,PO20 1AZ,Arun,South East,50.801242,-0.728662,200,OK
52.587933,0.598049,PE33 9BU,Breckland,East of England,52.587933,0.598049,200,OK
50.79908,-1.967624,BH21 2BU,Dorset,South West,50.79908,-1.967624,200,OK
51.778661,-3.755037,SA9 1HF,Powys,,51.778661,-3.755037,200,OK
51.475947,-0.514221,SL3 0HQ,Slough,South East,51.475947,-0.514221,200,OK
57.340773,-2.132972,AB41 6PX,Aberdeenshire,,57.34065,-2.132777,200,OK
56.064285,-3.176169,KY3 9SD,Fife,,56.064285,-3.176169,200,OK
52.406188,-1.508991,CV1 2JZ,Coventry,West Midlands,52.406339,-1.508892,200,OK
53.376736,-2.879452,L25 7FB,Liverpool,North West,53.376548,-2.879283,200,OK
51.092683,-0.826603,GU30 7QN,East Hampshire,South East,51.092683,-0.826603,200,OK
50.959472,-2.616487,BA21 5RU,Somerset,South West,50.959472,-2.616487,200,OK
51.615637,-0.665416,,,,,,200,OK
51.583444,-1.785152,SN25 3BG,Swindon,South West,51.583444,-1.785152,200,OK
55.359589,-4.500398,KA6 7NA,East Ayrshire,,55.358941,-4.50042,200,OK
53.253038,-2.523828,CW8 1BW,Cheshire West and Chester,North West,53.253038,-2.523828,200,OK
51.536121,-0.250104,NW10 9AA,Brent,London,51.536121,-0.250104,200,OK
55.072436,-1.519582,NE25 0AR,Northumberland,North East,55.072436,-1.519582,200,OK
53.481165,-2.247084,M2 6EG,Manchester,North West,53.481173,-2.246961,200,OK
51.442707,-2.012641,SN11 0UQ,Wiltshire,South West,51.442831,-2.012908,200,OK
51.381501,1.399817,CT9 2TY,Thanet,South East,51.381501,1.399817,200,OK
57.36547,-4.284316,IV2 6AW,Highland,,57.36547,-4.284316,200,OK
51.582819,-0.228002,NW4 3YA,Barnet,London,51.582852,-0.228177,200,OK
50.749931,-1.280298,PO32 6JE,Isle of Wight,South East,50.749931,-1.280298,200,OK
55.873673,-2.094425,TD14 5AY,Scottish Borders,,55.873673,-2.094425,200,OK
55.091824,-3.636333,DG2 0QT,Dumfries and Galloway,,55.091824,-3.636333,200,OK
53.556875,-0.031258,DN35 8JA,North East Lincolnshire,Yorkshire and The Humber,53.556875,-0.031258,200,OK
52.177725,-2.215363,WR5 3DY,Worcester,West Midlands,52.177725,-2.215363,200,OK
51.092854,0.632906,TN27 8DX,Ashford,South East,51.093549,0.632788,200,OK
53.955523,-0.73539,YO42 1TX,East Riding of Yorkshire,Yorkshire and The Humber,53.95545,-0.7353,200,OK
51.370165,-0.462916,KT13 8TB,Elmbridge,South East,51.370165,-0.462916,200,OK
50.769944,-3.34859,EX5 2QN,East Devon,South West,50.769944,-3.34859,200,OK
53.359198,-2.0379,SK12 2RY,Cheshire East,North West,53.359241,-2.037929,200,OK
52.085385,0.42339,CB9 9BJ,West Suffolk,East of England,52.085385,0.42339,200,OK
52.506447,-1.912158,B20 3RN,Birmingham,West Midlands,52.506447,-1.912158,200,OK
50.981014,-1.375519,SO53 2HE,Eastleigh,South East,50.981023,-1.375533,200,OK
52.673501,-0.517931,PE9 4AT,Rutland,East Midlands,52.673501,-0.517931,200,OK
51.372267,-0.458731,KT13 8BY,Elmbridge,South East,51.372267,-0.458731,200,OK
51.532212,-2.474235,BS36 2HL,South Gloucestershire,South West,51.532212,-2.474235,200,OK
51.557458,0.681732,SS0 0QD,Southend-on-Sea,East of England,51.557034,0.682386,200,OK
54.723391,-1.513421,DH6 4LH,County Durham,North East,54.723732,-1.513448,200,OK
52.158025,-0.355445,MK44 3BQ,Bedford,East of England,52.158204,-0.355169,200,OK
53.026751,-0.426136,NG34 8LD,North Kesteven,East Midlands,53.026678,-0.426343,200,OK
55.820982,-4.049115,ML4 3JX,North Lanarkshire,,55.820982,-4.049115,200,OK
53.290584,-3.590396,LL22 7ND,Conwy,,53.290584,-3.590396,200,OK
51.774708,-0.929872,HP17 8JG,Buckinghamshire,South East,51.774708,-0.929872,200,OK
51.6092,-0.018599,E4 8NE,Waltham Forest,London,51.608987,-0.019345,200,OK
51.534195,-0.367875,UB6 9SD,Ealing,London,51.534195,-0.367875,200,OK
53.618289,-1.798903,HD4 7NR,Kirklees,Yorkshire and The Humber,53.618289,-1.798903,200,OK
53.546427,-2.061943,OL4 3QA,Oldham,North West,53.546427,-2.061943,200,OK
51.432601,-1.999951,SN11 0BF,Wiltshire,South West,51.432727,-1.99985,200,OK
52.594913,-1.154658,LE2 9AN,Leicester,East Midlands,52.594913,-1.154658,200,OK
55.778164,-4.18923,G74 4GU,South Lanarkshire,,55.778164,-4.18923,200,OK
51.495515,-2.483232,BS16 7AZ,South Gloucestershire,South West,51.495515,-2.483232,200,OK
53.409802,-1.367887,S60 5DU,Rotherham,Yorkshire and The Humber,53.409802,-1.367887,200,OK
53.125265,-1.261316,NG17 1AZ,Ashfield,East Midlands,53.12522,-1.261257,200,OK
53.294341,-3.072995,CH64 6RX,Cheshire West and Chester,North West,53.294341,-3.072995,200,OK
53.741597,-2.988504,FY8 4EZ,Fylde,North West,53.74142,-2.987739,200,OK
51.800666,-0.056338,SG13 7US,East Hertfordshire,East of England,51.800567,-0.055762,200,OK
51.340653,-2.497494,BA2 0FE,Bath and North East Somerset,South West,51.340653,-2.497494,200,OK
52.474972,-1.418079,CV12 9RF,Nuneaton and Bedworth,West Midlands,52.474972,-1.418079,200,OK
51.359309,-0.144212,SM6 8QA,Sutton,London,51.359309,-0.144212,200,OK
52.538472,-2.808431,SY6 6DJ,Shropshire,West Midlands,52.538472,-2.808431,200,OK
51.621469,-0.385201,WD19 6ER,Three Rivers,East of England,51.621469,-0.385158,200,OK
50.806441,-1.054382,PO3 6DX,Portsmouth,South East,50.806441,-1.054382,200,OK
52.270582,1.447333,IP17 2HS,East Suffolk,East of England,52.270719,1.447563,200,OK
51.805359,-0.828895,HP21 8YY,Buckinghamshire,South East,51.805359,-0.828895,200,OK
52.578282,-1.029273,LE8 9FZ,Harborough,East Midlands,52.578282,-1.029273,200,OK
53.406737,-4.349792,LL68 9BJ,Isle of Anglesey,,53.406784,-4.349725,200,OK
52.391428,-2.008141,B45 8EN,Birmingham,West Midlands,52.391428,-2.008141,200,OK
52.293697,-1.523801,CV32 4TZ,Warwick,West Midlands,52.293697,-1.523801,200,OK
51.821239,-0.73698,HP22 5EW,Buckinghamshire,South East,51.821239,-0.73698,200,OK
54.917039,-1.404044,SR5 2DA,Sunderland,North East,54.917133,-1.403028,200,OK
52.501754,-1.961973,B66 2JW,Sandwell,West Midlands,52.501559,-1.961404,200,OK
51.505817,-0.093782,SE1 9HG,Southwark,London,51.505817,-0.093782,200,OK
52.379858,-0.694946,NN15 6TZ,North Northamptonshire,East Midlands,52.379858,-0.694946,200,OK
51.521135,-0.127493,WC1B 5DN,Camden,London,51.521135,-0.127493,200,OK
52.518498,1.023238,NR17 2NA,Breckland,East of England,52.518498,1.023238,200,OK
51.698374,0.055435,EN9 3TQ,Epping Forest,East of England,51.698374,0.055435,200,OK
52.748404,-2.067141,ST19 5RL,South Staffordshire,West Midlands,52.748404,-2.067141,200,OK
53.914767,-2.343572,BB7 4NH,Ribble Valley,North West,53.914767,-2.343572,200,OK
50.715165,-3.539055,EX2 9BB,Exeter,South West,50.715165,-3.539055,200,OK
53.680018,-1.83941,HX5 0NJ,Calderdale,Yorkshire and The Humber,53.680018,-1.83941,200,OK
53.091479,-1.356567,DE55 4QX,Bolsover,East Midlands,53.091479,-1.356567,200,OK
54.636376,-1.704087,DL14 9GF,County Durham,North East,54.635701,-1.703658,200,OK
53.512502,-1.05514,DN3 3QH,Doncaster,Yorkshire and The Humber,53.512502,-1.05514,200,OK
53.766792,-2.411388,BB1 4RQ,Hyndburn,North West,53.766792,-2.411388,200,OK
52.196201,0.917345,IP30 0RP,Mid Suffolk,East of England,52.196201,0.917345,200,OK
51.475916,-0.191352,SW6 2AS,Hammersmith and Fulham,London,51.475916,-0.191352,200,OK
50.739206,-3.637806,EX4 2HL,Teignbridge,South West,50.739588,-3.636912,200,OK
52.049107,0.547502,CO10 8JR,Braintree,East of England,52.049107,0.547502,200,OK
53.208523,-3.134801,CH7 6AU,Flintshire,,53.208523,-3.134801,200,OK
55.368296,-1.673654,NE66 2XB,Northumberland,North East,55.368296,-1.673654,200,OK
53.279967,-2.133004,SK10 2UA,Cheshire East,North West,53.279967,-2.133004,200,OK
55.816252,-4.289394,G43 2YW,Glasgow City,,55.816491,-4.290557,200,OK
51.274019,1.340788,CT13 9AA,Dover,South East,51.274019,1.340788,200,OK
53.108748,-2.014972,ST13 6DA,Staffordshire Moorlands,West Midlands,53.108748,-2.014972,200,OK
51.517484,-0.112941,WC2A 1QS,City of London,London,51.517484,-0.112941,200,OK
57.572774,-1.883958,,,,,,200,OK
52.723879,1.462003,NR12 8YF,North Norfolk,East of England,52.723879,1.462003,200,OK
55.873591,-3.149108,EH20 9DF,Midlothian,,55.873591,-3.149108,200,OK
51.529118,-0.069655,E2 7RG,Tower Hamlets,London,51.529337,-0.069187,200,OK
55.151038,-2.99864,DG13 0JQ,Dumfries and Galloway,,55.150873,-2.998403,200,OK
51.140356,1.299735,CT16 2HW,Dover,South East,51.140515,1.299806,200,OK
50.220819,-5.267428,TR15 3YR,Cornwall,South West,50.220819,-5.267428,200,OK
53.143915,-2.260645,CW12 4TG,Cheshire East,North West,53.143915,-2.260645,200,OK
52.400515,-1.449792,CV3 2HR,Coventry,West Midlands,52.400515,-1.449792,200,OK
52.240417,-0.918898,NN5 5BG,West Northamptonshire,East Midlands,52.240819,-0.918933,200,OK
55.216344,-3.718138,DG3 5HH,Dumfries and Galloway,,55.216344,-3.718138,200,OK
51.065214,-0.017385,RH19 4JA,Mid Sussex,South East,51.065214,-0.017385,200,OK
51.394606,-3.267531,CF62 5TX,Vale of Glamorgan,,51.394606,-3.267531,200,OK
51.863828,0.957343,CO7 9PE,Colchester,East of England,51.863828,0.957343,200,OK
51.378989,-0.08141,CR0 6AE,Croydon,London,51.378989,-0.08141,200,OK
51.383368,-0.071483,CR0 6RQ,Croydon,London,51.383368,-0.071483,200,OK
51.810324,-0.083717,SG14 3FF,East Hertfordshire,East of England,51.810324,-0.083717,200,OK
54.969521,-1.482932,,,,,,200,OK
51.721949,-1.192544,OX4 6QZ,Oxford,South East,51.721949,-1.192544,200,OK
53.447953,-2.684684,WA9 2QQ,St. Helens,North West,53.447953,-2.684684,200,OK
50.851429,0.558696,TN38 0DP,Hastings,South East,50.851429,0.558696,200,OK
53.049569,-2.233567,ST5 8LL,Newcastle-under-Lyme,West Midlands,53.049515,-2.233418,200,OK
51.524058,-0.225873,W10 5HL,Kensington and Chelsea,London,51.524058,-0.225873,200,OK
52.713642,-0.714177,LE15 7LJ,Rutland,East Midlands,52.713642,-0.714177,200,OK
53.396079,-3.030105,CH41 3LE,Wirral,North West,53.395801,-3.030113,200,OK
54.52189,-1.194166,TS8 9XP,Middlesbrough,North East,54.52189,-1.194166,200,OK
51.463757,-0.17735,SW11 2DB,Wandsworth,London,51.463897,-0.177608,200,OK
53.594177,-1.317639,WF9 3NT,Wakefield,Yorkshire and The Humber,53.594177,-1.317639,200,OK
51.538669,-1.913441,SN4 7SD,Wiltshire,South West,51.538408,-1.91226,200,OK
52.479864,-2.121518,DY5 3AE,Dudley,West Midlands,52.479635,-2.122026,200,OK
52.806292,-2.11863,ST16 2AT,Stafford,West Midlands,52.806679,-2.11832,200,OK
55.886536,-3.154831,EH20 9GB,Midlothian,,55.886536,-3.154831,200,OK
55.644224,-4.754189,KA20 4BA,North Ayrshire,,55.644224,-4.754189,200,OK
50.465989,-5.030462,TR8 4BJ,Cornwall,South West,50.465989,-5.030462,200,OK
51.465451,-3.167426,CF10 5BB,Cardiff,,51.465347,-3.167101,200,OK
52.422844,-0.814707,NN14 6YA,North Northamptonshire,East Midlands,52.422898,-0.813823,200,OK
51.505834,-0.13116,SW1Y 5AG,Westminster,London,51.505873,-0.132484,200,OK
54.711771,-7.549793,BT81 7NA,Derry City and Strabane,,54.711717,-7.549809,200,OK
53.573667,-1.786233,HD9 3JB,Kirklees,Yorkshire and The Humber,53.573667,-1.786233,200,OK
53.084807,-1.309742,NG16 6FF,Ashfield,East Midlands,53.084807,-1.309742,200,OK
51.143283,-2.711537,BA6 8DU,Somerset,South West,51.143283,-2.711537,200,OK
51.448457,-1.0218,RG30 4HE,Reading,South East,51.448457,-1.0218,200,OK
53.448232,-2.99952,L20 4DJ,Sefton,North West,53.448232,-2.99952,200,OK
50.549827,-4.146497,PL19 8AQ,West Devon,South West,50.549827,-4.146497,200,OK
51.849594,1.266538,CO14 8FR,Tendring,East of England,51.849594,1.266538,200,OK
50.212513,-3.708545,TQ7 2DA,South Hams,South West,50.212513,-3.708545,200,OK
57.11272,-2.705998,AB31 4SR,Aberdeenshire,,57.1135,-2.706244,200,OK
51.534038,-0.632004,SL2 2ES,Slough,South East,51.534038,-0.632004,200,OK
50.760665,-1.86815,BH9 3NL,"Bournemouth, Christchurch and Poole",South West,50.760665,-1.86815,200,OK
51.58636,-2.99515,NP20 1HJ,Newport,,51.58648,-2.995115,200,OK
52.797389,-1.647838,DE14 3QB,East Staffordshire,West Midlands,52.797389,-1.647838,200,OK
53.751876,-2.887969,PR4 1XR,Fylde,North West,53.751876,-2.887969,200,OK
50.387618,-4.164808,PL2 3BN,Plymouth,South West,50.387618,-4.164808,200,OK
51.576644,0.056303,IG4 5AS,Redbridge,London,51.576644,0.056303,200,OK
51.640866,-4.111677,SA4 3LE,Swansea,,51.640866,-4.111677,200,OK
52.079837,-2.604433,HR1 3SJ,"Herefordshire, County of",West Midlands,52.079837,-2.604433,200,OK
53.832727,-1.734351,BD10 8RJ,Bradford,Yorkshire and The Humber,53.832727,-1.734351,200,OK
51.504144,-0.149327,W1K 1QY,Westminster,London,51.504144,-0.149327,200,OK
53.670016,-1.567715,WF5 0SH,Wakefield,Yorkshire and The Humber,53.670016,-1.567715,200,OK
53.271875,-2.940143,CH66 4LF,Cheshire West and Chester,North West,53.271859,-2.939813,200,OK
51.789424,-3.262912,NP22 3SJ,Blaenau Gwent,,51.789927,-3.263796,200,OK
54.688178,-5.962982,BT36 5XZ,Antrim and Newtownabbey,,54.688231,-5.962886,200,OK
51.55278,0.253095,RM14 3EP,Havering,London,51.552809,0.252966,200,OK
54.551466,-1.32956,TS18 3RY,Stockton-on-Tees,North East,54.551466,-1.32956,200,OK
50.938258,-0.023244,BN8 4AE,Lewes,South East,50.938258,-0.023244,200,OK
54.64269,-5.691262,BT19 1WG,Ards and North Down,,54.642913,-5.690754,200,OK
51.757437,-3.369222,CF47 9HY,Merthyr Tydfil,,51.757437,-3.369222,200,OK
51.474728,0.068118,SE18 3LZ,Greenwich,London,51.474728,0.068118,200,OK
55.867755,-4.273675,G3 7UY,Glasgow City,,55.867785,-4.273679,200,OK
54.039875,-2.88663,LA3 2FW,Lancaster,North West,54.039875,-2.88663,200,OK
51.704135,-0.179892,EN6 1SW,Hertsmere,East of England,51.704135,-0.179892,200,OK
51.733956,-0.849596,HP27 9RX,Buckinghamshire,South East,51.733938,-0.849596,200,OK
51.657229,-3.801665,SA11 1YY,Neath Port Talbot,,51.657229,-3.801665,200,OK
52.342431,-0.075942,PE27 3EL,Huntingdonshire,East of England,52.34243,-0.075898,200,OK
55.88112,-3.052778,EH22 4EY,Midlothian,,55.88112,-3.052778,200,OK
52.358831,-0.205052,PE28 4AD,Huntingdonshire,East of England,52.358831,-0.205052,200,OK
53.485084,-2.294516,M6 5UR,Salford,North West,53.485084,-2.294516,200,OK
53.772852,-2.713541,PR1 7QL,Preston,North West,53.77293,-2.713569,200,OK
51.410462,-0.248363,KT3 4LG,Kingston upon Thames,London,51.410462,-0.248363,200,OK
50.998193,-0.735178,GU29 9AD,Chichester,South East,50.998355,-0.734883,200,OK
54.343224,-6.241779,BT32 4JP,"Armagh City, Banbridge and Craigavon",,54.343224,-6.241779,200,OK
51.89596,-0.174476,SG2 9UB,Stevenage,East of England,51.89596,-0.174476,200,OK
51.662561,-3.786969,SA11 3BS,Neath Port Talbot,,51.662561,-3.786969,200,OK
57.169444,-2.162931,AB16 7PL,Aberdeen City,,57.16942,-2.162936,200,OK
52.451285,-1.731063,B26 3QJ,Solihull,West Midlands,52.451285,-1.731063,200,OK
51.247292,-0.183629,RH2 0JD,Reigate and Banstead,South East,51.247292,-0.183629,200,OK
54.48488,-0.623436,YO21 1HF,North Yorkshire,Yorkshire and The Humber,54.48488,-0.623436,200,OK
55.609552,-4.499268,KA1 1BS,East Ayrshire,,55.60959,-4.499091,200,OK
52.984733,-2.124601,ST3 1LY,Stoke-on-Trent,West Midlands,52.984732,-2.124258,200,OK
52.533596,1.435321,NR14 6EH,South Norfolk,East of England,52.533596,1.435321,200,OK
52.122019,0.170601,CB22 3BE,South Cambridgeshire,East of England,52.122273,0.170935,200,OK
52.369511,-0.231907,PE28 4XG,Huntingdonshire,East of England,52.369978,-0.231917,200,OK
53.486256,-2.217711,M40 7HH,Manchester,North West,53.486256,-2.217711,200,OK
52.763828,-1.946266,WS15 2PJ,Cannock Chase,West Midlands,52.76417,-1.94634,200,OK
51.577722,-0.075664,N15 6DU,Haringey,London,51.577731,-0.075664,200,OK
50.913174,-1.406255,SO15 2DG,Southampton,South East,50.913165,-1.406246,200,OK
53.803076,-1.78885,BD8 9NY,Bradford,Yorkshire and The Humber,53.803064,-1.788884,200,OK
53.110711,-0.532553,LN5 0LH,North Kesteven,East Midlands,53.110796,-0.532562,200,OK
52.764483,-0.627721,NG33 5PJ,South Kesteven,East Midlands,52.764483,-0.627721,200,OK
52.12259,0.169372,CB22 3BG,South Cambridgeshire,East of England,52.123013,0.169509,200,OK
51.187881,-0.804613,GU10 4DT,Waverley,South East,51.187478,-0.805711,200,OK
51.872791,0.361367,CM6 1EH,Uttlesford,East of England,51.872791,0.361367,200,OK
55.84403,-3.223185,,,,,,200,OK
51.231945,-0.335649,RH4 1DG,Mole Valley,South East,51.232003,-0.335934,200,OK
54.903193,-6.640295,BT46 5QJ,Mid Ulster,,54.903193,-6.640295,200,OK
51.477718,-0.165508,SW11 4DS,Wandsworth,London,51.477718,-0.165508,200,OK
51.501706,-0.154383,SW1X 7NS,Westminster,London,51.50147,-0.154248,200,OK
52.916413,-1.143103,NG2 7GW,Rushcliffe,East Midlands,52.916413,-1.143103,200,OK
57.200985,-2.121214,AB22 8XU,Aberdeen City,,57.200985,-2.121214,200,OK
52.55667,-0.1119,PE7 1LH,Fenland,East of England,52.556568,-0.111683,200,OK
51.37502,-0.094982,CR0 2LX,Croydon,London,51.37502,-0.094982,200,OK
50.593334,-1.206026,PO38 1TA,Isle of Wight,South East,50.593456,-1.205731,200,OK
55.86896,-4.098329,G34 0JF,Glasgow City,,55.868908,-4.097703,200,OK
52.522076,-1.21899,LE9 6XA,Harborough,East Midlands,52.522076,-1.21899,200,OK
56.005578,-3.621094,EH51 0NR,Falkirk,,56.005578,-3.621094,200,OK
52.925299,-1.203172,NG9 2WE,Broxtowe,East Midlands,52.925299,-1.203172,200,OK
51.583207,-0.739408,SL7 3RU,Buckinghamshire,South East,51.583207,-0.739408,200,OK
51.556326,0.11915,RM8 2UX,Barking and Dagenham,London,51.556307,0.119207,200,OK
52.716067,-2.499872,TF1 6XX,Telford and Wrekin,West Midlands,52.716067,-2.499872,200,OK
55.81418,-4.296122,G43 2XD,Glasgow City,,55.81418,-4.296122,200,OK
54.918111,-1.586649,NE9 7EW,Gateshead,North East,54.918111,-1.586649,200,OK
52.898156,-1.425303,DE24 0DZ,Derby,East Midlands,52.898156,-1.425303,200,OK
51.51874,-0.716951,SL6 1AY,Windsor and Maidenhead,South East,51.518599,-0.717023,200,OK
52.534106,-1.042764,LE8 8TU,Harborough,East Midlands,52.534106,-1.042764,200,OK
51.715086,-3.835668,SA8 3EA,Neath Port Talbot,,51.715211,-3.835152,200,OK
51.40875,-2.489045,BS31 1PP,Bath and North East Somerset,South West,51.40875,-2.489045,200,OK
51.913635,-0.163276,SG2 0JZ,Stevenage,East of England,51.913635,-0.163276,200,OK
57.317049,-3.630783,PH26 3NT,Highland,,57.317049,-3.630783,200,OK
54.571582,-1.206768,TS3 6JN,Middlesbrough,North East,54.571582,-1.206768,200,OK
51.403923,-2.572216,BS14 0LW,"Bristol, City of",South West,51.403923,-2.572216,200,OK
52.329135,1.14488,IP23 7DG,Mid Suffolk,East of England,52.329135,1.14488,200,OK
55.822325,-4.021947,ML4 1HW,North Lanarkshire,,55.822325,-4.021947,200,OK
52.979482,-0.01708,PE21 6TR,Boston,East Midlands,52.979482,-0.01708,200,OK
51.426893,-0.055182,SE26 4BF,Lewisham,London,51.426894,-0.055208,200,OK
53.376933,-1.939413,SK22 2LS,High Peak,East Midlands,53.376888,-1.939459,200,OK
51.541628,-2.424413,BS37 5DH,South Gloucestershire,South West,51.541691,-2.424399,200,OK
53.528263,-2.234506,M9 8JW,Manchester,North West,53.528263,-2.234506,200,OK
53.486777,-2.094905,OL6 7PY,Tameside,North West,53.486651,-2.095025,200,OK
53.957934,-1.197655,YO23 3RG,York,Yorkshire and The Humber,53.957934,-1.197739,200,OK
53.374986,-2.186856,SK8 7BS,Stockport,North West,53.374986,-2.186856,200,OK
53.58429,-1.54924,S75 5EL,Barnsley,Yorkshire and The Humber,53.58429,-1.54924,200,OK
53.491257,-2.643329,WN4 9QJ,Wigan,North West,53.491257,-2.643329,200,OK
52.508568,-3.331864,SY16 1PZ,Powys,,52.508568,-3.331864,200,OK
50.983767,0.631542,TN31 6FL,Rother,South East,50.983767,0.631542,200,OK
52.625989,-2.448231,TF7 4DU,Telford and Wrekin,West Midlands,52.625989,-2.448231,200,OK
53.105627,-2.02692,ST13 9BZ,Staffordshire Moorlands,West Midlands,53.105537,-2.027097,200,OK
52.681202,-0.157423,PE6 0AF,South Holland,East Midlands,52.681202,-0.157423,200,OK
51.49276,0.062983,SE18 6LR,Greenwich,London,51.49276,0.062983,200,OK
52.4805,-1.782626,B33 0DJ,Birmingham,West Midlands,52.4805,-1.782626,200,OK
53.786008,-1.593434,LS12 4SZ,Leeds,Yorkshire and The Humber,53.786008,-1.593434,200,OK
51.06361,-0.313778,RH13 5LW,Horsham,South East,51.063963,-0.313937,200,OK
50.731528,-3.516777,EX4 6LT,Exeter,South West,50.731528,-3.516777,200,OK
50.803408,-1.081123,PO1 4HT,Portsmouth,South East,50.803408,-1.081123,200,OK
53.853437,-1.513913,LS17 8AH,Leeds,Yorkshire and The Humber,53.853437,-1.513913,200,OK
52.253893,-0.941659,NN5 6TY,West Northamptonshire,East Midlands,52.253893,-0.941659,200,OK
51.514288,-0.108778,EC4A 2EA,City of London,London,51.514283,-0.108911,200,OK
53.525844,-0.092812,DN37 0PU,North East Lincolnshire,Yorkshire and The Humber,53.525844,-0.092812,200,OK
50.845262,-2.952861,TA20 2TG,Somerset,South West,50.845262,-2.952861,200,OK
51.64163,-0.753575,HP13 5DA,Buckinghamshire,South East,51.64163,-0.753575,200,OK
51.776196,-3.085708,NP4 9QG,Torfaen,,51.776196,-3.085708,200,OK
51.530168,0.473605,SS17 9JE,Thurrock,East of England,51.530168,0.473605,200,OK
51.371991,-1.152353,RG7 4PQ,West Berkshire,South East,51.371135,-1.15212,200,OK
51.515303,-0.10483,EC4A 4AD,City of London,London,51.515039,-0.105187,200,OK
51.486597,-0.17039,SW3 5EH,Kensington and Chelsea,London,51.486597,-0.17039,200,OK
50.348002,-3.886349,PL21 0RT,South Hams,South West,50.348002,-3.886349,200,OK
53.8601,-1.939712,BD22 6FJ,Bradford,Yorkshire and The Humber,53.860298,-1.93997,200,OK
51.409526,-1.299997,RG14 2NW,West Berkshire,South East,51.409497,-1.299653,200,OK
55.776403,-2.33548,TD11 3EX,Scottish Borders,,55.776403,-2.33548,200,OK
52.713285,1.688114,NR29 4AF,Great Yarmouth,East of England,52.713285,1.688114,200,OK
51.669379,-0.619298,HP7 0EL,Buckinghamshire,South East,51.669379,-0.619298,200,OK
52.75424,-1.959296,WS15 2YD,Cannock Chase,West Midlands,52.75424,-1.959296,200,OK
54.564522,-1.364267,TS19 7RJ,Stockton-on-Tees,North East,54.564522,-1.364267,200,OK
50.535302,-4.938845,PL28 8DZ,Cornwall,South West,50.535302,-4.938845,200,OK
51.450441,0.229861,DA1 5AD,Dartford,South East,51.450441,0.229861,200,OK
53.365948,-3.17595,CH48 3JS,Wirral,North West,53.36609,-3.176075,200,OK
51.60262,-1.794043,SN25 4YE,Swindon,South West,51.602611,-1.794057,200,OK
52.707463,-2.751875,SY1 1UH,Shropshire,West Midlands,52.707463,-2.751875,200,OK
53.919813,-3.01488,FY7 6NW,Wyre,North West,53.919771,-3.016106,200,OK
53.189354,-0.576373,LN6 8EL,North Kesteven,East Midlands,53.189354,-0.576373,200,OK
51.364279,1.431445,CT10 1AU,Thanet,South East,51.364279,1.431445,200,OK
51.116655,-3.00351,TA6 6ED,Somerset,South West,51.116655,-3.00351,200,OK
52.66718,-2.055053,WV10 7LT,South Staffordshire,West Midlands,52.66718,-2.055053,200,OK
55.844269,-4.040081,ML5 5DT,North Lanarkshire,,55.844269,-4.040081,200,OK
51.36042,-1.940634,SN10 3LJ,Wiltshire,South West,51.36042,-1.940634,200,OK
53.670952,-1.477645,WF1 5EG,Wakefield,Yorkshire and The Humber,53.670952,-1.477645,200,OK
52.35906,-2.028721,B60 1HT,Bromsgrove,West Midlands,52.359128,-2.028406,200,OK
50.637521,-3.400331,EX8 4FD,East Devon,South West,50.637521,-3.400331,200,OK
50.858652,-0.148457,BN1 8WF,Brighton and Hove,South East,50.858652,-0.148457,200,OK
50.386955,-3.950395,PL21 9GP,South Hams,South West,50.386955,-3.950395,200,OK
50.243316,-5.305279,TR14 0TW,Cornwall,South West,50.243316,-5.305279,200,OK
50.922401,-1.439117,SO16 4GF,Southampton,South East,50.922392,-1.439108,200,OK
55.938163,-3.38959,EH28 8PX,City of Edinburgh,,55.938163,-3.38959,200,OK
53.467569,-2.212871,M12 4BJ,Manchester,North West,53.467569,-2.212871,200,OK
57.469403,-4.167492,IV2 5AX,Highland,,57.469501,-4.167565,200,OK
52.712007,-2.728299,SY2 5JU,Shropshire,West Midlands,52.712007,-2.728299,200,OK
51.702456,-0.915514,OX39 4RB,South Oxfordshire,South East,51.702456,-0.915514,200,OK
57.457504,-4.159802,IV2 5BE,Highland,,57.457504,-4.159802,200,OK
54.275475,-2.790339,LA8 8NZ,Westmorland and Furness,North West,54.275475,-2.790339,200,OK
51.876355,0.570603,CM7 3RD,Braintree,East of England,51.876355,0.570603,200,OK
56.373575,-4.001482,PH6 2JR,Perth and Kinross,,56.373575,-4.001482,200,OK
51.432699,-0.713088,RG42 6LF,Bracknell Forest,South East,51.432505,-0.713424,200,OK
51.696533,-0.381127,WD25 9PB,Three Rivers,East of England,51.696533,-0.381127,200,OK
53.484787,-2.991247,L30 2RY,Sefton,North West,53.484787,-2.991247,200,OK
53.009129,-1.428987,DE56 0NU,Amber Valley,East Midlands,53.009129,-1.428987,200,OK
52.271687,1.101227,IP23 7EH,Mid Suffolk,East of England,52.271687,1.101227,200,OK
51.522391,-0.164862,NW1 6TZ,Westminster,London,51.522391,-0.164862,200,OK
53.775714,-2.711404,PR2 3DL,Preston,North West,53.775568,-2.711292,200,OK
51.556796,-0.169464,NW3 1NT,Camden,London,51.556491,-0.169534,200,OK
55.125004,-6.680609,BT51 3BQ,Causeway Coast and Glens,,55.125004,-6.680609,200,OK
54.651513,-3.531559,CA14 1DN,Cumberland,North West,54.651513,-3.531559,200,OK
51.669328,-0.369776,,,,,,200,OK
50.950544,-2.660628,BA21 3HY,Somerset,South West,50.950544,-2.660628,200,OK
51.686707,-3.161537,NP11 3EH,Caerphilly,,51.687062,-3.161366,200,OK
53.605291,-1.167613,DN6 9LA,Doncaster,Yorkshire and The Humber,53.60531,-1.167615,200,OK
55.822361,-4.07752,G71 7BD,South Lanarkshire,,55.822361,-4.07752,200,OK
54.977197,-1.614071,NE1 7PF,Newcastle upon Tyne,North East,54.977203,-1.614085,200,OK
52.926184,-1.505005,DE22 3BU,Derby,East Midlands,52.926184,-1.505005,200,OK
51.761166,0.110325,CM18 6BZ,Harlow,East of England,51.761166,0.110325,200,OK
51.823605,-0.779733,HP22 7AW,Buckinghamshire,South East,51.823605,-0.779733,200,OK
55.8937,-4.270347,G22 6PQ,Glasgow City,,55.8937,-4.270347,200,OK
54.933189,-1.610575,NE11 0UE,Gateshead,North East,54.933189,-1.610575,200,OK
53.202307,-2.856803,CH2 3ER,Cheshire West and Chester,North West,53.202307,-2.856803,200,OK
54.004993,-2.222411,BD23 4LG,North Yorkshire,Yorkshire and The Humber,54.004993,-2.222411,200,OK
53.62397,-2.17781,OL12 7DG,Rochdale,North West,53.62397,-2.17781,200,OK
52.36222,-2.171843,DY10 4PR,Wyre Forest,West Midlands,52.36222,-2.171843,200,OK
56.121342,-3.942688,FK8 1BG,Stirling,,56.121342,-3.942688,200,OK
51.896576,-2.075545,GL50 1XP,Cheltenham,South West,51.896576,-2.075545,200,OK
53.800382,-2.343882,BB12 7NP,Ribble Valley,North West,53.800382,-2.343882,200,OK
53.484155,-2.355361,M30 0RB,Salford,North West,53.484155,-2.355361,200,OK
52.343497,-0.180085,PE29 7BD,Huntingdonshire,East of England,52.343497,-0.180085,200,OK
51.342773,-0.057824,CR2 8RU,Croydon,London,51.342773,-0.057824,200,OK
52.594758,-2.083802,WV11 3DR,Wolverhampton,West Midlands,52.59556,-2.084252,200,OK
51.489673,-0.069478,SE1 5RA,Southwark,London,51.489673,-0.069478,200,OK
53.3461,-3.002702,CH63 3DN,Wirral,North West,53.3461,-3.002702,200,OK
51.429987,-2.585603,BS4 1PB,"Bristol, City of",South West,51.429987,-2.585603,200,OK
51.590042,-1.784154,SN2 5DE,Swindon,South West,51.590042,-1.784154,200,OK
52.5016,-1.985225,B66 1HX,Sandwell,West Midlands,52.501924,-1.985107,200,OK
52.574899,-1.96472,WS1 2NT,Walsall,West Midlands,52.574899,-1.96472,200,OK
53.820636,-1.442626,LS14 5LL,Leeds,Yorkshire and The Humber,53.820636,-1.442626,200,OK
51.781022,-3.171206,,,,,,200,OK
54.657845,-1.234153,TS25 3HG,Hartlepool,North East,54.657845,-1.234153,200,OK
51.778449,-1.508886,OX28 5DG,West Oxfordshire,South East,51.778449,-1.508886,200,OK
51.439772,-1.02728,RG31 7ZN,West Berkshire,South East,51.439772,-1.02728,200,OK
51.328933,-0.132433,CR8 4NB,Croydon,London,51.328902,-0.132222,200,OK
50.606767,-2.457234,DT4 8JL,Dorset,South West,50.606125,-2.457592,200,OK
53.849959,-1.761147,BD17 6JH,Bradford,Yorkshire and The Humber,53.850212,-1.761875,200,OK
51.54925,-0.088736,N5 2NP,Islington,London,51.54925,-0.088736,200,OK
52.045332,1.121565,IP2 0QX,Ipswich,East of England,52.045298,1.121504,200,OK
50.684448,-1.528912,PO40 9FE,Isle of Wight,South East,50.684457,-1.528973,200,OK
53.158953,0.341396,PE25 1DZ,East Lindsey,East Midlands,53.158953,0.341396,200,OK
51.514061,0.02339,E16 3QT,Newham,London,51.51417,0.023841,200,OK
50.852521,-1.286118,SO31 9AE,Fareham,South East,50.852521,-1.286118,200,OK
51.626129,-0.175344,N20 0QZ,Barnet,London,51.626105,-0.175348,200,OK
53.652943,-0.746837,DN17 4QU,North Lincolnshire,Yorkshire and The Humber,53.652943,-0.746837,200,OK
51.515004,-0.142315,W1B 2ER,Westminster,London,51.514994,-0.142258,200,OK
53.740582,-1.506938,WF3 3BS,Leeds,Yorkshire and The Humber,53.740582,-1.506938,200,OK
52.199171,-0.462598,MK44 2DP,Bedford,East of England,52.199171,-0.462598,200,OK
56.128095,-3.175558,KY2 6DB,Fife,,56.128095,-3.175558,200,OK
52.637267,-1.070926,LE5 6RE,Leicester,East Midlands,52.637331,-1.070946,200,OK
51.524883,0.591913,SS8 9PB,Castle Point,East of England,51.524883,0.591913,200,OK
52.772401,-1.154767,LE12 8JX,Charnwood,East Midlands,52.772401,-1.154767,200,OK
55.769083,-4.197968,G74 4JR,South Lanarkshire,,55.769083,-4.197968,200,OK
54.987642,-1.595609,NE2 1JT,Newcastle upon Tyne,North East,54.987642,-1.595609,200,OK
53.691044,-2.788919,PR26 9BA,South Ribble,North West,53.690746,-2.78905,200,OK
51.285706,-1.053882,RG24 8EW,Basingstoke and Deane,South East,51.285706,-1.053877,200,OK
51.560063,-0.115694,N7 6BU,Islington,London,51.560063,-0.115694,200,OK
53.882202,-1.045502,YO19 6EY,York,Yorkshire and The Humber,53.882202,-1.045502,200,OK
53.757235,-0.454624,HU10 7UN,East Riding of Yorkshire,Yorkshire and The Humber,53.757235,-0.454624,200,OK
53.013662,-2.16703,ST4 2PQ,Stoke-on-Trent,West Midlands,53.013933,-2.165779,200,OK
50.86002,-0.966372,PO9 2UW,Havant,South East,50.86002,-0.966372,200,OK
57.051579,-2.496493,AB31 5TN,Aberdeenshire,,57.051607,-2.496049,200,OK
51.458486,-2.113033,SN15 3JJ,Wiltshire,South West,51.458486,-2.113033,200,OK
51.116392,1.16616,CT18 7BY,Folkestone and Hythe,South East,51.116392,1.16616,200,OK
52.713059,-2.806002,SY3 5BG,Shropshire,West Midlands,52.713059,-2.806002,200,OK
54.421749,-7.139728,,,,,,200,OK
54.248193,-2.774547,LA7 7FD,Westmorland and Furness,North West,54.248193,-2.774547,200,OK
53.779311,-1.560068,LS11 8JW,Leeds,Yorkshire and The Humber,53.779311,-1.560068,200,OK
54.687961,-1.561921,DL17 8PL,County Durham,North East,54.687961,-1.561921,200,OK
51.642144,0.394619,CM12 0TS,Basildon,East of England,51.642144,0.394619,200,OK
51.534649,0.80291,SS3 9SR,Southend-on-Sea,East of England,51.534649,0.80291,200,OK
55.678949,-2.226035,TD12 4HA,Scottish Borders,,55.678949,-2.226035,200,OK
54.136037,-0.797138,YO17 1BN,North Yorkshire,Yorkshire and The Humber,54.136037,-0.797138,200,OK
51.3293,-0.122787,CR8 4DJ,Croydon,London,51.3293,-0.122787,200,OK
53.421139,-3.042749,CH45 4JB,Wirral,North West,53.421408,-3.042771,200,OK
52.71508,-1.578979,DE12 8BD,South Derbyshire,East Midlands,52.715404,-1.578997,200,OK
53.503636,-1.482462,S70 5UB,Barnsley,Yorkshire and The Humber,53.503636,-1.482462,200,OK
54.561539,-1.23251,TS5 6LZ,Middlesbrough,North East,54.561539,-1.23251,200,OK
51.509248,-0.438368,,,,,,200,OK
53.89044,-2.030896,BD22 0NG,North Yorkshire,Yorkshire and The Humber,53.89044,-2.030896,200,OK
54.526477,-6.077694,BT28 3HA,Lisburn and Castlereagh,,54.526477,-6.077694,200,OK
54.342924,-6.274516,BT32 3HL,"Armagh City, Banbridge and Craigavon",,54.342924,-6.274516,200,OK
52.36375,-2.698575,SY8 1LZ,Shropshire,West Midlands,52.36375,-2.698575,200,OK
51.765795,-1.258826,OX2 6SE,Oxford,South East,51.765795,-1.258826,200,OK
57.889794,-4.083724,IV25 3NG,Highland,,57.890269,-4.084932,200,OK
51.443583,-2.512007,BS15 3HY,South Gloucestershire,South West,51.443583,-2.512007,200,OK
52.763908,0.936982,,,,,,200,OK
51.262393,-1.089503,RG21 7EY,Basingstoke and Deane,South East,51.262401,-1.089402,200,OK
51.405017,0.020626,BR1 3DA,Bromley,London,51.405017,0.020626,200,OK
54.987763,-1.553163,NE6 4PN,Newcastle upon Tyne,North East,54.987763,-1.553163,200,OK
53.685524,-1.902982,HX4 0BA,Calderdale,Yorkshire and The Humber,53.685524,-1.902982,200,OK
51.478558,0.007114,SE3 7UD,Greenwich,London,51.478559,0.00714,200,OK
51.644431,-1.310623,OX14 4HY,Vale of White Horse,South East,51.644431,-1.310623,200,OK
53.803605,-1.827323,BD15 7LE,Bradford,Yorkshire and The Humber,53.803605,-1.827323,200,OK
53.364905,-1.509961,S11 7AL,Sheffield,Yorkshire and The Humber,53.364914,-1.509915,200,OK
54.550712,-1.237135,TS5 7NT,Middlesbrough,North East,54.550712,-1.237135,200,OK
53.465775,-2.247959,M15 5JE,Manchester,North West,53.465775,-2.247959,200,OK
55.876794,-4.277178,G20 6JT,Glasgow City,,55.876794,-4.277178,200,OK
51.575723,0.213661,RM11 2DB,Havering,London,51.575723,0.213661,200,OK
52.558028,-0.318872,PE2 6YZ,Peterborough,East of England,52.558018,-0.318813,200,OK
50.416397,-3.732614,TQ9 7SP,South Hams,South West,50.416397,-3.732614,200,OK
55.954634,-3.287275,EH4 7EX,City of Edinburgh,,55.954634,-3.287275,200,OK
51.315081,-1.936446,SN10 4SN,Wiltshire,South West,51.315081,-1.936446,200,OK
52.9776,-1.172916,NG7 7EH,Nottingham,East Midlands,52.9776,-1.172916,200,OK
51.617663,-0.174513,N12 9ST,Barnet,London,51.617663,-0.174513,200,OK
51.739554,-1.220529,OX4 2YF,Oxford,South East,51.739554,-1.220529,200,OK
51.044748,-1.148395,SO24 0LB,Winchester,South East,51.044748,-1.148395,200,OK
51.42886,-2.184063,SN13 9HX,Wiltshire,South West,51.428482,-2.183976,200,OK
51.480455,-2.57879,BS7 9LL,"Bristol, City of",South West,51.480455,-2.57879,200,OK
51.535188,-0.905277,RG9 1BJ,South Oxfordshire,South East,51.535188,-0.905277,200,OK
53.765152,-0.292178,HU8 9AN,"Kingston upon Hull, City of",Yorkshire and The Humber,53.765152,-0.292178,200,OK
51.535001,-3.384999,CF72 8HR,Rhondda Cynon Taf,,51.535029,-3.384942,200,OK
55.837061,-4.291639,G41 4DG,Glasgow City,,55.836845,-4.292138,200,OK
53.569329,-1.734811,HD8 8GA,Kirklees,Yorkshire and The Humber,53.569311,-1.734871,200,OK
50.803875,-1.979329,BH21 1DH,Dorset,South West,50.803875,-1.979329,200,OK
51.554741,-3.339874,CF38 2HR,Rhondda Cynon Taf,,51.554741,-3.339874,200,OK
53.393499,-3.016508,CH41 6AZ,Wirral,North West,53.393671,-3.017399,200,OK
53.344125,-3.008844,CH63 3HW,Wirral,North West,53.344125,-3.008844,200,OK
54.589677,-1.355859,TS19 8HF,Stockton-on-Tees,North East,54.589672,-1.355981,200,OK
51.430823,-0.403425,TW13 7ND,Hounslow,London,51.430823,-0.403425,200,OK
