lat,lon,postcode,admin_district,region,latitude,longitude,estado_api,descripcion_estado
51.575694,-0.397257,HA4 9NB,Hillingdon,London,51.575613,-0.397246,200,OK
53.39085,-3.171209,CH47 4FB,Wirral,North West,53.391059,-3.170958,200,OK
50.38437,-4.065486,PL7 1TU,Plymouth,South West,50.38437,-4.065486,200,OK
52.150073,-3.405115,LD2 3BT,Powys,,52.150073,-3.405115,200,OK
50.878332,-1.026377,PO7 7JP,Havant,South East,50.878332,-1.026377,200,OK
51.418379,0.012862,BR1 4EJ,Bromley,London,51.418379,0.012862,200,OK
50.961021,-0.306572,RH13 8LA,Horsham,South East,50.961021,-0.306572,200,OK
55.891106,-4.382518,G13 4EL,Glasgow City,,55.891106,-4.382518,200,OK
52.771039,-1.22944,LE11 4WJ,Charnwood,East Midlands,52.77103,-1.22944,200,OK
51.370853,-0.107511,CR0 1RW,Croydon,London,51.370853,-0.107511,200,OK
53.682883,-1.504283,WF1 2TS,Wakefield,Yorkshire and The Humber,53.683306,-1.504308,200,OK
55.433723,-4.599117,,,,,,200,OK
51.5237,-0.108013,EC1R 0DW,Islington,London,51.523647,-0.108059,200,OK
53.629735,-1.376885,WF9 5NH,Wakefield,Yorkshire and The Humber,53.629735,-1.376885,200,OK
53.570611,-1.382359,S72 7BF,Barnsley,Yorkshire and The Humber,53.571141,-1.382261,200,OK
51.057353,-2.397737,BA9 9NG,Somerset,South West,51.057353,-2.397737,200,OK
51.254286,0.464168,ME15 0NB,Maidstone,South East,51.254286,0.464168,200,OK
54.48176,-1.39574,TS15 9PL,North Yorkshire,Yorkshire and The Humber,54.48176,-1.39574,200,OK
51.109117,-0.150437,RH10 7WU,Crawley,South East,51.109117,-0.150437,200,OK
50.37931,-4.21622,PL11 2JF,Cornwall,South West,50.37931,-4.21622,200,OK
51.496824,-0.130088,SW1P 2BT,Westminster,London,51.497007,-0.130254,200,OK
52.508298,-2.004406,B70 7TW,Sandwell,West Midlands,52.508298,-2.004406,200,OK
51.350043,-0.793467,GU47 9AR,Bracknell Forest,South East,51.350088,-0.793423,200,OK
52.039282,-4.312314,SA44 4BA,Ceredigion,,52.039256,-4.311953,200,OK
51.727083,0.470615,CM2 9PF,Chelmsford,East of England,51.727083,0.470615,200,OK
53.344784,-1.524536,S11 9NZ,Sheffield,Yorkshire and The Humber,53.344784,-1.524536,200,OK
51.536876,-0.184986,NW8 0RB,Westminster,London,51.536876,-0.184986,200,OK
53.622384,-1.854672,HD7 5NR,Kirklees,Yorkshire and The Humber,53.622384,-1.854672,200,OK
54.531703,-1.6815,DL2 3SR,North Yorkshire,Yorkshire and The Humber,54.531703,-1.6815,200,OK
51.149231,-0.483192,GU6 7FQ,Waverley,South East,51.149231,-0.483192,200,OK
53.520582,-1.393147,S73 0HQ,Barnsley,Yorkshire and The Humber,53.520582,-1.393147,200,OK
54.684923,-1.209027,TS24 7HQ,Hartlepool,North East,54.684923,-1.209027,200,OK
52.372837,-2.31235,DY12 2DP,Wyre Forest,West Midlands,52.372837,-2.31235,200,OK
51.545305,0.721665,SS2 5JL,Southend-on-Sea,East of England,51.545305,0.721665,200,OK
52.06179,1.129162,IP2 0UQ,Ipswich,East of England,52.062108,1.128353,200,OK
55.681981,-4.525094,KA3 3DY,East Ayrshire,,55.681978,-4.525077,200,OK
51.387384,-0.309421,KT6 6NF,Kingston upon Thames,London,51.387384,-0.309421,200,OK
52.613623,-1.918492,WS9 8JB,Walsall,West Midlands,52.613623,-1.918492,200,OK
50.66856,-1.514099,PO40 9QZ,Isle of Wight,South East,50.66856,-1.514099,200,OK
50.639034,-4.528959,PL15 8QP,Cornwall,South West,50.639034,-4.528959,200,OK
52.537355,-2.063397,DY4 9QR,Sandwell,West Midlands,52.537355,-2.063397,200,OK
51.29088,-2.431332,BA3 3PA,Bath and North East Somerset,South West,51.29088,-2.431332,200,OK
53.39606,-2.690813,WA8 3XS,St. Helens,North West,53.395739,-2.690507,200,OK
53.883948,-3.029879,FY5 2PS,Wyre,North West,53.883948,-3.029879,200,OK
52.637677,1.24038,NR5 8TZ,Norwich,East of England,52.637677,1.24038,200,OK
51.291929,-0.355583,KT22 9QN,Mole Valley,South East,51.291555,-0.355209,200,OK
53.689678,-1.319017,WF8 4DU,Wakefield,Yorkshire and The Humber,53.689678,-1.319017,200,OK
55.945883,-4.799445,PA16 7NG,Inverclyde,,55.945887,-4.799378,200,OK
52.031722,-1.12708,NN13 5JD,Buckinghamshire,South East,52.031722,-1.12708,200,OK
57.521953,-2.933811,AB55 5PA,Moray,,57.521891,-2.933928,200,OK
50.487682,-4.469941,PL14 5BT,Cornwall,South West,50.487682,-4.469941,200,OK
53.19242,-2.882529,CH1 1HN,Cheshire West and Chester,North West,53.19242,-2.882529,200,OK
51.529497,-0.759883,SL6 6QB,Windsor and Maidenhead,South East,51.529497,-0.759883,200,OK
53.652135,-3.000039,PR9 0BH,Sefton,North West,53.652135,-3.000039,200,OK
53.009403,-2.159428,ST4 2TD,Stoke-on-Trent,West Midlands,53.009807,-2.159249,200,OK
53.478391,-3.02907,L22 9QZ,Sefton,North West,53.478391,-3.02907,200,OK
52.926197,-1.203066,NG9 2EX,Broxtowe,East Midlands,52.926197,-1.203066,200,OK
52.9333,-1.253148,NG9 3JE,Broxtowe,East Midlands,52.9333,-1.253148,200,OK
51.363756,-2.368659,BA2 4SE,Bath and North East Somerset,South West,51.363753,-2.368657,200,OK
53.39841,-2.197184,SK3 0PR,Stockport,North West,53.398401,-2.197199,200,OK
51.458608,-2.126611,SN14 0BN,Wiltshire,South West,51.458599,-2.126539,200,OK
52.472271,-0.080649,PE26 2YS,Huntingdonshire,East of England,52.472262,-0.080649,200,OK
51.461361,-2.141444,SN14 0LL,Wiltshire,South West,51.461361,-2.141444,200,OK
56.398171,-3.435488,PH1 5SG,Perth and Kinross,,56.398171,-3.435488,200,OK
51.603373,-2.025971,SN16 9DY,Wiltshire,South West,51.603373,-2.025971,200,OK
51.541359,0.781357,SS3 8XL,Southend-on-Sea,East of England,51.541624,0.781921,200,OK
51.518552,-0.151151,W1G 8UL,Westminster,London,51.518552,-0.151151,200,OK
51.095986,-2.12683,SP3 6ER,Wiltshire,South West,51.095986,-2.12683,200,OK
53.836234,-1.538988,LS17 6LX,Leeds,Yorkshire and The Humber,53.836234,-1.538988,200,OK
51.913675,-2.113191,GL51 0WE,Cheltenham,South West,51.913675,-2.113191,200,OK
54.034581,-0.480328,YO25 3AB,East Riding of Yorkshire,Yorkshire and The Humber,54.034217,-0.481425,200,OK
52.785667,-2.119742,ST17 9ZD,Stafford,West Midlands,52.785667,-2.119742,200,OK
54.427863,-6.422084,BT63 5DQ,"Armagh City, Banbridge and Craigavon",,54.427863,-6.422084,200,OK
51.465452,0.362462,RM18 7SA,Thurrock,East of England,51.464926,0.36268,200,OK
51.115886,0.460969,TN17 1HY,Tunbridge Wells,South East,51.115886,0.460969,200,OK
55.759199,-4.276309,G76 0DE,East Renfrewshire,,55.759199,-4.276309,200,OK
51.879124,-1.473477,OX7 3QY,West Oxfordshire,South East,51.87938,-1.472501,200,OK
52.965879,-1.199014,NG8 3NT,Nottingham,East Midlands,52.965879,-1.199014,200,OK
51.755331,-2.14158,GL6 7BJ,Stroud,South West,51.755331,-2.14158,200,OK
51.554635,-0.103599,N5 1AP,Islington,London,51.554635,-0.103599,200,OK
55.097531,-1.589408,,,,,,200,OK
57.516309,-4.459328,IV6 7QJ,Highland,,57.516309,-4.459328,200,OK
53.032272,-2.40779,CW5 7NR,Cheshire East,North West,53.032272,-2.40779,200,OK
53.418097,-2.874136,L14 0NA,Liverpool,North West,53.418097,-2.874136,200,OK
52.978765,-0.301558,NG34 9TE,North Kesteven,East Midlands,52.978765,-0.301558,200,OK
51.833114,-0.696272,HP23 4QP,Dacorum,East of England,51.833114,-0.696286,200,OK
54.60825,-1.087739,TS10 5EJ,Redcar and Cleveland,North East,54.608413,-1.087859,200,OK
55.987472,-3.797285,FK1 5JT,Falkirk,,55.987472,-3.797285,200,OK
51.435434,0.315978,DA10 1AL,Dartford,South East,51.435384,0.315328,200,OK
55.647998,-4.779745,KA21 6ER,North Ayrshire,,55.647998,-4.779745,200,OK
50.163149,-5.298098,TR14 9NB,Cornwall,South West,50.163149,-5.298098,200,OK
52.266716,-2.138722,WR9 8PT,Wychavon,West Midlands,52.266716,-2.138722,200,OK
51.087062,1.147759,CT19 4BP,Folkestone and Hythe,South East,51.087062,1.147759,200,OK
53.932657,-1.375855,LS22 6SP,Leeds,Yorkshire and The Humber,53.932657,-1.375855,200,OK
51.399345,-3.286494,CF62 7XY,Vale of Glamorgan,,51.399299,-3.286503,200,OK
54.086824,-2.787636,LA2 6BQ,Lancaster,North West,54.086718,-2.787374,200,OK
53.502914,-1.148605,DN4 8JQ,Doncaster,Yorkshire and The Humber,53.50285,-1.148531,200,OK
54.387155,-7.838251,,,,,,200,OK
51.856049,-2.52507,GL17 9BA,Forest of Dean,South West,51.856049,-2.52507,200,OK
53.630491,-2.105586,OL15 0BY,Rochdale,North West,53.630491,-2.105586,200,OK
51.466182,-0.954307,RG4 5NA,Reading,South East,51.466182,-0.954307,200,OK
55.867137,-4.262819,G3 6PW,Glasgow City,,55.867137,-4.262819,200,OK
53.375176,-1.491911,S10 2DY,Sheffield,Yorkshire and The Humber,53.375874,-1.491316,200,OK
52.503397,-1.979332,,,,,,200,OK
52.9489,-1.144188,NG1 7HT,Nottingham,East Midlands,52.948961,-1.143993,200,OK
51.526788,-3.093415,CF3 0LN,Cardiff,,51.526788,-3.093415,200,OK
52.137993,-0.445641,MK40 3UB,Bedford,East of England,52.138023,-0.445618,200,OK
53.941312,-1.883365,LS29 0RN,Bradford,Yorkshire and The Humber,53.941312,-1.883365,200,OK
51.607706,0.157574,RM5 2QR,Havering,London,51.607706,0.157574,200,OK
51.65641,-2.663472,,,,,,200,OK
51.456206,-0.19667,SW18 4GW,Wandsworth,London,51.456206,-0.19667,200,OK
53.789519,-1.592474,LS12 4LA,Leeds,Yorkshire and The Humber,53.789519,-1.592474,200,OK
53.356871,-1.113967,S81 9AH,Bassetlaw,East Midlands,53.356871,-1.113967,200,OK
50.91857,-1.399358,SO14 6HH,Southampton,South East,50.91857,-1.399358,200,OK
51.700544,-0.060573,EN7 5LT,Broxbourne,East of England,51.700544,-0.060573,200,OK
51.421201,-0.432051,TW16 7BA,Spelthorne,South East,51.421201,-0.432051,200,OK
53.38144,-2.258607,M22 5SE,Manchester,North West,53.38144,-2.258607,200,OK
51.91133,-0.447242,LU3 2UT,Luton,East of England,51.911356,-0.447186,200,OK
51.150741,0.876792,TN24 8EE,Ashford,South East,51.150761,0.876708,200,OK
54.757827,-4.581763,DG8 9SA,Dumfries and Galloway,,54.757827,-4.581763,200,OK
51.306223,-2.009347,SN10 5RG,Wiltshire,South West,51.306223,-2.009347,200,OK
53.555115,-2.625792,WN1 2LU,Wigan,North West,53.555115,-2.625792,200,OK
50.917285,-2.720687,BA22 9EN,Somerset,South West,50.917386,-2.72069,200,OK
53.273622,-2.809927,CH2 4RP,Cheshire West and Chester,North West,53.273622,-2.809927,200,OK
51.520037,-0.087898,EC2A 1NQ,Islington,London,51.520037,-0.087898,200,OK
52.454996,-1.792891,B26 3HP,Birmingham,West Midlands,52.454996,-1.792891,200,OK
54.809171,-6.704285,BT45 5SB,Mid Ulster,,54.809171,-6.704285,200,OK
54.953797,-1.494189,NE32 4XQ,South Tyneside,North East,54.953797,-1.494189,200,OK
52.820501,1.40356,NR28 9XD,North Norfolk,East of England,52.820501,1.40356,200,OK
52.674933,-2.420366,TF3 3BA,Telford and Wrekin,West Midlands,52.675578,-2.421097,200,OK
50.608729,-2.46822,DT4 0HU,Dorset,South West,50.608729,-2.46822,200,OK
51.604393,-3.340148,CF37 4TS,Rhondda Cynon Taf,,51.604393,-3.340148,200,OK
51.51421,-0.093417,EC2V 6DB,City of London,London,51.514177,-0.093577,200,OK
55.892007,-4.293807,G20 0HL,Glasgow City,,55.892021,-4.293729,200,OK
51.609292,-1.820297,SN25 2QG,Swindon,South West,51.609292,-1.820297,200,OK
52.695426,-2.516726,TF1 2DR,Telford and Wrekin,West Midlands,52.695426,-2.516726,200,OK
50.155936,-5.073948,TR11 2AR,Cornwall,South West,50.155936,-5.073948,200,OK
54.408459,-2.995932,LA22 0NF,Westmorland and Furness,North West,54.408459,-2.995932,200,OK
54.334851,-2.933123,LA23 3LT,Westmorland and Furness,North West,54.334851,-2.933123,200,OK
50.357259,-4.092765,PL9 9ER,Plymouth,South West,50.357259,-4.092765,200,OK
53.417965,-2.915737,L13 6QE,Liverpool,North West,53.417965,-2.915737,200,OK
50.753196,-1.280475,PO32 6QN,Isle of Wight,South East,50.753196,-1.280475,200,OK
51.572734,-4.005795,SA3 4LR,Swansea,,51.572739,-4.005815,200,OK
50.919645,-0.474127,RH20 4JX,Horsham,South East,50.919582,-0.474143,200,OK
53.354124,-2.16815,SK7 1HJ,Stockport,North West,53.354124,-2.16815,200,OK
55.132289,-3.441402,DG11 1QZ,Dumfries and Galloway,,55.132289,-3.441402,200,OK
51.336195,0.464812,ME1 3XU,Tonbridge and Malling,South East,51.336195,0.464812,200,OK
51.517054,-0.101875,EC1A 9DE,City of London,London,51.516935,-0.10175,200,OK
53.527677,-0.055931,DN36 4HN,North East Lincolnshire,Yorkshire and The Humber,53.527677,-0.055931,200,OK
55.757538,-4.50704,G78 4BU,East Ayrshire,,55.757538,-4.50704,200,OK
51.425795,-0.006419,BR1 4PL,Lewisham,London,51.425795,-0.006419,200,OK
50.506513,-3.564949,TQ12 4SR,Teignbridge,South West,50.506513,-3.564949,200,OK
50.393831,-3.513274,TQ5 9SZ,Torbay,South West,50.393831,-3.513274,200,OK
51.194108,-0.596176,GU7 3BY,Waverley,South East,51.194037,-0.596307,200,OK
51.51056,-0.132033,W1D 6BL,Westminster,London,51.51056,-0.132033,200,OK
55.616574,-4.633095,KA11 1JT,North Ayrshire,,55.616574,-4.633095,200,OK
51.536062,-0.145019,NW1 7RU,Camden,London,51.536062,-0.145019,200,OK
53.367314,-2.828175,L26 0TE,Knowsley,North West,53.367314,-2.828175,200,OK
51.45217,-2.596133,BS1 4AY,"Bristol, City of",South West,51.45217,-2.596133,200,OK
53.251101,-1.444971,S41 8AU,Chesterfield,East Midlands,53.251101,-1.444971,200,OK
50.758164,-2.085011,BH16 6BW,Dorset,South West,50.75775,-2.085351,200,OK
51.587648,-1.425482,OX12 8BU,Vale of White Horse,South East,51.587891,-1.425551,200,OK
54.107556,-2.79638,LA5 8HS,Lancaster,North West,54.107556,-2.79638,200,OK
51.580215,-4.013197,SA3 5RJ,Swansea,,51.580215,-4.013197,200,OK
54.939579,-1.586398,NE9 6QN,Gateshead,North East,54.939579,-1.586398,200,OK
53.504603,-1.169224,DN4 0RZ,Doncaster,Yorkshire and The Humber,53.504161,-1.168961,200,OK
52.769626,-1.791417,DE13 8NE,East Staffordshire,West Midlands,52.769626,-1.791417,200,OK
53.200852,-3.094761,CH7 6JF,Flintshire,,53.200852,-3.094761,200,OK
51.48123,0.150117,DA17 6NR,Bexley,London,51.481265,0.150681,200,OK
51.553034,-1.740267,SN3 6EA,Swindon,South West,51.553034,-1.740267,200,OK
53.328538,-1.651425,S32 1AR,Derbyshire Dales,East Midlands,53.328538,-1.651425,200,OK
53.044625,-3.000821,LL13 7NH,Wrexham,,53.044625,-3.000821,200,OK
51.386489,-2.597306,BS41 8NN,Bath and North East Somerset,South West,51.386489,-2.597306,200,OK
53.579189,-2.390005,BL2 6EE,Bolton,North West,53.579189,-2.390005,200,OK
51.478134,-3.185822,CF11 6AU,Cardiff,,51.478134,-3.185822,200,OK
51.632413,-0.064117,N9 7BW,Enfield,London,51.632413,-0.064117,200,OK
51.721001,-2.228678,GL5 5NT,Stroud,South West,51.721091,-2.228548,200,OK
53.526037,-2.396621,M28 3LF,Salford,North West,53.526037,-2.396621,200,OK
52.64677,1.728012,NR30 5EN,Great Yarmouth,East of England,52.64677,1.728012,200,OK
53.596366,-2.145012,OL11 2AD,Rochdale,North West,53.596392,-2.145798,200,OK
51.614265,-0.248978,NW7 3LN,Barnet,London,51.614265,-0.248978,200,OK
53.222686,-4.209769,LL61 5QA,Isle of Anglesey,,53.222686,-4.209769,200,OK
52.155511,-1.513594,CV35 0NU,Stratford-on-Avon,West Midlands,52.155511,-1.513594,200,OK
52.328827,-3.189528,LD1 5UR,Powys,,52.328827,-3.189528,200,OK
53.079779,-4.313244,LL54 5TE,Gwynedd,,53.079779,-4.313244,200,OK
50.850703,-2.163309,DT11 9PT,Dorset,South West,50.850938,-2.163011,200,OK
51.241926,-2.989803,TA8 2AE,Somerset,South West,51.241926,-2.989803,200,OK
53.822833,-2.673389,PR3 2BA,Preston,North West,53.822833,-2.673389,200,OK
52.457039,-2.111418,DY9 8LU,Dudley,West Midlands,52.457039,-2.111418,200,OK
50.822484,0.250581,BN26 6EY,Wealden,South East,50.822484,0.250581,200,OK
52.444724,-4.026424,SY24 5AY,Ceredigion,,52.444724,-4.026424,200,OK
51.074824,-4.07015,EX31 2AT,North Devon,South West,51.074824,-4.07015,200,OK
53.77933,-0.299251,HU8 9HS,"Kingston upon Hull, City of",Yorkshire and The Humber,53.77933,-0.299251,200,OK
50.622175,-3.40881,EX8 1JZ,East Devon,South West,50.622175,-3.40881,200,OK
54.404514,-5.648295,BT30 9RE,"Newry, Mourne and Down",,54.404514,-5.648295,200,OK
54.654797,-5.929429,BT36 7TL,Antrim and Newtownabbey,,54.654797,-5.929429,200,OK
51.773096,-3.100954,NP4 9XG,Torfaen,,51.773096,-3.100954,200,OK
53.847567,-1.575115,LS16 8EJ,Leeds,Yorkshire and The Humber,53.847567,-1.575115,200,OK
55.99682,-4.577929,G83 0RA,West Dunbartonshire,,55.99682,-4.577929,200,OK
54.644127,-5.639991,BT19 7XH,Ards and North Down,,54.644076,-5.640133,200,OK
53.447917,-2.703278,WA9 3AB,St. Helens,North West,53.447917,-2.703278,200,OK
50.338942,-4.791869,PL25 4BB,Cornwall,South West,50.338775,-4.791945,200,OK
51.152141,-2.94277,TA7 8PD,Somerset,South West,51.152154,-2.942763,200,OK
51.49313,-0.109438,SE11 4UF,Lambeth,London,51.49313,-0.109438,200,OK
50.97154,-1.442029,SO52 9DN,Test Valley,South East,50.97154,-1.442029,200,OK
51.217108,0.280901,TN10 3NN,Tonbridge and Malling,South East,51.217108,0.280901,200,OK
53.825141,-1.731471,BD10 8EG,Bradford,Yorkshire and The Humber,53.825141,-1.731471,200,OK
51.511319,-0.14186,W1S 2EJ,Westminster,London,51.511319,-0.14186,200,OK
53.594955,-1.862169,HD9 5LJ,Kirklees,Yorkshire and The Humber,53.594955,-1.862169,200,OK
52.732811,-2.561018,TF6 6LE,Telford and Wrekin,West Midlands,52.732811,-2.561018,200,OK
50.727325,-3.534154,EX4 4JN,Exeter,South West,50.727325,-3.534154,200,OK
51.688293,-4.155712,SA15 3RW,Carmarthenshire,,51.688293,-4.155712,200,OK
52.062742,1.145075,IP1 3PF,Ipswich,East of England,52.062742,1.145075,200,OK
52.170479,-1.213403,NN11 3EL,West Northamptonshire,East Midlands,52.1702,-1.21332,200,OK
50.966123,-4.252855,EX39 5XB,Torridge,South West,50.966246,-4.253017,200,OK
53.198193,-0.550466,LN5 8RZ,Lincoln,East Midlands,53.198193,-0.550466,200,OK
52.496583,1.575231,NR34 0FR,South Norfolk,East of England,52.496583,1.575231,200,OK
53.274583,-3.046676,,,,,,200,OK
52.732412,-1.344967,LE67 5PR,North West Leicestershire,East Midlands,52.732412,-1.344967,200,OK
51.422371,-0.050913,SE26 5DE,Bromley,London,51.422371,-0.050913,200,OK
55.081745,-1.590181,NE23 6AN,Northumberland,North East,55.081745,-1.590181,200,OK
53.260432,-3.166848,CH6 6DA,Flintshire,,53.260432,-3.166848,200,OK
53.566095,-2.413665,BL3 2SA,Bolton,North West,53.56562,-2.413268,200,OK
52.200135,0.977247,IP14 1XP,Mid Suffolk,East of England,52.200302,0.976702,200,OK
51.319276,0.434368,ME6 5ST,Tonbridge and Malling,South East,51.319276,0.434368,200,OK
54.462087,-6.331287,BT66 6AH,"Armagh City, Banbridge and Craigavon",,54.462087,-6.331287,200,OK
54.584788,-5.92746,BT7 1GX,Belfast,,54.584775,-5.92726,200,OK
51.655028,-0.278595,WD6 1AU,Hertsmere,East of England,51.655028,-0.278595,200,OK
51.442908,-0.340582,TW2 5TR,Richmond upon Thames,London,51.442908,-0.340582,200,OK
52.577392,-1.299422,LE9 7AY,Hinckley and Bosworth,East Midlands,52.577392,-1.299422,200,OK
53.458013,-2.069555,SK14 4AL,Tameside,North West,53.458013,-2.069555,200,OK
50.852828,0.464058,TN39 4DG,Rother,South East,50.852828,0.464058,200,OK
51.70929,-1.977462,GL7 1YF,Cotswold,South West,51.70929,-1.977462,200,OK
52.98318,-2.092856,ST3 6LH,Stoke-on-Trent,West Midlands,52.98318,-2.092856,200,OK
51.913008,-1.161166,OX26 3EW,Cherwell,South East,51.913008,-1.161166,200,OK
53.887784,-3.046246,FY5 1LL,Wyre,North West,53.887784,-3.046246,200,OK
53.548076,-1.431194,S71 5BD,Barnsley,Yorkshire and The Humber,53.548076,-1.431194,200,OK
52.432408,-1.446983,CV2 2HW,Coventry,West Midlands,52.432408,-1.446983,200,OK
51.392576,-0.191019,SM4 6RD,Merton,London,51.392576,-0.191019,200,OK
57.095302,-2.269447,AB14 0US,Aberdeen City,,57.095302,-2.269464,200,OK
53.77947,-0.350453,HU6 7HG,"Kingston upon Hull, City of",Yorkshire and The Humber,53.77947,-0.350453,200,OK
52.726466,-2.1079,ST19 5BS,South Staffordshire,West Midlands,52.726466,-2.1079,200,OK
52.590809,-1.85509,B74 4TH,Birmingham,West Midlands,52.590809,-1.85509,200,OK
57.191201,-2.103064,AB23 8QS,Aberdeen City,,57.191121,-2.102452,200,OK
51.557149,-0.272205,,,,,,200,OK
51.602826,0.518799,SS12 9DU,Basildon,East of England,51.602826,0.518799,200,OK
51.792351,-2.495331,GL14 2UA,Forest of Dean,South West,51.792351,-2.495331,200,OK
51.67815,-3.162186,NP11 3AW,Caerphilly,,51.67815,-3.162186,200,OK
52.580609,-0.246055,PE1 2NX,Peterborough,East of England,52.580609,-0.246055,200,OK
51.595633,0.597082,SS6 9BP,Rochford,East of England,51.595164,0.596319,200,OK
53.862122,-1.677419,LS19 7TL,Leeds,Yorkshire and The Humber,53.862122,-1.677419,200,OK
51.233881,-0.715622,GU10 1BS,Guildford,South East,51.233881,-0.715622,200,OK
51.393899,-0.276407,KT5 9HE,Kingston upon Thames,London,51.393899,-0.276407,200,OK
53.359676,-2.034775,SK12 2EX,Cheshire East,North West,53.359674,-2.034759,200,OK
55.879521,-3.150194,EH20 9DR,Midlothian,,55.879475,-3.150288,200,OK
53.485007,-2.063449,SK15 1RG,Tameside,North West,53.485007,-2.063449,200,OK
51.521255,-3.70799,CF33 4LP,Bridgend,,51.521255,-3.70799,200,OK
51.687378,-0.382365,WD25 9QR,Watford,East of England,51.687378,-0.382365,200,OK
52.480973,-1.901656,B3 3AL,Birmingham,West Midlands,52.480668,-1.901907,200,OK
51.128767,-0.167016,RH10 8AQ,Crawley,South East,51.128767,-0.167016,200,OK
52.853365,-2.575344,TF9 3NR,Shropshire,West Midlands,52.853365,-2.575344,200,OK
51.408204,-3.274852,CF62 8EN,Vale of Glamorgan,,51.408195,-3.274837,200,OK
53.340264,0.257927,LN12 1BH,East Lindsey,East Midlands,53.340264,0.257927,200,OK
51.515029,-0.140498,W1F 7SD,Westminster,London,51.515146,-0.140353,200,OK
51.23395,-0.7312,GU10 1AE,Guildford,South East,51.23395,-0.7312,200,OK
56.73359,-2.65904,DD9 6AA,Angus,,56.733617,-2.659057,200,OK
50.138927,-5.533193,TR20 8YS,Cornwall,South West,50.138852,-5.533592,200,OK
53.392055,-2.318279,WA15 7AH,Trafford,North West,53.392055,-2.318279,200,OK
52.833944,0.846584,NR21 9DP,North Norfolk,East of England,52.833944,0.846584,200,OK
51.07922,1.1766,CT20 1BA,Folkestone and Hythe,South East,51.078993,1.176356,200,OK
51.670988,-3.204518,NP12 1ER,Caerphilly,,51.670931,-3.205717,200,OK
57.422211,-1.843791,AB42 0NR,Aberdeenshire,,57.422211,-1.843791,200,OK
55.794246,-4.867607,KA30 0AP,North Ayrshire,,55.794246,-4.867607,200,OK
53.755423,-2.682745,PR1 4NX,Preston,North West,53.755423,-2.682745,200,OK
54.185787,-0.317584,YO14 0PB,North Yorkshire,Yorkshire and The Humber,54.185787,-0.317584,200,OK
53.764491,-1.369006,LS25 7QF,Leeds,Yorkshire and The Humber,53.764491,-1.369006,200,OK
53.24659,-2.538496,CW8 1GU,Cheshire West and Chester,North West,53.24659,-2.538496,200,OK
53.042283,-2.986359,LL13 8DT,Wrexham,,53.042283,-2.986359,200,OK
53.498616,-2.217081,M40 8JU,Manchester,North West,53.498616,-2.217081,200,OK
50.841464,0.488417,TN40 1RT,Rother,South East,50.841464,0.488417,200,OK
52.558602,-0.254781,PE2 9HL,Peterborough,East of England,52.558559,-0.254843,200,OK
53.936019,-2.267435,BB7 4LN,Ribble Valley,North West,53.936019,-2.267435,200,OK
53.671662,-1.880794,HX4 9EE,Calderdale,Yorkshire and The Humber,53.671662,-1.880794,200,OK
57.36459,-2.431542,,,,,,200,OK
54.782722,-7.472848,BT82 9JA,Derry City and Strabane,,54.782722,-7.472848,200,OK
57.643857,-3.321014,IV30 1TN,Moray,,57.643857,-3.321014,200,OK
53.491469,-2.297229,M6 7AP,Salford,North West,53.491612,-2.297441,200,OK
57.175223,-2.103357,AB24 1WU,Aberdeen City,,57.175223,-2.103357,200,OK
51.705906,-2.683979,NP16 6TY,Monmouthshire,,51.705945,-2.684026,200,OK
55.943737,-3.184185,EH8 9JW,City of Edinburgh,,55.943737,-3.184185,200,OK
51.477131,-0.169415,SW11 3EX,Wandsworth,London,51.477158,-0.169361,200,OK
52.375039,-1.269461,CV21 2UN,Rugby,West Midlands,52.375039,-1.269461,200,OK
50.868628,-0.089493,BN1 9QR,Brighton and Hove,South East,50.868628,-0.089493,200,OK
53.387982,-1.412851,S9 5HN,Sheffield,Yorkshire and The Humber,53.388008,-1.41285,200,OK
51.234215,-0.20331,RH2 7JB,Reigate and Banstead,South East,51.234215,-0.20331,200,OK
52.622485,-1.163596,LE3 1BJ,Leicester,East Midlands,52.622485,-1.163596,200,OK
51.800355,-3.179176,NP23 4TA,Blaenau Gwent,,51.800355,-3.179176,200,OK
53.580465,-2.416826,BL2 2AR,Bolton,North West,53.580577,-2.418247,200,OK
51.843191,-2.056229,GL53 9QZ,Cotswold,South West,51.843191,-2.056229,200,OK
53.636099,-0.528651,DN20 0QH,North Lincolnshire,Yorkshire and The Humber,53.636099,-0.528651,200,OK
52.668096,0.081897,PE13 4NX,Fenland,East of England,52.668096,0.081897,200,OK
52.704532,-1.055261,LE7 3DW,Charnwood,East Midlands,52.704496,-1.055247,200,OK
51.458601,-0.295505,TW10 6EU,Richmond upon Thames,London,51.458601,-0.295505,200,OK
51.373252,-0.113547,CR0 4FN,Croydon,London,51.373252,-0.113547,200,OK
51.635675,-0.576943,HP8 4NR,Buckinghamshire,South East,51.635675,-0.576943,200,OK
50.772941,0.258428,BN20 8JU,Eastbourne,South East,50.772941,0.258428,200,OK
51.580734,-1.838494,SN5 4GT,Wiltshire,South West,51.580734,-1.838494,200,OK
52.920909,-4.23259,LL52 0AH,Gwynedd,,52.921206,-4.232196,200,OK
54.281944,-0.389875,YO11 1PH,North Yorkshire,Yorkshire and The Humber,54.281944,-0.389875,200,OK
51.486035,-0.608769,SL4 6BT,Windsor and Maidenhead,South East,51.486035,-0.608769,200,OK
52.562047,-1.787033,B75 7LW,Birmingham,West Midlands,52.562047,-1.787033,200,OK
52.480352,-3.974103,SY24 5EE,Ceredigion,,52.480352,-3.974103,200,OK
52.093215,-0.525368,MK43 9JS,Bedford,East of England,52.093443,-0.52558,200,OK
51.521303,0.592344,SS8 7AJ,Castle Point,East of England,51.521303,0.592344,200,OK
50.860791,0.582018,,,,,,200,OK
51.436571,-0.246213,SW15 3BH,Wandsworth,London,51.436752,-0.246355,200,OK
53.360604,-2.609112,WA4 6TJ,Warrington,North West,53.360604,-2.609112,200,OK
53.516245,-2.158477,M40 3SS,Manchester,North West,53.516245,-2.158492,200,OK
52.370263,-1.294022,CV22 7SU,Rugby,West Midlands,52.370263,-1.294022,200,OK
52.076651,-0.247373,SG18 8PQ,Central Bedfordshire,East of England,52.076651,-0.247373,200,OK
52.487354,-1.855842,B8 1NQ,Birmingham,West Midlands,52.487354,-1.855842,200,OK
52.131035,-4.548854,SA43 2BZ,Ceredigion,,52.131035,-4.548854,200,OK
53.746551,-2.470024,BB1 1YL,Blackburn with Darwen,North West,53.746845,-2.469844,200,OK
51.475916,-0.245252,SW13 9RQ,Richmond upon Thames,London,51.475916,-0.245252,200,OK
51.510653,-2.640097,BS10 7PT,"Bristol, City of",South West,51.510653,-2.640097,200,OK
53.741368,-0.35657,HU3 2ND,"Kingston upon Hull, City of",Yorkshire and The Humber,53.741368,-0.35657,200,OK
51.810761,-0.561992,HP4 1NU,Dacorum,East of England,51.810761,-0.561992,200,OK
50.541258,-2.451605,DT5 2HX,Dorset,South West,50.541255,-2.451559,200,OK
54.063699,-2.885763,LA3 1TY,Lancaster,North West,54.063746,-2.885883,200,OK
51.788566,1.154191,CO15 1PQ,Tendring,East of England,51.788546,1.153943,200,OK
54.176763,-2.548,LA6 2JJ,Lancaster,North West,54.176763,-2.548,200,OK
57.122008,-2.173507,AB15 9LA,Aberdeen City,,57.122008,-2.173523,200,OK
53.408498,-2.166935,SK3 0DY,Stockport,North West,53.408093,-2.166919,200,OK
50.743883,-1.734475,BH23 4TF,"Bournemouth, Christchurch and Poole",South West,50.743883,-1.734475,200,OK
51.439507,-3.216287,CF64 4HR,Vale of Glamorgan,,51.439506,-3.216359,200,OK
53.376007,-3.1604,,,,,,200,OK
51.553645,-0.137827,NW5 2NJ,Camden,London,51.553645,-0.137827,200,OK
53.700796,-1.643622,WF13 4HU,Kirklees,Yorkshire and The Humber,53.700796,-1.643622,200,OK
51.517643,-0.12507,WC1A 1LY,Camden,London,51.517654,-0.125199,200,OK
53.338701,-3.02378,CH63 6HA,Wirral,North West,53.338701,-3.02378,200,OK
54.57388,-2.494056,CA16 6RU,Westmorland and Furness,North West,54.57388,-2.494056,200,OK
50.467419,-4.765171,PL30 5JZ,Cornwall,South West,50.467419,-4.765171,200,OK
53.455417,-2.123116,M34 3RW,Tameside,North West,53.455417,-2.123116,200,OK
51.420195,-0.294303,KT2 5UG,Kingston upon Thames,London,51.419961,-0.29434,200,OK
55.080528,-3.621165,DG2 0QL,Dumfries and Galloway,,55.080528,-3.621165,200,OK
52.503129,1.111314,NR16 1NA,South Norfolk,East of England,52.503129,1.111314,200,OK
51.284221,-0.836159,GU51 3AB,Hart,South East,51.284221,-0.836159,200,OK
51.430439,-3.217571,CF64 4UB,Vale of Glamorgan,,51.430439,-3.217571,200,OK
55.861526,-4.274895,G3 8DS,Glasgow City,,55.861526,-4.274895,200,OK
52.34152,-0.080723,PE27 3DB,Huntingdonshire,East of England,52.34152,-0.080723,200,OK
54.00819,-1.465239,HG5 0ER,North Yorkshire,Yorkshire and The Humber,54.00819,-1.465239,200,OK
52.457331,-1.892481,B12 9RN,Birmingham,West Midlands,52.457201,-1.892447,200,OK
51.559854,0.423261,SS16 6NB,Basildon,East of England,51.559854,0.423261,200,OK
51.867843,0.880405,CO2 9LS,Colchester,East of England,51.867843,0.880405,200,OK
51.336309,0.54235,ME5 8PH,Medway,South East,51.336309,0.54235,200,OK
52.488746,-0.685466,NN17 1UN,North Northamptonshire,East Midlands,52.488746,-0.685466,200,OK
51.082209,1.158283,CT20 2PG,Folkestone and Hythe,South East,51.082209,1.158283,200,OK
51.494361,-3.153759,CF23 5AB,Cardiff,,51.494986,-3.153271,200,OK
51.285411,-0.728396,GU16 6AB,Surrey Heath,South East,51.285411,-0.728396,200,OK
51.520363,-0.13551,W1T 2AN,Camden,London,51.520363,-0.13551,200,OK
52.962915,-1.085043,NG4 1DW,Gedling,East Midlands,52.962915,-1.085043,200,OK
51.441541,0.351644,DA11 9LG,Gravesham,South East,51.441541,0.351644,200,OK
55.166612,-1.688661,NE61 1PN,Northumberland,North East,55.166612,-1.688661,200,OK
55.958136,-3.213775,EH4 1JX,City of Edinburgh,,55.958136,-3.213775,200,OK
52.188683,0.148127,CB1 3SN,Cambridge,East of England,52.188683,0.148127,200,OK
51.984317,-0.240803,SG6 4XQ,North Hertfordshire,East of England,51.984317,-0.240803,200,OK
53.564522,-2.194651,M24 6JW,Rochdale,North West,53.564522,-2.194651,200,OK
53.382922,-3.094436,CH49 0UZ,Wirral,North West,53.382944,-3.09397,200,OK
53.846378,-3.032862,FY2 0NX,Blackpool,North West,53.845849,-3.032743,200,OK
50.905669,-1.01339,PO8 9TJ,East Hampshire,South East,50.905669,-1.01339,200,OK
53.477612,-2.634896,WA12 0JG,St. Helens,North West,53.477612,-2.634896,200,OK
52.330041,-0.183851,PE29 3LE,Huntingdonshire,East of England,52.330099,-0.183726,200,OK
53.460663,-2.275641,M16 0LJ,Trafford,North West,53.460663,-2.275641,200,OK
53.574391,-0.970336,DN7 6NJ,Doncaster,Yorkshire and The Humber,53.574766,-0.970815,200,OK
53.530873,-2.499826,M46 0HU,Wigan,North West,53.530873,-2.499826,200,OK
52.1475,-1.209467,NN11 3PF,West Northamptonshire,East Midlands,52.147491,-1.209468,200,OK
51.539738,-0.063106,E8 4LS,Hackney,London,51.539738,-0.063106,200,OK
53.593212,-1.3282,WF9 3LS,Wakefield,Yorkshire and The Humber,53.592476,-1.328257,200,OK
53.25338,-1.933337,SK17 9AD,High Peak,East Midlands,53.25338,-1.933337,200,OK
51.322309,0.440313,ME6 5JD,Tonbridge and Malling,South East,51.322309,0.440313,200,OK
51.49124,-0.210178,W14 9BG,Hammersmith and Fulham,London,51.49124,-0.210178,200,OK
54.99184,-1.482224,NE28 0JW,North Tyneside,North East,54.99184,-1.482224,200,OK
53.793833,-3.054403,FY4 1HR,Blackpool,North West,53.793833,-3.054403,200,OK
51.460265,-0.189327,SW18 1SN,Wandsworth,London,51.460265,-0.189327,200,OK
52.251411,-0.67279,NN29 7LH,North Northamptonshire,East Midlands,52.251686,-0.673265,200,OK
50.081582,-5.312544,TR13 9ED,Cornwall,South West,50.081552,-5.312637,200,OK
53.427549,-2.987657,L5 7TX,Liverpool,North West,53.427039,-2.987344,200,OK
55.823485,-4.443122,PA2 8PF,Renfrewshire,,55.823485,-4.443122,200,OK
50.412347,-3.565039,TQ4 7NE,Torbay,South West,50.412347,-3.565039,200,OK
53.416331,-2.973419,L3 8QE,Liverpool,North West,53.416509,-2.973498,200,OK
54.565226,-1.224491,TS4 2JF,Middlesbrough,North East,54.565226,-1.224491,200,OK
54.995537,-7.306878,BT47 6FZ,Derry City and Strabane,,54.9955,-7.306753,200,OK
51.065839,-4.041531,EX32 9EU,North Devon,South West,51.065839,-4.041531,200,OK
56.038326,-3.827805,FK5 4FW,Falkirk,,56.038326,-3.827805,200,OK
53.730726,-2.491584,BB2 4UW,Blackburn with Darwen,North West,53.730726,-2.491584,200,OK
51.410898,-0.690078,SL5 8DE,Windsor and Maidenhead,South East,51.410561,-0.690533,200,OK
51.46494,-0.219212,SW15 1PX,Wandsworth,London,51.46529,-0.219227,200,OK
51.524273,-0.123529,WC1N 1AF,Camden,London,51.524273,-0.123529,200,OK
53.429844,-2.449469,M44 5YJ,Salford,North West,53.429844,-2.449469,200,OK
55.934831,-3.283401,EH12 7NR,City of Edinburgh,,55.934831,-3.283401,200,OK
51.665001,-3.254215,CF82 8FW,Caerphilly,,51.665001,-3.254215,200,OK
51.838111,-5.010471,SA62 6JB,Pembrokeshire,,51.838111,-5.010471,200,OK
52.325903,0.350499,CB7 5BE,East Cambridgeshire,East of England,52.326084,0.350768,200,OK
53.37737,-1.459356,S2 2TN,Sheffield,Yorkshire and The Humber,53.37737,-1.459355,200,OK
52.515651,-2.048482,B69 2HL,Sandwell,West Midlands,52.515651,-2.048482,200,OK
51.512477,-0.137792,W1F 9RZ,Westminster,London,51.512477,-0.137792,200,OK
52.064713,-1.339445,OX16 2EG,Cherwell,South East,52.064812,-1.339473,200,OK
56.403222,-5.469552,PA34 4JL,Argyll and Bute,,56.403222,-5.469552,200,OK
53.875233,-1.852782,BD20 5JD,Bradford,Yorkshire and The Humber,53.875233,-1.852782,200,OK
51.622801,-1.10574,OX10 6LR,South Oxfordshire,South East,51.622801,-1.10574,200,OK
53.604462,-2.154107,OL11 1NG,Rochdale,North West,53.604796,-2.153005,200,OK
51.295717,-1.045386,RG24 8WR,Basingstoke and Deane,South East,51.295717,-1.045386,200,OK
53.461319,-2.219271,M13 0AY,Manchester,North West,53.461319,-2.219271,200,OK
50.785221,-1.084104,PO5 2BB,Portsmouth,South East,50.785221,-1.084104,200,OK
52.191782,-2.220512,WR1 2QN,Worcester,West Midlands,52.191684,-2.220116,200,OK
54.502248,-6.048727,BT28 1JX,Lisburn and Castlereagh,,54.502248,-6.048727,200,OK
53.293348,-1.448624,S18 4AF,North East Derbyshire,East Midlands,53.293348,-1.448624,200,OK
51.771689,-4.957437,SA62 4ET,Pembrokeshire,,51.771689,-4.957437,200,OK
54.016853,-1.176743,YO30 1BU,North Yorkshire,Yorkshire and The Humber,54.016577,-1.177336,200,OK
52.926144,-3.249353,LL20 7DD,Wrexham,,52.926144,-3.249353,200,OK
53.447787,-2.078813,SK14 1JQ,Tameside,North West,53.447787,-2.078813,200,OK
53.451544,-2.384572,M41 8UE,Trafford,North West,53.451544,-2.384572,200,OK
50.748381,-1.798348,BH23 2HW,"Bournemouth, Christchurch and Poole",South West,50.748381,-1.798348,200,OK
52.984863,-1.146173,NG5 3AB,Nottingham,East Midlands,52.984863,-1.146173,200,OK
53.403469,-2.985354,L1 3DL,Liverpool,North West,53.403469,-2.985354,200,OK
51.510782,-0.10607,EC4Y 0JP,City of London,London,51.51131,-0.105932,200,OK
51.509037,-0.130698,WC2H 7ER,Westminster,London,51.509037,-0.130698,200,OK
55.912346,-3.277714,EH14 3HP,City of Edinburgh,,55.912346,-3.277714,200,OK
50.931081,-0.07814,BN6 8RY,Lewes,South East,50.931081,-0.07814,200,OK
56.47094,-4.321334,FK21 8TN,Stirling,,56.47094,-4.321334,200,OK
54.969278,-1.524705,NE31 1ER,South Tyneside,North East,54.969278,-1.524705,200,OK
52.63706,-1.131399,LE1 3YH,Leicester,East Midlands,52.63706,-1.131273,200,OK
55.884922,-4.280404,G20 9TJ,Glasgow City,,55.884922,-4.280404,200,OK
55.466563,-4.629648,KA8 0AT,South Ayrshire,,55.466563,-4.629648,200,OK
53.674244,-1.289429,WF8 3RY,Wakefield,Yorkshire and The Humber,53.674244,-1.289429,200,OK
52.37318,-0.77758,NN14 1UH,North Northamptonshire,East Midlands,52.37318,-0.77758,200,OK
51.866062,-4.269673,SA31 2JB,Carmarthenshire,,51.866062,-4.269673,200,OK
57.140076,-2.116967,AB10 6QL,Aberdeen City,,57.140049,-2.116999,200,OK
51.21348,-3.810588,EX35 6LE,North Devon,South West,51.21348,-3.810588,200,OK
51.335425,0.521224,ME5 9NN,Tonbridge and Malling,South East,51.335425,0.521224,200,OK
51.077623,1.170508,CT20 2RT,Folkestone and Hythe,South East,51.077623,1.170508,200,OK
53.396711,-2.602274,WA5 0LS,Warrington,North West,53.396943,-2.602578,200,OK
51.511872,0.010524,E16 1RB,Newham,London,51.511763,0.01069,200,OK
54.977815,-1.586052,NE6 1SQ,Newcastle upon Tyne,North East,54.977361,-1.584776,200,OK
51.51827,-0.598866,SL1 3NZ,Slough,South East,51.51827,-0.598866,200,OK
53.107575,-3.409505,LL15 2EB,Denbighshire,,53.107575,-3.409505,200,OK
51.518493,-0.154309,W1U 7HU,Westminster,London,51.518493,-0.154309,200,OK
52.708617,-1.998181,WS12 1AQ,Cannock Chase,West Midlands,52.708923,-1.997722,200,OK
51.356003,-0.397224,,,,,,200,OK
52.322017,-0.947898,NN6 8HU,West Northamptonshire,East Midlands,52.322017,-0.947898,200,OK
51.518446,-0.150708,W1G 8UN,Westminster,London,51.518446,-0.150708,200,OK
52.450646,-1.809759,B27 6SD,Birmingham,West Midlands,52.450646,-1.809759,200,OK
50.516345,-4.235175,PL18 9HF,Cornwall,South West,50.516345,-4.235175,200,OK
52.893063,-1.426217,DE24 0LJ,Derby,East Midlands,52.893009,-1.426154,200,OK
55.652401,-4.683383,KA13 7LE,North Ayrshire,,55.652401,-4.683383,200,OK
53.272876,-2.937361,CH66 4LH,Cheshire West and Chester,North West,53.272876,-2.937361,200,OK
51.699263,-3.88226,SA6 5PE,Swansea,,51.699263,-3.88226,200,OK
54.135056,-6.543492,BT35 0QF,"Newry, Mourne and Down",,54.135056,-6.543492,200,OK
52.302332,-0.721426,NN8 3TQ,North Northamptonshire,East Midlands,52.302332,-0.721426,200,OK
52.043815,-1.792913,,,,,,200,OK
54.202371,-1.084774,YO62 4EN,North Yorkshire,Yorkshire and The Humber,54.202031,-1.084226,200,OK
53.600747,-1.927671,HD7 6BX,Kirklees,Yorkshire and The Humber,53.600747,-1.927671,200,OK
55.049784,-1.742047,NE20 9NH,Northumberland,North East,55.049668,-1.742564,200,OK
51.359906,-0.337307,KT10 0JS,Elmbridge,South East,51.359906,-0.337307,200,OK
55.871201,-2.096017,TD14 5AJ,Scottish Borders,,55.871201,-2.096017,200,OK
52.741874,-1.363963,LE67 5HJ,North West Leicestershire,East Midlands,52.741874,-1.363963,200,OK
52.201728,-1.73216,CV37 9FF,Stratford-on-Avon,West Midlands,52.201728,-1.73216,200,OK
52.461578,-1.869673,B11 1LX,Birmingham,West Midlands,52.461705,-1.870629,200,OK
53.016708,-1.350331,DE75 7SR,Amber Valley,East Midlands,53.016708,-1.350331,200,OK
51.619218,-2.969146,NP18 3EX,Newport,,51.618766,-2.969339,200,OK
53.723276,-1.859492,HX1 1RN,Calderdale,Yorkshire and The Humber,53.723276,-1.859492,200,OK
51.283247,-2.51739,BA3 4DX,Somerset,South West,51.283247,-2.51739,200,OK
51.484091,-2.191875,SN14 7EJ,Wiltshire,South West,51.484091,-2.191875,200,OK
51.288222,-0.850671,GU51 4HL,Hart,South East,51.288222,-0.850671,200,OK
52.051545,-0.781505,MK13 7QS,Milton Keynes,South East,52.051545,-0.781505,200,OK
51.86937,0.910446,CO2 8QH,Colchester,East of England,51.869314,0.90944,200,OK
57.283464,-2.379337,AB51 3QS,Aberdeenshire,,57.284199,-2.379659,200,OK
55.853035,-4.431173,PA3 2LJ,Renfrewshire,,55.853166,-4.430941,200,OK
53.954738,-1.062804,YO10 3EG,York,Yorkshire and The Humber,53.954738,-1.062804,200,OK
52.75469,0.409506,PE30 2QQ,King's Lynn and West Norfolk,East of England,52.75469,0.409506,200,OK
53.267786,-1.418846,S41 9NT,Chesterfield,East Midlands,53.267786,-1.418846,200,OK
52.699678,-2.030249,WS11 4QA,Cannock Chase,West Midlands,52.699678,-2.030249,200,OK
51.331362,1.414655,CT11 9EX,Thanet,South East,51.331362,1.414655,200,OK
57.663061,-2.486705,AB44 1QG,Aberdeenshire,,57.663391,-2.487246,200,OK
52.720271,-4.05203,LL42 1EG,Gwynedd,,52.720238,-4.051866,200,OK
51.553251,-1.800511,SN1 4PW,Swindon,South West,51.553251,-1.800511,200,OK
51.891325,-1.380932,OX20 1AL,West Oxfordshire,South East,51.891248,-1.381747,200,OK
52.384608,-2.267283,DY11 6PY,Wyre Forest,West Midlands,52.383863,-2.266676,200,OK
51.551876,0.732256,SS2 4PX,Southend-on-Sea,East of England,51.551876,0.732256,200,OK
53.389369,-2.972804,L8 6SN,Liverpool,North West,53.389325,-2.972743,200,OK
52.628369,0.493986,PE33 9EP,King's Lynn and West Norfolk,East of England,52.628369,0.493986,200,OK
54.293795,-0.424231,YO12 6DR,North Yorkshire,Yorkshire and The Humber,54.293795,-0.424231,200,OK
56.034604,-3.418172,KY11 2YF,Fife,,56.035059,-3.417691,200,OK
53.497394,-1.286087,S64 9DA,Doncaster,Yorkshire and The Humber,53.497394,-1.286087,200,OK
51.490302,-0.052471,SE16 2SH,Southwark,London,51.490121,-0.052406,200,OK
53.739863,-0.192703,HU12 8LF,East Riding of Yorkshire,Yorkshire and The Humber,53.739863,-0.192703,200,OK
52.670088,-1.93455,WS7 3YZ,Lichfield,West Midlands,52.670088,-1.93455,200,OK
51.444508,-1.599945,SN8 2SQ,Wiltshire,South West,51.444397,-1.59914,200,OK
50.791485,-3.656898,EX17 2BP,Mid Devon,South West,50.791485,-3.656898,200,OK
50.630247,-1.192868,PO37 7NL,Isle of Wight,South East,50.630247,-1.192868,200,OK
51.405565,-0.066782,SE20 7YR,Bromley,London,51.405565,-0.066782,200,OK
52.496161,-1.895377,B1 2AB,Birmingham,West Midlands,52.495968,-1.894209,200,OK
53.815434,-1.609385,LS5 3RX,Leeds,Yorkshire and The Humber,53.815434,-1.609385,200,OK
54.150127,-3.180953,LA15 8SZ,Westmorland and Furness,North West,54.149956,-3.180917,200,OK
50.415427,-4.14209,PL5 4AZ,Plymouth,South West,50.415427,-4.14209,200,OK
51.542383,-0.056115,E8 3PA,Hackney,London,51.54248,-0.056458,200,OK
52.455464,-2.080246,B63 2DZ,Dudley,West Midlands,52.455464,-2.080246,200,OK
55.908048,-3.536617,EH54 8PN,West Lothian,,55.908048,-3.536617,200,OK
52.736538,-1.343291,LE67 5GT,North West Leicestershire,East Midlands,52.736602,-1.343453,200,OK
53.950619,-1.121958,YO24 3BA,York,Yorkshire and The Humber,53.950583,-1.121967,200,OK
52.600231,-2.039584,WV12 4JR,Walsall,West Midlands,52.600231,-2.039584,200,OK
53.455186,-2.144379,M34 2PB,Tameside,North West,53.455186,-2.144379,200,OK
51.013709,-3.109,TA1 4DG,Somerset,South West,51.01353,-3.109404,200,OK
52.338869,0.340573,CB7 5GX,East Cambridgeshire,East of England,52.338869,0.340573,200,OK
53.525353,-2.255472,M25 0BX,Bury,North West,53.525353,-2.255472,200,OK
51.363232,-2.920023,BS22 6NQ,North Somerset,South West,51.36322,-2.920014,200,OK
56.147863,-3.265512,KY5 0BH,Fife,,56.147863,-3.265512,200,OK
53.488279,-2.179562,M11 4JD,Manchester,North West,53.488279,-2.179562,200,OK
52.652548,-2.011384,WS6 6HY,South Staffordshire,West Midlands,52.652548,-2.011384,200,OK
50.68292,-3.252599,EX10 8SG,East Devon,South West,50.683291,-3.253017,200,OK
52.477109,-1.945054,B16 0SP,Birmingham,West Midlands,52.477109,-1.945054,200,OK
53.581022,-2.079892,OL2 8HY,Oldham,North West,53.581022,-2.079892,200,OK
53.29273,-3.809998,LL31 9GF,Conwy,,53.29273,-3.809998,200,OK
53.385859,-3.027964,CH41 2TG,Wirral,North West,53.385859,-3.027964,200,OK
52.490002,-2.1445,DY6 8TT,Dudley,West Midlands,52.490002,-2.1445,200,OK
53.816891,-1.629391,LS13 2NS,Leeds,Yorkshire and The Humber,53.816891,-1.629391,200,OK
52.207491,0.141409,CB1 2PH,Cambridge,East of England,52.207491,0.141409,200,OK
50.941689,-3.588372,EX16 8DJ,Mid Devon,South West,50.941689,-3.588372,200,OK
53.38791,-1.353656,S60 5QE,Rotherham,Yorkshire and The Humber,53.38791,-1.353656,200,OK
51.007922,-0.966452,GU32 3PF,East Hampshire,South East,51.007922,-0.966452,200,OK
51.767348,-0.227437,AL10 0PE,Welwyn Hatfield,East of England,51.767666,-0.227821,200,OK
55.026893,-1.528215,NE27 0DB,North Tyneside,North East,55.026821,-1.528309,200,OK
51.184316,-2.527828,BA4 4TR,Somerset,South West,51.184316,-2.527828,200,OK
54.991878,-3.06011,DG16 5EP,Dumfries and Galloway,,54.991759,-3.060419,200,OK
53.419761,-1.258362,S66 1WX,Rotherham,Yorkshire and The Humber,53.419842,-1.258271,200,OK
51.34091,-0.847358,GU46 6LL,Hart,South East,51.34091,-0.847358,200,OK
51.401841,-2.514559,BS31 2GR,Bath and North East Somerset,South West,51.401841,-2.514559,200,OK
53.086657,-2.501619,,,,,,200,OK
51.565914,-0.065211,N16 6NR,Hackney,London,51.56607,-0.06594,200,OK
50.871257,-2.965321,TA20 2AJ,Somerset,South West,50.871257,-2.965321,200,OK
55.147881,-2.997277,DG13 0EH,Dumfries and Galloway,,55.148324,-2.996974,200,OK
52.64913,-1.689042,B79 8TA,Tamworth,West Midlands,52.64913,-1.689042,200,OK
51.326865,-0.700453,GU15 1BW,Surrey Heath,South East,51.326865,-0.700453,200,OK
51.647081,0.057451,IG10 1BL,Epping Forest,East of England,51.647081,0.057451,200,OK
52.015119,-0.730138,MK6 4AZ,Milton Keynes,South East,52.015035,-0.729908,200,OK
51.529199,-0.359822,UB6 9QW,Ealing,London,51.529146,-0.359823,200,OK
51.633049,-0.101371,N21 3NE,Enfield,London,51.633022,-0.100837,200,OK
55.224518,-1.69948,NE61 3DX,Northumberland,North East,55.224518,-1.69948,200,OK
51.489931,-0.092918,SE17 1DX,Southwark,London,51.48985,-0.092838,200,OK
51.207545,-0.62107,GU3 1JW,Guildford,South East,51.207545,-0.62107,200,OK
52.226907,-2.744079,HR6 8EZ,"Herefordshire, County of",West Midlands,52.226907,-2.744079,200,OK
51.619649,-0.641204,HP9 2NT,Buckinghamshire,South East,51.619649,-0.641204,200,OK
53.523191,-2.496703,M46 0DL,Wigan,North West,53.523191,-2.496703,200,OK
53.386355,-2.835581,L27 6PN,Liverpool,North West,53.386355,-2.835581,200,OK
50.904163,-1.008701,PO8 9DQ,East Hampshire,South East,50.904163,-1.008701,200,OK
53.408215,-4.351919,LL68 9AU,Isle of Anglesey,,53.408251,-4.351943,200,OK
51.4096,-1.323303,RG14 1LY,West Berkshire,South East,51.409592,-1.323389,200,OK
55.160017,-1.599455,NE62 5DQ,Northumberland,North East,55.160017,-1.599455,200,OK
53.587444,-0.692531,DN15 8JH,North Lincolnshire,Yorkshire and The Humber,53.587444,-0.692531,200,OK
51.785626,-1.369086,OX29 4EY,West Oxfordshire,South East,51.785626,-1.369086,200,OK
51.329946,-0.098128,CR8 1DT,Croydon,London,51.330063,-0.098154,200,OK
57.43402,-7.360815,HS7 5PP,Na h-Eileanan Siar,,57.43402,-7.360815,200,OK
51.138619,-0.148115,RH10 3NH,Crawley,South East,51.138619,-0.148115,200,OK
50.836003,-1.208194,PO14 2HS,Fareham,South East,50.836003,-1.208194,200,OK
51.750034,-1.271745,OX2 0DJ,Oxford,South East,51.750034,-1.271745,200,OK
53.659778,-2.961603,PR9 7NA,Sefton,North West,53.659778,-2.961603,200,OK
53.556185,-2.791027,WN8 8RA,West Lancashire,North West,53.556185,-2.791027,200,OK
53.983123,-1.116334,YO30 5TF,York,Yorkshire and The Humber,53.983113,-1.116252,200,OK
52.137511,-0.463105,MK40 3JB,Bedford,East of England,52.137523,-0.463039,200,OK
55.01042,-1.592487,NE12 8RL,North Tyneside,North East,55.01042,-1.592487,200,OK
52.487574,-1.974626,B67 6BG,Sandwell,West Midlands,52.487574,-1.974626,200,OK
55.776128,-4.094607,ML3 9QR,South Lanarkshire,,55.776128,-4.094607,200,OK
52.010891,1.029924,CO7 6EF,Babergh,East of England,52.010891,1.029924,200,OK
54.709553,-7.606863,BT81 7TR,Derry City and Strabane,,54.709553,-7.606863,200,OK
53.645536,-1.528456,WF4 3GB,Wakefield,Yorkshire and The Humber,53.645536,-1.528456,200,OK
54.597454,-5.805029,BT16 1HZ,Lisburn and Castlereagh,,54.597475,-5.805198,200,OK
51.568614,0.143675,RM8 1HJ,Barking and Dagenham,London,51.568496,0.142888,200,OK
51.3305,-2.449803,BA2 0DW,Bath and North East Somerset,South West,51.3305,-2.449803,200,OK
51.608972,0.019534,IG8 9QL,Waltham Forest,London,51.608972,0.019534,200,OK
50.921746,-1.375572,SO18 1GN,Southampton,South East,50.921746,-1.375572,200,OK
57.538609,-3.050247,AB55 6YN,Moray,,57.539069,-3.050294,200,OK
52.988847,-2.135577,ST3 1BF,Stoke-on-Trent,West Midlands,52.988873,-2.135576,200,OK
51.548615,-1.831883,SN5 8NP,Swindon,South West,51.548615,-1.831883,200,OK
51.643291,-0.355231,WD23 4UJ,Hertsmere,East of England,51.643291,-0.355231,200,OK
55.97327,-4.092976,G65 9EN,North Lanarkshire,,55.97327,-4.092976,200,OK
51.060879,-1.307635,SO23 9BH,Winchester,South East,51.060879,-1.307635,200,OK
52.577394,-2.160303,WV3 7JZ,Wolverhampton,West Midlands,52.577394,-2.160303,200,OK
51.399168,-1.307726,RG14 5SQ,West Berkshire,South East,51.399063,-1.308087,200,OK
53.496313,-2.174772,M40 1LP,Manchester,North West,53.49632,-2.174967,200,OK
53.374416,-3.026922,CH42 6QU,Wirral,North West,53.374416,-3.026922,200,OK
54.958886,-1.490549,NE32 4SF,South Tyneside,North East,54.958886,-1.490549,200,OK
51.279057,1.240659,CT3 1JP,Dover,South East,51.279057,1.240659,200,OK
51.573374,0.185462,RM1 2BT,Havering,London,51.573374,0.185462,200,OK
53.886899,-1.739317,LS29 6PZ,Bradford,Yorkshire and The Humber,53.886899,-1.739317,200,OK
56.004267,-3.790809,FK1 5BU,Falkirk,,56.004267,-3.790809,200,OK
50.788327,-1.042008,PO4 9LS,Portsmouth,South East,50.788327,-1.042008,200,OK
52.520079,-1.842781,B24 8AB,Birmingham,West Midlands,52.520079,-1.842781,200,OK
51.558659,-0.007813,E10 5QH,Waltham Forest,London,51.558517,-0.007243,200,OK
51.468652,-1.050075,RG31 6SR,West Berkshire,South East,51.468652,-1.050075,200,OK
51.40548,0.238615,DA4 9HR,Dartford,South East,51.40548,0.238615,200,OK
52.317875,-2.057433,B60 3FJ,Bromsgrove,West Midlands,52.317889,-2.057428,200,OK
53.437343,-2.226147,M14 6AY,Manchester,North West,53.437343,-2.226147,200,OK
50.758507,-1.638157,BH25 5AP,New Forest,South East,50.758507,-1.638157,200,OK
52.745462,-2.395477,TF10 9ER,Telford and Wrekin,West Midlands,52.744983,-2.39605,200,OK
53.823333,-2.675081,PR3 2BX,Preston,North West,53.823333,-2.675081,200,OK
51.502094,-0.17048,SW7 1NR,Westminster,London,51.502094,-0.17048,200,OK
51.021412,-4.176294,EX39 4NF,Torridge,South West,51.021349,-4.176747,200,OK
52.618599,-1.706067,B78 3XP,Tamworth,West Midlands,52.618599,-1.706067,200,OK
52.95129,-1.126741,NG2 4FA,Nottingham,East Midlands,52.95129,-1.126741,200,OK
52.902152,-1.519581,DE23 3SA,Derby,East Midlands,52.902152,-1.519581,200,OK
52.196534,0.070133,CB23 7PZ,South Cambridgeshire,East of England,52.196534,0.070133,200,OK
53.455229,-2.361791,M41 7BE,Trafford,North West,53.455229,-2.361791,200,OK
51.291389,-0.731515,GU16 6DT,Surrey Heath,South East,51.291389,-0.731515,200,OK
52.580473,-1.603902,CV9 2DT,North Warwickshire,West Midlands,52.580473,-1.603902,200,OK
53.386408,-2.25557,M22 9UH,Manchester,North West,53.386649,-2.255632,200,OK
52.841559,1.066438,NR24 2JL,North Norfolk,East of England,52.841571,1.066322,200,OK
55.396189,-4.184658,KA18 4AN,East Ayrshire,,55.396189,-4.184658,200,OK
51.455309,0.161566,DA7 6AS,Bexley,London,51.455309,0.161566,200,OK
52.220298,-2.235408,WR3 7NA,Worcester,West Midlands,52.220298,-2.235408,200,OK
54.999817,-6.331288,BT44 9LX,Causeway Coast and Glens,,54.999817,-6.331288,200,OK
55.927045,-3.179689,EH9 3BN,City of Edinburgh,,55.927142,-3.179804,200,OK
51.592382,-2.715603,NP26 5UG,Monmouthshire,,51.592382,-2.715603,200,OK
50.559382,-2.445295,DT5 1LH,Dorset,South West,50.559373,-2.445266,200,OK
50.862527,-4.113082,EX20 3HN,Torridge,South West,50.862527,-4.113082,200,OK
51.532643,-0.584753,SL2 4FF,Buckinghamshire,South East,51.532643,-0.584753,200,OK
52.379524,-2.261215,DY11 6QS,Wyre Forest,West Midlands,52.379547,-2.261196,200,OK
53.75621,-2.70067,PR1 3HP,Preston,North West,53.756479,-2.700781,200,OK
53.389901,-2.634958,WA5 1JR,Warrington,North West,53.389901,-2.634958,200,OK
53.835147,-2.196424,BB9 0PB,Pendle,North West,53.835138,-2.196439,200,OK
52.240995,0.720554,IP33 2AW,West Suffolk,East of England,52.241052,0.720792,200,OK
55.0211,-1.560175,NE12 9PZ,North Tyneside,North East,55.0211,-1.560175,200,OK
54.453363,-6.335219,BT66 8JR,"Armagh City, Banbridge and Craigavon",,54.453363,-6.335219,200,OK
50.808674,-0.446018,BN12 5NW,Arun,South East,50.808674,-0.446018,200,OK
51.294711,-1.971037,SN10 4PE,Wiltshire,South West,51.294711,-1.971037,200,OK
51.434775,-2.009266,SN11 0HB,Wiltshire,South West,51.434775,-2.009266,200,OK
51.739594,-2.269304,GL10 3HE,Stroud,South West,51.739594,-2.269304,200,OK
53.792521,-2.469869,BB1 9LT,Ribble Valley,North West,53.792539,-2.469885,200,OK
50.834733,-0.322991,BN15 9QA,Adur,South East,50.834733,-0.322991,200,OK
52.435199,-1.559788,CV5 9PQ,Coventry,West Midlands,52.435199,-1.559788,200,OK
52.04647,-0.199352,,,,,,200,OK
52.099351,-4.690784,SA43 3LL,Pembrokeshire,,52.099351,-4.690784,200,OK
53.204048,-2.875777,CH2 2HD,Cheshire West and Chester,North West,53.204041,-2.875537,200,OK
57.492875,-1.952608,AB42 4YD,Aberdeenshire,,57.492524,-1.952225,200,OK
50.933004,-0.282329,BN5 9PL,Horsham,South East,50.933004,-0.282329,200,OK
51.008639,-2.181447,SP7 8FQ,Dorset,South West,51.008639,-2.181447,200,OK
52.917281,-1.250316,NG9 5NQ,Broxtowe,East Midlands,52.917281,-1.250316,200,OK
54.398004,-6.314796,BT63 6AP,"Armagh City, Banbridge and Craigavon",,54.398004,-6.314796,200,OK
50.915832,-4.059755,EX19 8LQ,Torridge,South West,50.915832,-4.059755,200,OK
52.77965,-1.563226,DE11 0QD,South Derbyshire,East Midlands,52.77965,-1.563226,200,OK
53.102607,-2.448916,CW1 3DU,Cheshire East,North West,53.102607,-2.448916,200,OK
51.508288,-0.151537,W1K 1JA,Westminster,London,51.508288,-0.151537,200,OK
52.909641,-1.148961,NG2 7SX,Rushcliffe,East Midlands,52.909641,-1.148961,200,OK
51.79031,-0.670261,HP23 4BN,Dacorum,East of England,51.79031,-0.670261,200,OK
50.613338,-3.460179,EX6 8RP,Teignbridge,South West,50.613338,-3.460179,200,OK
51.640796,-1.145907,,,,,,200,OK
50.904943,-1.39339,SO14 1PW,Southampton,South East,50.904943,-1.39339,200,OK
51.748478,-0.965866,OX9 3YX,South Oxfordshire,South East,51.748478,-0.965866,200,OK
51.427035,-0.444754,TW15 1LJ,Spelthorne,South East,51.427035,-0.444754,200,OK
52.943346,-4.160888,LL49 9RS,Gwynedd,,52.943346,-4.160888,200,OK
53.294195,-3.06516,CH64 3SP,Cheshire West and Chester,North West,53.294341,-3.065914,200,OK
51.640144,-2.677685,NP16 5DE,Monmouthshire,,51.64018,-2.6777,200,OK
50.676098,-1.525358,PO40 9PB,Isle of Wight,South East,50.676098,-1.525358,200,OK
52.339746,-2.2794,DY13 8BJ,Wyre Forest,West Midlands,52.339746,-2.2794,200,OK
51.593747,-0.701904,HP10 9LD,Buckinghamshire,South East,51.593747,-0.701904,200,OK
54.329249,-6.621459,BT60 1NT,"Armagh City, Banbridge and Craigavon",,54.329249,-6.621459,200,OK
53.799201,-2.281472,BB12 8UX,Burnley,North West,53.799201,-2.281472,200,OK
51.573317,-1.840133,SN5 5UY,Swindon,South West,51.573317,-1.840133,200,OK
51.471502,-0.080051,SE5 8NE,Southwark,London,51.471502,-0.080051,200,OK
55.84157,-4.452547,PA1 2SX,Renfrewshire,,55.841564,-4.452403,200,OK
53.134225,-1.416313,DE55 6GG,North East Derbyshire,East Midlands,53.134225,-1.416313,200,OK
52.26697,-1.93822,B96 6ED,Redditch,West Midlands,52.26697,-1.93822,200,OK
51.509748,-0.151175,W1K 2RP,Westminster,London,51.509848,-0.1512,200,OK
53.638888,-2.85132,L40 1UB,West Lancashire,North West,53.638888,-2.85132,200,OK
53.086521,-1.480773,DE4 5ET,Amber Valley,East Midlands,53.086521,-1.480773,200,OK
52.912925,-1.16463,NG11 7EE,Nottingham,East Midlands,52.912925,-1.16463,200,OK
51.376272,-2.382825,BA2 3QG,Bath and North East Somerset,South West,51.376272,-2.382825,200,OK
51.440749,-0.372546,TW13 5QX,Hounslow,London,51.440749,-0.372546,200,OK
50.050378,-5.086733,TR12 6NE,Cornwall,South West,50.050378,-5.086733,200,OK
53.972283,-1.539354,HG2 9PB,North Yorkshire,Yorkshire and The Humber,53.972283,-1.539354,200,OK
51.510373,-0.585202,SL1 1XA,Slough,South East,51.510373,-0.585202,200,OK
53.592182,-1.621916,HD8 9HU,Kirklees,Yorkshire and The Humber,53.592182,-1.621916,200,OK
52.244866,0.40711,CB8 8LF,West Suffolk,East of England,52.244866,0.40711,200,OK
51.470248,-3.245684,CF5 5NH,Cardiff,,51.470248,-3.245684,200,OK
53.770847,-2.724052,PR2 2BT,Preston,North West,53.770847,-2.724052,200,OK
52.912305,-1.47798,DE23 6SN,Derby,East Midlands,52.912314,-1.477857,200,OK
51.476714,-0.114192,SW9 0PF,Lambeth,London,51.476714,-0.114192,200,OK
52.948277,-1.489409,DE22 2SF,Derby,East Midlands,52.948277,-1.489409,200,OK
51.579851,-0.155043,N6 4ED,Haringey,London,51.579851,-0.155043,200,OK
52.518408,-0.262403,PE7 3WH,Huntingdonshire,East of England,52.518408,-0.262403,200,OK
51.495094,-0.215833,W14 0UQ,Hammersmith and Fulham,London,51.495094,-0.215833,200,OK
51.753796,-1.138026,OX33 1QQ,South Oxfordshire,South East,51.753796,-1.138026,200,OK
51.783277,-1.487119,OX28 4YR,West Oxfordshire,South East,51.783277,-1.487119,200,OK
53.771247,-0.319532,HU7 0EF,"Kingston upon Hull, City of",Yorkshire and The Humber,53.771247,-0.319532,200,OK
53.467605,-1.329474,S62 5NQ,Rotherham,Yorkshire and The Humber,53.467605,-1.329474,200,OK
51.591591,-3.045067,NP10 0DN,Newport,,51.591725,-3.045171,200,OK
51.439164,0.27245,DA9 9SP,Dartford,South East,51.439144,0.272579,200,OK
54.214495,-2.888328,LA11 6QS,Westmorland and Furness,North West,54.214495,-2.888328,200,OK
50.797764,-4.46828,EX22 7EF,Torridge,South West,50.797776,-4.468298,200,OK
50.761603,-1.997197,BH18 9HS,"Bournemouth, Christchurch and Poole",South West,50.761603,-1.997197,200,OK
51.089073,-1.350492,SO22 6QJ,Winchester,South East,51.089073,-1.350492,200,OK
53.39839,-3.049653,CH41 8DE,Wirral,North West,53.39839,-3.049653,200,OK
53.511404,-2.278972,M7 3BD,Salford,North West,53.511404,-2.278972,200,OK
53.446144,-1.413917,S61 2QZ,Rotherham,Yorkshire and The Humber,53.446432,-1.414139,200,OK
53.777838,-0.257986,HU11 4BT,"Kingston upon Hull, City of",Yorkshire and The Humber,53.777838,-0.257986,200,OK
52.101218,0.355224,CB21 4QA,South Cambridgeshire,East of England,52.101152,0.354009,200,OK
51.630034,-1.284806,OX14 4BZ,Vale of White Horse,South East,51.630099,-1.283592,200,OK
53.320824,-3.771626,LL30 3RF,Conwy,,53.320824,-3.771626,200,OK
52.553884,-1.373468,LE10 0RA,Hinckley and Bosworth,East Midlands,52.553884,-1.373468,200,OK
51.429686,-0.112173,SE27 0RW,Lambeth,London,51.429686,-0.112173,200,OK
51.478706,-0.085595,SE5 7SY,Southwark,London,51.478706,-0.085595,200,OK
54.770039,-5.919054,BT39 9QJ,Antrim and Newtownabbey,,54.770039,-5.919054,200,OK
52.535331,-2.099891,WV14 9TS,Dudley,West Midlands,52.535331,-2.099891,200,OK
53.769887,-2.717784,PR2 2AY,Preston,North West,53.770299,-2.718125,200,OK
52.546352,-1.276027,LE9 4JT,Blaby,East Midlands,52.546352,-1.276027,200,OK
51.743294,0.6733,CM9 4UR,Maldon,East of England,51.743294,0.6733,200,OK
53.755509,-1.462492,LS26 8SB,Leeds,Yorkshire and The Humber,53.755509,-1.462492,200,OK
51.572374,-0.372309,HA2 9LP,Harrow,London,51.572357,-0.372894,200,OK
51.58479,0.170866,RM7 7JN,Havering,London,51.58479,0.170866,200,OK
52.013217,-1.758726,GL56 9BP,Cotswold,South West,52.013217,-1.758726,200,OK
53.719572,-2.09543,OL14 8BB,Calderdale,Yorkshire and The Humber,53.719581,-2.095657,200,OK
53.496247,-2.545559,WN7 4UH,Wigan,North West,53.495776,-2.546352,200,OK
51.490853,-0.150499,SW1W 9ST,Westminster,London,51.491027,-0.150075,200,OK
53.047093,-2.987334,LL13 8DE,Wrexham,,53.047093,-2.987334,200,OK
51.846595,-0.925047,HP18 0JQ,Buckinghamshire,South East,51.846595,-0.925047,200,OK
53.779588,-1.758678,BD5 7DL,Bradford,Yorkshire and The Humber,53.779872,-1.758513,200,OK
51.499846,-0.072895,SE1 2RP,Southwark,London,51.499846,-0.072895,200,OK
54.834373,-6.601819,BT45 8RN,Mid Ulster,,54.834373,-6.601819,200,OK
51.297297,0.410883,ME19 6FW,Tonbridge and Malling,South East,51.297297,0.410883,200,OK
52.413575,-1.890603,B14 5AN,Birmingham,West Midlands,52.413575,-1.890603,200,OK
52.068823,-0.239033,,,,,,200,OK
55.394961,-4.658988,KA19 8EP,South Ayrshire,,55.394961,-4.658988,200,OK
52.083148,-4.68332,SA43 3EU,Pembrokeshire,,52.083148,-4.68332,200,OK
56.253346,-3.20656,KY15 7BZ,Fife,,56.253346,-3.20656,200,OK
52.225562,-0.286728,PE19 8PH,Huntingdonshire,East of England,52.225562,-0.286728,200,OK
51.608987,-0.019345,E4 8NE,Waltham Forest,London,51.608987,-0.019345,200,OK
54.074507,-2.00353,BD23 5ND,North Yorkshire,Yorkshire and The Humber,54.074498,-2.003545,200,OK
53.692301,-2.231858,OL13 0NG,Rossendale,North West,53.692382,-2.231767,200,OK
51.12923,-2.754207,BA16 9PZ,Somerset,South West,51.12923,-2.754207,200,OK
53.763195,-1.793039,BD6 2JJ,Bradford,Yorkshire and The Humber,53.763195,-1.793039,200,OK
53.188298,-2.896393,CH1 2NW,Cheshire West and Chester,North West,53.188298,-2.896393,200,OK
51.205127,-2.186656,BA12 8PS,Wiltshire,South West,51.205127,-2.186656,200,OK
51.445973,-0.470071,TW19 7TT,Spelthorne,South East,51.445991,-0.470042,200,OK
53.289438,-3.696422,LL29 9PY,Conwy,,53.289438,-3.696422,200,OK
52.614364,1.306772,NR1 2UQ,Norwich,East of England,52.614364,1.306772,200,OK
52.465082,-1.976935,B17 8TT,Birmingham,West Midlands,52.465082,-1.976935,200,OK
51.547623,-0.117679,N7 8UQ,Islington,London,51.547564,-0.117393,200,OK
52.29877,-1.924568,B98 7LA,Redditch,West Midlands,52.298784,-1.924604,200,OK
55.609852,-4.677823,KA12 8QG,North Ayrshire,,55.609852,-4.677823,200,OK
51.502412,-0.19038,W8 4PE,Kensington and Chelsea,London,51.502412,-0.19038,200,OK
51.529937,-0.120081,WC1X 8BP,Camden,London,51.529831,-0.12006,200,OK
53.781407,-2.238891,BB11 2HS,Burnley,North West,53.781407,-2.238891,200,OK
52.156743,-0.353753,MK44 3JA,Bedford,East of England,52.156763,-0.353716,200,OK
53.835344,-2.224854,BB9 7BD,Pendle,North West,53.834973,-2.224017,200,OK
51.435773,0.401953,DA12 2EH,Gravesham,South East,51.435773,0.401953,200,OK
53.480811,-1.187681,DN12 1BF,Doncaster,Yorkshire and The Humber,53.480558,-1.18749,200,OK
52.1908,0.142991,CB1 3QX,Cambridge,East of England,52.1908,0.142991,200,OK
51.848553,0.402847,CM6 3PA,Uttlesford,East of England,51.848553,0.402847,200,OK
55.8213,-4.148151,G72 7UE,South Lanarkshire,,55.821592,-4.147385,200,OK
53.412991,-3.039105,CH44 4DW,Wirral,North West,53.412991,-3.039105,200,OK
51.821329,-1.553659,OX29 9PS,West Oxfordshire,South East,51.821329,-1.553659,200,OK
50.404209,-4.097295,PL6 8QZ,Plymouth,South West,50.404209,-4.097295,200,OK
51.357355,1.037862,CT5 1RA,Canterbury,South East,51.357355,1.037862,200,OK
51.306417,0.375648,ME19 5BA,Tonbridge and Malling,South East,51.306417,0.375648,200,OK
52.602299,-1.614573,B78 1PY,North Warwickshire,West Midlands,52.602299,-1.614573,200,OK
53.887499,-1.742706,LS29 6HJ,Bradford,Yorkshire and The Humber,53.887499,-1.742706,200,OK
51.180509,-0.709751,GU8 6BN,Waverley,South East,51.180509,-0.709751,200,OK
53.465937,-2.260914,M15 4GH,Trafford,North West,53.465937,-2.260914,200,OK
51.705448,-1.242949,OX14 2JZ,Vale of White Horse,South East,51.705448,-1.242949,200,OK
53.505496,-2.457612,M29 7BH,Wigan,North West,53.505496,-2.457612,200,OK
51.636075,-0.771689,HP12 3BQ,Buckinghamshire,South East,51.636075,-0.771689,200,OK
53.576327,-2.415214,BL2 1JN,Bolton,North West,53.576327,-2.415214,200,OK
52.125687,-1.759833,CV37 8FX,Stratford-on-Avon,West Midlands,52.125687,-1.759833,200,OK
51.930005,0.698818,CO6 2SA,Braintree,East of England,51.930005,0.698818,200,OK
55.882171,-3.115119,EH18 1LH,Midlothian,,55.882171,-3.115119,200,OK
53.352612,-1.004683,DN22 8QS,Bassetlaw,East Midlands,53.352614,-1.004699,200,OK
53.483853,-1.61322,S36 1LS,Sheffield,Yorkshire and The Humber,53.483787,-1.612694,200,OK
51.87406,-5.196383,SA62 6TE,Pembrokeshire,,51.87406,-5.196383,200,OK
52.673942,-1.837749,WS13 6QF,Lichfield,West Midlands,52.673942,-1.837749,200,OK
51.586939,0.082377,IG6 1RR,Redbridge,London,51.586939,0.082377,200,OK
50.913243,-1.297142,SO30 0JP,Eastleigh,South East,50.913243,-1.297142,200,OK
50.907719,-1.417731,SO15 1HH,Southampton,South East,50.908179,-1.41801,200,OK
53.716112,-1.592747,WF12 7RB,Kirklees,Yorkshire and The Humber,53.716112,-1.592747,200,OK
50.828712,-1.177392,PO13 0TN,Gosport,South East,50.828712,-1.177392,200,OK
51.453506,-0.976976,RG1 9SB,Reading,South East,51.453506,-0.976976,200,OK
51.518464,-3.25814,CF15 8DF,Cardiff,,51.51859,-3.257404,200,OK
53.793272,-1.529835,LS9 8EB,Leeds,Yorkshire and The Humber,53.793272,-1.529835,200,OK
51.314753,-2.960197,BS24 9JH,North Somerset,South West,51.314753,-2.960197,200,OK
52.783182,-1.60933,DE15 9SW,South Derbyshire,East Midlands,52.783182,-1.60933,200,OK
53.401096,-3.168603,CH47 5AW,Wirral,North West,53.401051,-3.168677,200,OK
57.110644,-2.323084,AB14 0PY,Aberdeen City,,57.11062,-2.322275,200,OK
57.509817,-1.793164,AB42 1QS,Aberdeenshire,,57.509817,-1.793164,200,OK
51.615039,0.494802,SS12 0JF,Basildon,East of England,51.615039,0.494802,200,OK
51.517742,-0.088874,EC2Y 5JA,City of London,London,51.517663,-0.08888,200,OK
53.355668,-3.12529,CH61 4XL,Wirral,North West,53.355878,-3.124949,200,OK
53.486387,-2.135082,M43 7HY,Tameside,North West,53.486387,-2.135082,200,OK
51.489855,-3.2144,CF5 2AG,Cardiff,,51.489855,-3.2144,200,OK
51.560065,-0.116949,N7 6ED,Islington,London,51.560065,-0.116949,200,OK
53.828073,-2.41638,BB7 9SA,Ribble Valley,North West,53.82806,-2.416334,200,OK
53.599176,-0.67955,DN15 8LP,North Lincolnshire,Yorkshire and The Humber,53.599176,-0.67955,200,OK
52.992605,-1.162826,NG5 5LN,Nottingham,East Midlands,52.992605,-1.162826,200,OK
53.578,-2.640946,WN6 0BF,Wigan,North West,53.578,-2.640946,200,OK
50.820644,-0.135933,BN2 1TY,Brighton and Hove,South East,50.820455,-0.135969,200,OK
50.395833,-3.511452,TQ5 9TW,Torbay,South West,50.3958,-3.511887,200,OK
53.739158,-0.334936,HU1 1TU,"Kingston upon Hull, City of",Yorkshire and The Humber,53.739181,-0.334662,200,OK
52.914594,-1.137785,NG2 7FG,Rushcliffe,East Midlands,52.914594,-1.137785,200,OK
51.820431,-0.819175,HP19 8AH,Buckinghamshire,South East,51.820431,-0.819175,200,OK
52.85736,1.282249,NR11 7AE,North Norfolk,East of England,52.85736,1.282249,200,OK
51.568054,0.129606,RM6 4BU,Redbridge,London,51.568036,0.129606,200,OK
53.486029,-2.286898,M6 5DT,Salford,North West,53.485798,-2.285493,200,OK
56.255822,-3.090839,KY15 7TP,Fife,,56.255253,-3.091097,200,OK
51.08835,-0.709404,GU27 2AG,Waverley,South East,51.088636,-0.709239,200,OK
51.008236,0.435649,TN19 7FE,Rother,South East,51.008236,0.435649,200,OK
55.613263,-2.776457,TD1 2LT,Scottish Borders,,55.613263,-2.776457,200,OK
52.528657,-2.080271,DY4 8BE,Dudley,West Midlands,52.528657,-2.080271,200,OK
54.140014,-0.805626,YO17 7BP,North Yorkshire,Yorkshire and The Humber,54.139969,-0.805612,200,OK
54.947888,-1.569779,NE10 0RY,Gateshead,North East,54.947888,-1.569779,200,OK
54.445894,-0.668665,YO22 5ER,North Yorkshire,Yorkshire and The Humber,54.445894,-0.668665,200,OK
50.802676,0.299843,BN23 7RJ,Eastbourne,South East,50.802676,0.299843,200,OK
51.486899,-0.436093,UB3 5DD,Hillingdon,London,51.486899,-0.436093,200,OK
55.190718,-6.703419,BT55 7DG,Causeway Coast and Glens,,55.190718,-6.703419,200,OK
51.470719,-2.561391,BS5 6SB,"Bristol, City of",South West,51.470719,-2.561391,200,OK
51.07374,-1.796696,SP1 3SW,Wiltshire,South West,51.073564,-1.796644,200,OK
55.897085,-3.15807,EH17 8AT,City of Edinburgh,,55.897085,-3.15807,200,OK
52.78284,-1.634726,DE15 9QE,South Derbyshire,East Midlands,52.782804,-1.634785,200,OK
51.419335,-0.882275,RG41 5BT,Wokingham,South East,51.419521,-0.882846,200,OK
52.759294,-0.391499,PE10 0YB,South Kesteven,East Midlands,52.758683,-0.39087,200,OK
54.230459,-0.896995,,,,,,200,OK
53.48132,-2.282797,M5 4HJ,Salford,North West,53.481428,-2.282783,200,OK
53.122214,-1.265196,NG17 1HB,Ashfield,East Midlands,53.122214,-1.265196,200,OK
53.460004,-2.268935,M16 9PR,Trafford,North West,53.460004,-2.268935,200,OK
51.659294,-1.63271,,,,,,200,OK
50.189867,-5.17885,TR3 7DH,Cornwall,South West,50.189867,-5.17885,200,OK
54.831175,-1.472559,DH5 9NP,Sunderland,North East,54.831175,-1.472559,200,OK
50.789975,-1.088253,PO5 1JP,Portsmouth,South East,50.790063,-1.088038,200,OK
51.568461,-0.017918,E10 7AL,Waltham Forest,London,51.568461,-0.017918,200,OK
51.919864,-0.455469,LU3 3TR,Luton,East of England,51.919864,-0.455469,200,OK
51.811984,0.637102,CM8 2NP,Braintree,East of England,51.811984,0.637102,200,OK
51.57928,-0.338758,HA1 3AP,Harrow,London,51.579278,-0.338781,200,OK
52.225121,-2.263278,WR2 6PU,Malvern Hills,West Midlands,52.225121,-2.263278,200,OK
51.404692,0.50624,ME2 4JR,Medway,South East,51.404623,0.506106,200,OK
53.801413,-1.564923,LS3 1NA,Leeds,Yorkshire and The Humber,53.801349,-1.564605,200,OK
53.799609,-1.536899,LS2 7QZ,Leeds,Yorkshire and The Humber,53.79999,-1.536034,200,OK
50.370617,-4.119722,PL4 9HZ,Plymouth,South West,50.370617,-4.119722,200,OK
53.410183,-2.539177,WA2 0UG,Warrington,North West,53.410183,-2.539177,200,OK
51.756267,0.085072,CM19 4NB,Harlow,East of England,51.756267,0.085072,200,OK
55.01971,-7.25676,BT47 5SS,Derry City and Strabane,,55.01971,-7.25676,200,OK
51.513938,-0.475015,UB7 7RU,Hillingdon,London,51.514016,-0.475324,200,OK
53.985249,-0.922882,YO41 1BB,East Riding of Yorkshire,Yorkshire and The Humber,53.985249,-0.922882,200,OK
53.028896,-2.559293,CW5 8AG,Cheshire East,North West,53.028896,-2.559293,200,OK
50.355971,-4.453001,PL13 1DY,Cornwall,South West,50.355971,-4.453001,200,OK
51.882254,-0.512884,LU5 4BP,Central Bedfordshire,East of England,51.882254,-0.512884,200,OK
51.953364,-0.271021,SG5 1QP,North Hertfordshire,East of England,51.953364,-0.271021,200,OK
52.577415,-2.039298,WS10 8YG,Walsall,West Midlands,52.577415,-2.039298,200,OK
52.271742,0.503551,CB8 7QA,West Suffolk,East of England,52.271742,0.503551,200,OK
51.396641,0.09911,BR5 2NZ,Bromley,London,51.396641,0.09911,200,OK
57.420071,-1.882775,AB42 0QB,Aberdeenshire,,57.420126,-1.884307,200,OK
53.844776,-0.424026,HU17 9JB,East Riding of Yorkshire,Yorkshire and The Humber,53.844719,-0.423763,200,OK
51.271569,-1.091228,RG21 5NR,Basingstoke and Deane,South East,51.271568,-1.091099,200,OK
51.377856,0.080389,BR6 8DL,Bromley,London,51.377856,0.080389,200,OK
57.628625,-2.719599,AB45 2BG,Aberdeenshire,,57.628625,-2.719599,200,OK
51.546366,0.021116,E7 9AE,Newham,London,51.546514,0.021986,200,OK
56.469867,-2.957802,DD4 6QH,Dundee City,,56.469867,-2.957802,200,OK
51.488392,-0.166045,SW3 4PL,Kensington and Chelsea,London,51.488392,-0.166045,200,OK
53.698313,-0.793612,DN14 8ET,East Riding of Yorkshire,Yorkshire and The Humber,53.698313,-0.793612,200,OK
51.493667,-0.279187,W4 5PT,Hounslow,London,51.493667,-0.279187,200,OK
52.97693,-2.115777,ST3 7FW,Stoke-on-Trent,West Midlands,52.97693,-2.115777,200,OK
52.987987,-1.973443,ST10 1SH,Staffordshire Moorlands,West Midlands,52.987987,-1.973443,200,OK
51.113626,0.189816,TN3 9RF,Wealden,South East,51.113626,0.189816,200,OK
51.279223,-0.822865,GU51 3EN,Hart,South East,51.279784,-0.822278,200,OK
53.921217,-0.938852,YO41 4BH,York,Yorkshire and The Humber,53.921217,-0.938852,200,OK
56.646823,-2.891293,DD8 3JA,Angus,,56.646823,-2.891293,200,OK
51.518469,-0.159081,W1H 2LF,Westminster,London,51.518469,-0.159081,200,OK
52.954652,-1.202156,NG8 1FS,Nottingham,East Midlands,52.954654,-1.202153,200,OK
51.542306,-0.188981,NW6 3HL,Camden,London,51.542306,-0.188981,200,OK
54.628777,-6.266861,,,,,,200,OK
51.42329,0.055784,BR7 6EF,Bromley,London,51.42329,0.055784,200,OK
53.492934,-2.311377,M6 8GQ,Salford,North West,53.492934,-2.311377,200,OK
54.466129,-2.390112,CA17 4HJ,Westmorland and Furness,North West,54.466129,-2.390112,200,OK
51.452592,-0.963036,RG1 4RH,Reading,South East,51.452592,-0.963036,200,OK
52.081947,-0.7357,MK16 0AU,Milton Keynes,South East,52.081947,-0.7357,200,OK
54.394507,-6.181569,BT25 1NQ,"Armagh City, Banbridge and Craigavon",,54.394507,-6.181569,200,OK
54.722103,-5.818335,BT38 8EH,Mid and East Antrim,,54.722103,-5.818335,200,OK
53.802106,-0.253396,HU11 4JX,East Riding of Yorkshire,Yorkshire and The Humber,53.802106,-0.253396,200,OK
51.340013,-0.248925,KT17 3JP,Epsom and Ewell,South East,51.340013,-0.248925,200,OK
51.400691,-3.413916,CF62 4PZ,Vale of Glamorgan,,51.400762,-3.41393,200,OK
53.036446,-2.142407,ST2 8JJ,Stoke-on-Trent,West Midlands,53.036446,-2.142407,200,OK
51.301743,-0.336052,KT22 7NP,Mole Valley,South East,51.302447,-0.33564,200,OK
52.677711,-0.461698,,,,,,200,OK
53.524619,-0.04705,DN36 4SQ,North East Lincolnshire,Yorkshire and The Humber,53.524619,-0.04705,200,OK
51.4959,-0.372636,UB2 4JG,Ealing,London,51.4959,-0.372636,200,OK
52.527069,-0.241288,PE7 3EL,Huntingdonshire,East of England,52.527069,-0.241288,200,OK
53.686969,-0.438784,DN18 5QN,North Lincolnshire,Yorkshire and The Humber,53.687375,-0.438905,200,OK
54.380334,-7.304237,BT75 0LY,Mid Ulster,,54.380334,-7.304237,200,OK
53.847799,-0.184311,HU11 4TB,East Riding of Yorkshire,Yorkshire and The Humber,53.847799,-0.184311,200,OK
57.045338,-3.04492,AB35 5LX,Aberdeenshire,,57.045338,-3.04492,200,OK
51.335368,-0.391647,KT11 2DB,Elmbridge,South East,51.33508,-0.391585,200,OK
53.485262,-2.176443,M11 4NG,Manchester,North West,53.485262,-2.176443,200,OK
54.439632,-8.036579,BT93 4AS,Fermanagh and Omagh,,54.439632,-8.036579,200,OK
51.656525,-0.393425,WD17 2LQ,Watford,East of England,51.656725,-0.393548,200,OK
51.620924,-0.085148,N13 5NB,Enfield,London,51.620924,-0.085148,200,OK
51.532782,-0.292001,NW10 7HS,Ealing,London,51.532782,-0.292001,200,OK
55.512212,-4.477363,KA5 5RL,South Ayrshire,,55.512212,-4.477363,200,OK
53.424592,-2.312412,M33 2YE,Trafford,North West,53.424592,-2.312412,200,OK
51.613346,-0.594375,HP9 2SU,Buckinghamshire,South East,51.613346,-0.594375,200,OK
53.592414,-2.438609,BL1 3PE,Bolton,North West,53.592414,-2.438609,200,OK
55.068476,-3.631907,DG2 9EW,Dumfries and Galloway,,55.068476,-3.631907,200,OK
52.880117,-1.443001,DE24 9FD,Derby,East Midlands,52.880117,-1.443001,200,OK
54.575474,-1.335276,TS19 0RQ,Stockton-on-Tees,North East,54.575474,-1.335276,200,OK
52.60834,-1.617193,B78 1QR,North Warwickshire,West Midlands,52.60834,-1.617193,200,OK
54.297589,-2.775875,LA8 8AG,Westmorland and Furness,North West,54.297821,-2.776156,200,OK
54.004967,-1.321618,YO26 8BF,North Yorkshire,Yorkshire and The Humber,54.004908,-1.322198,200,OK
53.965576,-1.479417,HG3 1EE,North Yorkshire,Yorkshire and The Humber,53.965576,-1.479417,200,OK
55.879679,-4.395967,PA4 9AE,Renfrewshire,,55.879679,-4.395967,200,OK
57.144994,-2.101432,AB11 6JJ,Aberdeen City,,57.144931,-2.101779,200,OK
52.05055,-2.103155,GL20 7HG,Wychavon,West Midlands,52.05055,-2.103155,200,OK
55.54267,-2.015202,NE71 6LZ,Northumberland,North East,55.54267,-2.015202,200,OK
53.737965,-2.663781,PR5 6DJ,South Ribble,North West,53.737965,-2.663781,200,OK
56.693794,-4.11504,PH16 5QF,Perth and Kinross,,56.693794,-4.11504,200,OK
51.557809,-0.14464,NW5 1BX,Camden,London,51.55787,-0.144522,200,OK
55.893296,-4.057192,ML5 2SU,North Lanarkshire,,55.892842,-4.057456,200,OK
53.544761,-0.222549,DN37 8NW,West Lindsey,East Midlands,53.544761,-0.222549,200,OK
55.861615,-3.943976,ML6 8EW,North Lanarkshire,,55.861615,-3.943976,200,OK
51.528136,-0.442105,UB10 0NE,Hillingdon,London,51.528136,-0.442105,200,OK
53.679478,-1.76744,HD2 1PX,Kirklees,Yorkshire and The Humber,53.679478,-1.76744,200,OK
52.54076,-1.803664,B76 1NL,Birmingham,West Midlands,52.54076,-1.803664,200,OK
51.8377,0.698315,CO5 9JG,Braintree,East of England,51.8377,0.698315,200,OK
53.14757,-0.749842,NG23 7RU,Newark and Sherwood,East Midlands,53.14757,-0.749842,200,OK
53.744453,-2.482101,BB2 2AH,Blackburn with Darwen,North West,53.744453,-2.482101,200,OK
57.517214,-1.944397,AB42 4GB,Aberdeenshire,,57.517304,-1.945398,200,OK
57.448781,-1.851026,,,,,,200,OK
54.929517,-6.374263,BT44 9HH,Mid and East Antrim,,54.929517,-6.374263,200,OK
53.858824,-1.906247,BD21 5NH,Bradford,Yorkshire and The Humber,53.858824,-1.906247,200,OK
53.540051,-2.197466,M24 1JX,Rochdale,North West,53.540051,-2.197466,200,OK
51.806368,1.025829,CO7 0AW,Tendring,East of England,51.806672,1.024515,200,OK
51.511354,-0.08979,EC4N 6HL,City of London,London,51.511354,-0.08979,200,OK
51.361107,-0.14987,SM6 0AP,Sutton,London,51.361038,-0.150063,200,OK
50.66937,-2.264674,DT2 8LG,Dorset,South West,50.66937,-2.264674,200,OK
51.519896,-0.108589,EC1N 8AW,Camden,London,51.519996,-0.10853,200,OK
51.360144,-2.921627,BS22 6LB,North Somerset,South West,51.360186,-2.92159,200,OK
52.196786,0.135699,CB1 2DN,Cambridge,East of England,52.196786,0.135699,200,OK
55.947824,-2.955148,EH33 1BU,East Lothian,,55.947824,-2.955148,200,OK
52.22453,0.115024,CB4 3RQ,Cambridge,East of England,52.22453,0.115024,200,OK
51.419679,-0.023326,BR3 1TW,Bromley,London,51.419679,-0.023326,200,OK
51.294616,-0.825326,GU51 2XJ,Hart,South East,51.294616,-0.825326,200,OK
56.058201,-3.225188,KY3 9BS,Fife,,56.058201,-3.225188,200,OK
51.40821,-0.468974,TW17 0QP,Spelthorne,South East,51.40821,-0.468974,200,OK
51.59434,-0.17298,N2 8EB,Barnet,London,51.59434,-0.17298,200,OK
50.909389,-1.573255,,,,,,200,OK
51.416849,-2.62905,BS13 8AL,"Bristol, City of",South West,51.416849,-2.62905,200,OK
53.550607,-0.436128,DN20 9HN,West Lindsey,East Midlands,53.550607,-0.436128,200,OK
54.895525,-2.253662,NE47 9DB,Northumberland,North East,54.895525,-2.253662,200,OK
50.850314,-1.153602,PO16 8BA,Fareham,South East,50.850314,-1.153602,200,OK
53.189511,-1.345941,S42 5UG,North East Derbyshire,East Midlands,53.189511,-1.345941,200,OK
53.534956,-2.236233,M9 0PX,Manchester,North West,53.534984,-2.235765,200,OK
51.523279,0.427171,SS17 8RW,Thurrock,East of England,51.52325,0.427256,200,OK
51.557244,-0.14586,NW5 1BT,Camden,London,51.557244,-0.14586,200,OK
52.143365,0.183331,,,,,,200,OK
52.305788,-1.684664,CV35 7AP,Warwick,West Midlands,52.305788,-1.684664,200,OK
51.541928,0.058055,E12 6LL,Newham,London,51.541928,0.058055,200,OK
52.173936,-2.288709,WR6 5JN,Malvern Hills,West Midlands,52.173936,-2.288709,200,OK
53.441065,-2.269101,M21 0XD,Manchester,North West,53.440849,-2.269386,200,OK
60.146396,-1.166704,ZE1 0RX,Shetland Islands,,60.146396,-1.166704,200,OK
51.591805,-3.195969,CF83 8AF,Caerphilly,,51.591805,-3.195969,200,OK
52.371912,-2.715214,SY8 1RF,Shropshire,West Midlands,52.371781,-2.715327,200,OK
51.624595,-0.991986,OX49 5EY,South Oxfordshire,South East,51.624595,-0.991986,200,OK
50.710886,-1.927297,BH13 7EN,"Bournemouth, Christchurch and Poole",South West,50.710886,-1.927297,200,OK
50.556331,-3.494233,TQ14 8PZ,Teignbridge,South West,50.55648,-3.49387,200,OK
51.989571,-0.18825,SG7 6AR,North Hertfordshire,East of England,51.989272,-0.188699,200,OK
50.097079,-5.206725,TR12 6UN,Cornwall,South West,50.097079,-5.206725,200,OK
53.405885,-2.978957,L1 1JN,Liverpool,North West,53.405885,-2.978957,200,OK
53.712412,-1.652945,WF17 7EX,Kirklees,Yorkshire and The Humber,53.712412,-1.652945,200,OK
52.459384,-2.01042,B32 1BA,Birmingham,West Midlands,52.459384,-2.01042,200,OK
51.50175,-3.223102,CF14 2JB,Cardiff,,51.50178,-3.223722,200,OK
52.45442,-2.808818,SY7 9JH,Shropshire,West Midlands,52.45442,-2.808818,200,OK
51.177049,0.582484,TN12 0EA,Maidstone,South East,51.177049,0.582484,200,OK
53.445023,-2.118028,M34 6JR,Tameside,North West,53.444691,-2.117244,200,OK
50.734643,-3.622708,EX4 2HW,Teignbridge,South West,50.73429,-3.62342,200,OK
51.473543,0.320284,RM17 6PN,Thurrock,East of England,51.473543,0.320284,200,OK
53.387347,-2.596865,WA1 1BW,Warrington,North West,53.387338,-2.59688,200,OK
54.467131,-6.329015,BT67 9AY,"Armagh City, Banbridge and Craigavon",,54.467131,-6.329015,200,OK
51.244899,-0.06897,RH9 8NG,Tandridge,South East,51.244899,-0.06897,200,OK
52.734843,-1.151243,LE12 7AH,Charnwood,East Midlands,52.734843,-1.151243,200,OK
53.612014,-2.606076,PR7 4LA,Chorley,North West,53.611648,-2.605618,200,OK
51.478414,-0.127111,SW8 2BG,Lambeth,London,51.478414,-0.127111,200,OK
51.883022,-0.452504,LU1 1UF,Luton,East of England,51.883022,-0.452504,200,OK
52.427659,-1.827844,B28 9NR,Birmingham,West Midlands,52.427659,-1.827844,200,OK
51.197956,-2.584773,BA5 3RB,Somerset,South West,51.19795,-2.584775,200,OK
55.826036,-4.344447,G53 5BT,Glasgow City,,55.826036,-4.344447,200,OK
51.103402,0.498719,TN17 2QE,Tunbridge Wells,South East,51.103402,0.498719,200,OK
56.407056,-3.44869,PH1 5AT,Perth and Kinross,,56.407056,-3.44869,200,OK
53.33185,-2.971494,CH62 3NX,Wirral,North West,53.332288,-2.972675,200,OK
53.096392,-2.039713,ST13 8JB,Staffordshire Moorlands,West Midlands,53.096392,-2.039713,200,OK
51.036943,-2.269931,SP8 4HU,Dorset,South West,51.036943,-2.269931,200,OK
53.306615,-2.608149,WA4 4JN,Cheshire West and Chester,North West,53.306631,-2.608148,200,OK
55.830081,-3.235566,EH26 9HY,Midlothian,,55.830081,-3.235566,200,OK
51.522374,-0.101077,EC1M 6AU,Islington,London,51.522374,-0.101077,200,OK
53.912064,-3.038137,FY7 8EZ,Wyre,North West,53.912064,-3.038137,200,OK
52.289281,-0.854929,NN3 7TD,West Northamptonshire,East Midlands,52.289841,-0.855193,200,OK
53.363518,-1.428379,S2 1JB,Sheffield,Yorkshire and The Humber,53.363518,-1.428379,200,OK
54.191993,-3.091351,LA12 0DJ,Westmorland and Furness,North West,54.191993,-3.091351,200,OK
52.937228,-1.183312,NG7 2RF,Nottingham,East Midlands,52.937228,-1.183312,200,OK
51.507053,-1.531836,RG17 8XN,West Berkshire,South East,51.507053,-1.531836,200,OK
51.070873,-2.08607,SP3 6PU,Wiltshire,South West,51.070873,-2.08607,200,OK
52.7097,-2.750135,SY1 2AU,Shropshire,West Midlands,52.7097,-2.750135,200,OK
54.766871,-3.327906,CA7 3EQ,Cumberland,North West,54.767232,-3.327762,200,OK
51.741074,-0.979823,OX9 2DS,South Oxfordshire,South East,51.741074,-0.979823,200,OK
55.756313,-4.682836,KA25 7DL,North Ayrshire,,55.756313,-4.682836,200,OK
51.387706,-0.311177,KT6 6RU,Kingston upon Thames,London,51.387714,-0.311154,200,OK
56.289969,-3.732611,PH3 1LW,Perth and Kinross,,56.289978,-3.732639,200,OK
55.423797,-2.807336,TD9 7HY,Scottish Borders,,55.423797,-2.807336,200,OK
51.516447,-0.135814,W1T 3LD,Westminster,London,51.516447,-0.135814,200,OK
51.730239,0.67867,CM9 5BQ,Maldon,East of England,51.730239,0.67867,200,OK
51.24062,-0.192373,RH2 0NT,Reigate and Banstead,South East,51.24062,-0.192373,200,OK
54.122989,-2.761362,LA5 9AJ,Lancaster,North West,54.122989,-2.761362,200,OK
51.607968,-0.112455,N22 8JG,Haringey,London,51.607968,-0.112455,200,OK
54.81964,-1.399704,SR7 9HF,County Durham,North East,54.81964,-1.399704,200,OK
52.414749,-1.953717,B31 2DS,Birmingham,West Midlands,52.414749,-1.953717,200,OK
51.594248,-0.171514,N2 8DY,Barnet,London,51.594248,-0.171514,200,OK
51.311077,0.898311,ME13 8GE,Swale,South East,51.311077,0.898311,200,OK
51.65121,-0.057172,EN1 3FB,Enfield,London,51.65121,-0.057172,200,OK
53.715075,-2.09845,OL14 7AZ,Calderdale,Yorkshire and The Humber,53.715012,-2.09848,200,OK
53.91114,-1.693894,LS21 2BA,Leeds,Yorkshire and The Humber,53.91114,-1.693894,200,OK
52.580654,-2.116543,WV2 2PT,Wolverhampton,West Midlands,52.580573,-2.117015,200,OK
51.513471,-3.424309,CF72 9JA,Rhondda Cynon Taf,,51.513453,-3.424308,200,OK
51.484222,0.084002,SE18 1AB,Greenwich,London,51.484452,0.084243,200,OK
52.182823,0.154427,CB1 8QS,Cambridge,East of England,52.182823,0.154427,200,OK
51.512839,-0.119344,WC2B 4DN,Westminster,London,51.512907,-0.119082,200,OK
51.543093,0.201447,RM12 5NH,Havering,London,51.543093,0.201447,200,OK
53.228272,-1.279035,S44 6EA,Bolsover,East Midlands,53.228272,-1.279035,200,OK
50.686599,-1.428771,PO41 0TW,Isle of Wight,South East,50.686329,-1.428718,200,OK
55.794892,-4.005816,ML1 3LG,North Lanarkshire,,55.794911,-4.005737,200,OK
51.60161,-1.129966,OX10 8FB,South Oxfordshire,South East,51.60161,-1.129966,200,OK
51.476943,0.322516,RM17 6NA,Thurrock,East of England,51.476943,0.322516,200,OK
52.212501,0.110616,CB3 0BL,Cambridge,East of England,52.212484,0.1106,200,OK
51.418062,-0.850136,RG41 1EW,Wokingham,South East,51.418062,-0.850136,200,OK
50.749432,-1.324343,PO31 8RE,Isle of Wight,South East,50.749432,-1.324343,200,OK
53.85469,-1.691341,LS19 6DQ,Leeds,Yorkshire and The Humber,53.85469,-1.691341,200,OK
51.385022,-0.224486,SM4 4LU,Merton,London,51.385204,-0.224637,200,OK
53.697387,-2.199445,OL13 9QR,Rossendale,North West,53.697387,-2.199445,200,OK
51.514848,-0.189883,W2 4DG,Westminster,London,51.51472,-0.189715,200,OK
51.598808,-0.143142,N10 2RD,Haringey,London,51.598808,-0.143142,200,OK
50.687589,-1.536501,PO40 9PL,Isle of Wight,South East,50.687589,-1.536501,200,OK
51.056029,0.610677,TN17 4JE,Ashford,South East,51.056029,0.610677,200,OK
51.902254,-0.46478,LU4 9LF,Luton,East of England,51.902555,-0.465133,200,OK
53.532815,-2.401768,M28 3RJ,Salford,North West,53.532815,-2.401768,200,OK
52.222514,-0.921631,NN4 9RP,West Northamptonshire,East Midlands,52.222514,-0.921631,200,OK
53.9263,-1.292634,LS24 8BR,North Yorkshire,Yorkshire and The Humber,53.9263,-1.292634,200,OK
52.911478,-4.164188,,,,,,200,OK
51.601212,-0.235387,NW4 4TL,Barnet,London,51.601215,-0.235376,200,OK
51.346974,-1.997309,SN10 5HG,Wiltshire,South West,51.346974,-1.997309,200,OK
50.465563,-3.523384,TQ1 1PJ,Torbay,South West,50.465563,-3.523384,200,OK
51.423224,-0.978342,RG2 0RJ,Reading,South East,51.423224,-0.978342,200,OK
53.546242,-2.614975,WN1 3JE,Wigan,North West,53.546279,-2.614915,200,OK
52.519544,-2.01095,B70 9TN,Sandwell,West Midlands,52.519544,-2.01095,200,OK
54.596501,-5.932544,BT1 6HT,Belfast,,54.596501,-5.932544,200,OK
52.770581,-1.559042,DE11 9AY,South Derbyshire,East Midlands,52.770536,-1.559043,200,OK
51.800762,-3.991638,SA18 2EB,Carmarthenshire,,51.800762,-3.991638,200,OK
52.987761,-2.498744,CW3 0BP,Cheshire East,North West,52.987761,-2.498744,200,OK
52.776932,-1.210909,LE11 1PF,Charnwood,East Midlands,52.776932,-1.210909,200,OK
53.808098,-2.849536,,,,,,200,OK
55.862097,-2.410862,TD11 3TY,Scottish Borders,,55.862097,-2.410862,200,OK
53.647809,-1.735604,HD5 0AG,Kirklees,Yorkshire and The Humber,53.647809,-1.735604,200,OK
54.850692,-6.668577,BT46 5FD,Mid Ulster,,54.850692,-6.668577,200,OK
50.96889,0.247268,TN21 0XU,Wealden,South East,50.968907,0.247325,200,OK
51.676299,-2.377325,GL11 6AT,Stroud,South West,51.676299,-2.377325,200,OK
53.4704,-1.353926,S62 7PQ,Rotherham,Yorkshire and The Humber,53.4704,-1.353926,200,OK
52.017658,0.968534,IP7 5LF,Babergh,East of England,52.017658,0.968534,200,OK
51.021377,-0.388871,RH13 0QE,Horsham,South East,51.021368,-0.388857,200,OK
50.259438,-5.049852,TR1 2DX,Cornwall,South West,50.259438,-5.049852,200,OK
54.374187,-1.701738,DL9 4BW,North Yorkshire,Yorkshire and The Humber,54.374187,-1.701738,200,OK
55.127271,-1.794428,NE61 3UT,Northumberland,North East,55.127271,-1.794428,200,OK
51.383732,0.522399,ME4 4DH,Medway,South East,51.383732,0.522399,200,OK
53.226225,-0.542479,LN5 7AF,Lincoln,East Midlands,53.226395,-0.542114,200,OK
51.433201,-0.12945,SW16 1BY,Lambeth,London,51.433291,-0.129461,200,OK
52.268612,-1.773346,B95 6EB,Stratford-on-Avon,West Midlands,52.268612,-1.773346,200,OK
51.202822,-2.19159,BA12 8NG,Wiltshire,South West,51.202822,-2.19159,200,OK
50.693828,-1.317907,PO30 5PA,Isle of Wight,South East,50.693653,-1.31756,200,OK
51.505232,-0.034352,SE16 5ER,Southwark,London,51.505232,-0.034352,200,OK
57.298524,-2.289717,,,,,,200,OK
51.257464,0.469528,ME15 0LB,Maidstone,South East,51.257464,0.469528,200,OK
51.195229,-0.601673,GU7 3JL,Waverley,South East,51.195229,-0.601673,200,OK
52.69173,-2.028876,WS11 1JP,Cannock Chase,West Midlands,52.69173,-2.02895,200,OK
51.351597,-1.382372,RG20 9XF,Basingstoke and Deane,South East,51.351606,-1.382386,200,OK
51.661354,-0.395408,WD17 1PT,Watford,East of England,51.661354,-0.395408,200,OK
51.614195,-0.282577,HA8 7TY,Barnet,London,51.614145,-0.282656,200,OK
57.155017,-2.155644,AB16 6XN,Aberdeen City,,57.155017,-2.15566,200,OK
51.227985,-2.317921,BA11 1GL,Somerset,South West,51.227985,-2.317921,200,OK
51.399025,-0.108519,CR7 7DU,Croydon,London,51.399025,-0.108519,200,OK
53.17871,-0.600292,LN6 9YH,North Kesteven,East Midlands,53.178645,-0.600129,200,OK
51.521039,-0.072032,E1 6QL,Tower Hamlets,London,51.520888,-0.072197,200,OK
51.719695,0.817574,CM0 7NN,Maldon,East of England,51.719695,0.817574,200,OK
57.626196,-3.408419,IV30 8XE,Moray,,57.626196,-3.408419,200,OK
51.398499,-0.226106,SW20 9JG,Merton,London,51.398586,-0.22536,200,OK
51.82367,-0.215258,AL6 9HU,Welwyn Hatfield,East of England,51.823995,-0.215454,200,OK
50.634145,-1.171346,PO37 6EN,Isle of Wight,South East,50.633971,-1.172569,200,OK
53.360494,-2.305316,WA15 0SL,Trafford,North West,53.360494,-2.305316,200,OK
51.016862,-2.270812,,,,,,200,OK
51.307577,0.89387,ME13 8NA,Swale,South East,51.307577,0.89387,200,OK
51.637621,-4.063069,SA4 3HS,Swansea,,51.637621,-4.063069,200,OK
52.471984,0.610414,IP27 0GD,Breckland,East of England,52.471984,0.610414,200,OK
51.612337,-0.145075,N11 3PX,Barnet,London,51.612337,-0.145075,200,OK
50.196996,-5.277657,TR14 9EH,Cornwall,South West,50.197084,-5.277411,200,OK
51.868654,-2.222484,GL2 0QS,Gloucester,South West,51.868654,-2.222484,200,OK
51.519206,0.445305,SS17 7HG,Thurrock,East of England,51.519206,0.445305,200,OK
53.758923,-2.697681,PR1 1DA,Preston,North West,53.758898,-2.697363,200,OK
53.363865,-1.478776,S7 1DJ,Sheffield,Yorkshire and The Humber,53.363865,-1.478776,200,OK
51.565457,-0.420183,HA4 6HR,Hillingdon,London,51.565457,-0.420183,200,OK
51.302951,-0.712361,GU16 6RD,Surrey Heath,South East,51.302951,-0.712361,200,OK
50.408669,-4.210032,PL12 6BA,Cornwall,South West,50.408669,-4.210032,200,OK
52.429327,-1.851354,B28 0BD,Birmingham,West Midlands,52.429327,-1.851354,200,OK
51.01225,-0.138953,RH17 5HE,Mid Sussex,South East,51.01225,-0.138953,200,OK
51.636758,-0.105537,N21 1LJ,Enfield,London,51.636758,-0.105537,200,OK
53.694773,-0.371161,DN19 7EP,North Lincolnshire,Yorkshire and The Humber,53.695019,-0.371439,200,OK
51.390645,0.527092,ME4 4XL,Medway,South East,51.390645,0.527092,200,OK
52.994936,-1.154318,NG5 5FZ,Nottingham,East Midlands,52.994936,-1.154318,200,OK
51.370299,-0.187946,SM1 3SH,Sutton,London,51.370299,-0.187946,200,OK
52.124211,-1.361878,OX17 1DW,Cherwell,South East,52.124211,-1.361878,200,OK
51.325941,-0.597759,GU21 2JX,Woking,South East,51.325941,-0.597759,200,OK
50.362032,-4.4488,PL13 1NW,Cornwall,South West,50.362032,-4.4488,200,OK
51.517227,-0.150397,W1U 2EJ,Westminster,London,51.517227,-0.150397,200,OK
51.390968,-0.974965,RG7 1AF,Wokingham,South East,51.390968,-0.974965,200,OK
53.462131,-2.104489,M34 3TL,Tameside,North West,53.462131,-2.104489,200,OK
53.686999,-1.654743,WF13 3PY,Kirklees,Yorkshire and The Humber,53.686999,-1.654743,200,OK
56.021414,-3.827792,FK5 3LE,Falkirk,,56.021414,-3.827792,200,OK
55.957229,-3.281115,EH4 7ED,City of Edinburgh,,55.957229,-3.281115,200,OK
53.039022,-2.189663,ST6 2QL,Stoke-on-Trent,West Midlands,53.039022,-2.189663,200,OK
51.691311,-3.029835,NP4 5SU,Torfaen,,51.691311,-3.029835,200,OK
51.519098,-0.153867,W1U 4DG,Westminster,London,51.518801,-0.153879,200,OK
51.390853,-0.755931,RG12 7LQ,Bracknell Forest,South East,51.390853,-0.755931,200,OK
51.77735,-3.162559,NP23 4UE,Blaenau Gwent,,51.77735,-3.162559,200,OK
57.142666,-2.103045,AB11 6EE,Aberdeen City,,57.142666,-2.103045,200,OK
52.53277,-1.398446,LE10 0YJ,Hinckley and Bosworth,East Midlands,52.53277,-1.398446,200,OK
52.570294,-1.215468,LE19 2GW,Blaby,East Midlands,52.570294,-1.215468,200,OK
51.445546,-0.159454,SW12 8LQ,Wandsworth,London,51.445563,-0.159342,200,OK
51.028633,-0.353597,RH13 9FA,Horsham,South East,51.028633,-0.353597,200,OK
51.498858,-0.944195,RG9 4NA,South Oxfordshire,South East,51.498858,-0.944195,200,OK
51.559606,0.147003,RM8 3NU,Barking and Dagenham,London,51.559606,0.147003,200,OK
51.282424,-2.476174,BA3 4GX,Bath and North East Somerset,South West,51.282424,-2.476174,200,OK
51.391086,-1.321636,RG14 7QT,West Berkshire,South East,51.391086,-1.321636,200,OK
51.549325,-0.156927,NW3 2EJ,Camden,London,51.549325,-0.156927,200,OK
53.517262,-1.112103,DN4 5DL,Doncaster,Yorkshire and The Humber,53.517262,-1.112103,200,OK
51.567748,-0.119388,N4 3DA,Islington,London,51.567748,-0.119388,200,OK
51.453063,0.361822,RM18 7DL,Thurrock,East of England,51.453063,0.361822,200,OK
52.611656,-2.062471,WV11 2QR,Wolverhampton,West Midlands,52.611656,-2.062471,200,OK
54.068306,-2.839973,LA4 6TJ,Lancaster,North West,54.068306,-2.839973,200,OK
51.571687,-0.120902,N19 3AF,Islington,London,51.571687,-0.120902,200,OK
53.609337,-2.616331,PR7 4EL,Chorley,North West,53.609337,-2.616331,200,OK
51.640328,-4.104064,SA4 3GA,Swansea,,51.640913,-4.104359,200,OK
57.144029,-2.134016,AB15 4BZ,Aberdeen City,,57.144029,-2.134016,200,OK
51.6913,-3.040953,,,,,,200,OK
53.647743,-3.009574,PR8 1QY,Sefton,North West,53.647776,-3.009602,200,OK
50.368111,-4.147018,PL1 3AB,Plymouth,South West,50.368111,-4.147018,200,OK
51.613275,-0.377822,HA5 4QH,Harrow,London,51.613275,-0.377822,200,OK
50.988519,-0.746213,GU29 9HB,Chichester,South East,50.988519,-0.746213,200,OK
56.844993,-2.285054,DD10 0TP,Aberdeenshire,,56.844993,-2.285054,200,OK
50.383968,-4.052161,PL7 1TE,Plymouth,South West,50.383904,-4.052187,200,OK
51.676074,-0.392762,WD24 7QQ,Watford,East of England,51.676074,-0.392762,200,OK
51.882357,-3.993297,SA19 6AA,Carmarthenshire,,51.882488,-3.993535,200,OK
51.38022,0.093588,BR6 0AZ,Bromley,London,51.38022,0.093588,200,OK
51.609752,0.216685,RM3 7TB,Havering,London,51.609752,0.216685,200,OK
51.51798,-0.146864,W1G 9QU,Westminster,London,51.51798,-0.146864,200,OK
54.939222,-1.617819,NE11 0BP,Gateshead,North East,54.939222,-1.617819,200,OK
52.185504,-0.520576,MK43 7PR,Bedford,East of England,52.185504,-0.520576,200,OK
51.578932,-0.423194,HA4 8AB,Hillingdon,London,51.578932,-0.423194,200,OK
52.508508,-3.325173,SY16 1HB,Powys,,52.508508,-3.325173,200,OK
53.344197,-1.36028,S20 7AB,Sheffield,Yorkshire and The Humber,53.344197,-1.36028,200,OK
51.854547,0.585798,CM77 8HQ,Braintree,East of England,51.854547,0.585798,200,OK
52.183638,-1.465522,CV35 0HA,Stratford-on-Avon,West Midlands,52.183809,-1.465417,200,OK
53.241751,-2.510504,CW9 8EN,Cheshire West and Chester,North West,53.241751,-2.510504,200,OK
53.865091,-2.82262,PR3 0TN,Wyre,North West,53.865074,-2.822376,200,OK
54.496695,-1.12884,TS9 6EW,North Yorkshire,Yorkshire and The Humber,54.496695,-1.12884,200,OK
53.381174,-2.313417,WA15 8PS,Trafford,North West,53.381174,-2.313417,200,OK
55.948131,-3.193511,EH1 1JU,City of Edinburgh,,55.947944,-3.193808,200,OK
52.777793,-0.155633,PE11 2RH,South Holland,East Midlands,52.777793,-0.155633,200,OK
50.87232,-1.863515,BH31 6TB,Dorset,South West,50.872266,-1.863331,200,OK
53.426097,-2.783477,L35 7JG,Knowsley,North West,53.426097,-2.783477,200,OK
55.868062,-4.267732,G3 6QN,Glasgow City,,55.868062,-4.267732,200,OK
54.280852,-0.409164,YO12 7EF,North Yorkshire,Yorkshire and The Humber,54.280852,-0.409164,200,OK
57.046177,-3.040081,AB35 5PW,Aberdeenshire,,57.046177,-3.040081,200,OK
53.061838,-2.501614,CW5 7GT,Cheshire East,North West,53.061838,-2.501614,200,OK
53.505229,-2.294249,M6 6JQ,Salford,North West,53.505229,-2.294249,200,OK
52.769725,-2.107311,ST17 0RA,South Staffordshire,West Midlands,52.7703,-2.107164,200,OK
55.789494,-4.087078,G72 0PB,South Lanarkshire,,55.789494,-4.087078,200,OK
52.575765,-1.031572,LE8 9UZ,Harborough,East Midlands,52.575766,-1.031563,200,OK
50.746017,-1.861118,BH8 9SD,"Bournemouth, Christchurch and Poole",South West,50.746017,-1.861118,200,OK
50.364184,-4.060574,PL9 8GR,Plymouth,South West,50.364297,-4.060495,200,OK
51.07543,-0.044413,RH19 4PQ,Mid Sussex,South East,51.07543,-0.044413,200,OK
52.614381,-0.28054,PE4 6LP,Peterborough,East of England,52.614381,-0.28054,200,OK
51.29197,-0.756367,GU14 7RT,Rushmoor,South East,51.29197,-0.756367,200,OK
56.247869,-3.160055,KY15 7HA,Fife,,56.247869,-3.160055,200,OK
53.375916,-1.440223,S2 5FW,Sheffield,Yorkshire and The Humber,53.375916,-1.440223,200,OK
52.574742,-2.130501,WV2 4NG,Wolverhampton,West Midlands,52.574742,-2.130501,200,OK
52.402264,-1.512444,CV1 2GN,Coventry,West Midlands,52.402535,-1.512976,200,OK
53.323658,-1.322949,S21 1HS,North East Derbyshire,East Midlands,53.323658,-1.322949,200,OK
51.351362,-0.591742,GU24 8PL,Surrey Heath,South East,51.351362,-0.591742,200,OK
52.612702,-2.10762,WV10 8BS,Wolverhampton,West Midlands,52.612702,-2.10762,200,OK
52.903643,-1.372792,DE72 3GG,Erewash,East Midlands,52.903643,-1.372792,200,OK
51.58678,-2.781859,NP26 3WA,Monmouthshire,,51.58678,-2.781859,200,OK
53.36877,-0.712822,,,,,,200,OK
51.465345,-0.162746,SW11 2JS,Wandsworth,London,51.465345,-0.162746,200,OK
53.873887,-1.807216,BD16 3BB,Bradford,Yorkshire and The Humber,53.873887,-1.807216,200,OK
53.608563,-2.71648,WN6 9PL,West Lancashire,North West,53.608563,-2.71648,200,OK
51.011221,-0.095186,RH16 1RW,Mid Sussex,South East,51.011221,-0.095186,200,OK
56.000215,-2.540677,EH42 1QQ,East Lothian,,56.000215,-2.540677,200,OK
51.648136,-4.064217,SA4 3QS,Swansea,,51.648083,-4.064201,200,OK
51.105897,-4.166836,,,,,,200,OK
50.767706,0.281137,BN21 4RU,Eastbourne,South East,50.767701,0.281166,200,OK
51.642312,-3.429904,CF43 3EP,Rhondda Cynon Taf,,51.642312,-3.429904,200,OK
51.639399,-0.830342,HP14 3BZ,Buckinghamshire,South East,51.639399,-0.830342,200,OK
51.299678,-0.062082,CR6 9JA,Tandridge,South East,51.299612,-0.062974,200,OK
52.700989,0.358648,PE34 3FJ,King's Lynn and West Norfolk,East of England,52.700989,0.358648,200,OK
55.129956,-1.516871,NE24 1JB,Northumberland,North East,55.129956,-1.516871,200,OK
53.536905,-2.227779,M9 0RY,Manchester,North West,53.536896,-2.227779,200,OK
53.445343,-2.172109,M19 3JU,Stockport,North West,53.445343,-2.172109,200,OK
51.504645,-0.555697,SL3 7EE,Slough,South East,51.504645,-0.555697,200,OK
51.756423,-3.287926,,,,,,200,OK
53.469677,-2.170656,M11 2LW,Manchester,North West,53.469677,-2.170656,200,OK
51.42554,-2.754618,BS48 4PG,North Somerset,South West,51.42554,-2.754618,200,OK
54.183415,-0.532192,YO17 8PP,North Yorkshire,Yorkshire and The Humber,54.183415,-0.532192,200,OK
51.992156,-0.73105,MK2 2LN,Milton Keynes,South East,51.992156,-0.73105,200,OK
55.862747,-4.021272,ML5 3HF,North Lanarkshire,,55.862747,-4.021272,200,OK
53.699575,-1.661744,WF13 3NG,Kirklees,Yorkshire and The Humber,53.699575,-1.661744,200,OK
53.584255,-2.208216,OL10 2HU,Rochdale,North West,53.584255,-2.208216,200,OK
51.731482,0.68487,CM9 5HG,Maldon,East of England,51.731607,0.684848,200,OK
52.204253,-0.734983,NN7 1EJ,West Northamptonshire,East Midlands,52.204253,-0.734983,200,OK
52.858632,-4.094354,LL46 2TS,Gwynedd,,52.858632,-4.094354,200,OK
52.015836,-2.160354,,,,,,200,OK
51.89383,-2.069706,,,,,,200,OK
55.981981,-3.62647,EH49 7DA,West Lothian,,55.981981,-3.62647,200,OK
53.692237,-2.731182,PR25 1TW,South Ribble,North West,53.692237,-2.731182,200,OK
52.313079,-0.720823,NN8 5XL,North Northamptonshire,East Midlands,52.31265,-0.721114,200,OK
53.886708,-1.612054,LS16 9EW,Leeds,Yorkshire and The Humber,53.886967,-1.612498,200,OK
53.371075,-2.271485,M22 1PW,Manchester,North West,53.371075,-2.271485,200,OK
51.838048,-2.274235,GL2 5EG,Gloucester,South West,51.83803,-2.27422,200,OK
50.92283,-1.36816,SO18 4HA,Southampton,South East,50.92283,-1.36816,200,OK
51.157072,-0.976795,GU34 2QB,East Hampshire,South East,51.157072,-0.976795,200,OK
51.083603,-0.794571,GU30 7FZ,East Hampshire,South East,51.083603,-0.794571,200,OK
51.291406,-0.513578,GU23 6JS,Guildford,South East,51.291406,-0.513578,200,OK
51.440058,0.246594,DA2 6HP,Dartford,South East,51.44009,0.246825,200,OK
52.978008,-0.02347,PE21 6EN,Boston,East Midlands,52.978008,-0.02347,200,OK
51.935973,-0.652835,LU7 3DT,Central Bedfordshire,East of England,51.935973,-0.652849,200,OK
53.905136,-1.105651,,,,,,200,OK
53.493533,-1.438556,S74 9BT,Barnsley,Yorkshire and The Humber,53.493533,-1.438556,200,OK
51.364905,1.41985,CT10 2TL,Thanet,South East,51.364926,1.419765,200,OK
51.348542,-0.781313,GU47 0XR,Bracknell Forest,South East,51.348542,-0.781313,200,OK
54.951072,-1.738697,NE21 6HH,Gateshead,North East,54.951072,-1.738697,200,OK
52.874027,-4.553854,,,,,,200,OK
51.615034,-0.647764,HP9 2LT,Buckinghamshire,South East,51.615034,-0.647764,200,OK
51.333147,1.417872,CT11 9ED,Thanet,South East,51.333254,1.41821,200,OK
55.021042,-1.435035,NE30 2PX,North Tyneside,North East,55.021042,-1.435035,200,OK
53.751375,-1.908518,HX2 8RH,Calderdale,Yorkshire and The Humber,53.751375,-1.908518,200,OK
52.271686,-1.54288,CV34 6RS,Warwick,West Midlands,52.271686,-1.54288,200,OK
52.125407,0.101196,CB22 7PJ,South Cambridgeshire,East of England,52.125389,0.10118,200,OK
55.214135,-6.551642,BT57 8YN,Causeway Coast and Glens,,55.214135,-6.551642,200,OK
58.214185,-6.380372,HS1 2LG,Na h-Eileanan Siar,,58.214697,-6.379873,200,OK
53.012929,-1.354635,DE75 7ED,Amber Valley,East Midlands,53.01283,-1.354503,200,OK
51.387358,-0.410328,KT12 2NP,Elmbridge,South East,51.387358,-0.410328,200,OK
51.534725,-0.28097,NW10 7DG,Ealing,London,51.534709,-0.28102,200,OK
53.375078,-1.469365,S1 4RG,Sheffield,Yorkshire and The Humber,53.374915,-1.469066,200,OK
51.032586,0.236798,TN6 3QQ,Wealden,South East,51.032601,0.236842,200,OK
52.889727,-1.443086,DE24 0AN,Derby,East Midlands,52.889913,-1.442336,200,OK
51.917006,-0.647005,LU7 3PW,Central Bedfordshire,East of England,51.917006,-0.647005,200,OK
51.605662,-2.523128,BS35 2BW,South Gloucestershire,South West,51.605662,-2.523128,200,OK
53.516654,-2.470823,M29 8EB,Wigan,North West,53.516654,-2.470823,200,OK
52.234462,-0.284174,PE19 7QS,Huntingdonshire,East of England,52.234462,-0.284174,200,OK
51.59545,-0.23138,NW4 4NA,Barnet,London,51.595463,-0.231368,200,OK
51.39918,-0.233627,KT3 6HZ,Merton,London,51.39918,-0.233627,200,OK
54.639541,-5.925279,BT15 4GP,Belfast,,54.639234,-5.925217,200,OK
53.401546,-0.775338,DN21 2HB,West Lindsey,East Midlands,53.401546,-0.775338,200,OK
53.378223,-2.746926,WA8 9AY,Halton,North West,53.378223,-2.746926,200,OK
52.390757,-1.462595,CV3 3BL,Coventry,West Midlands,52.390757,-1.462595,200,OK
51.268568,0.073055,TN16 1HH,Sevenoaks,South East,51.268568,0.073055,200,OK
50.754889,-1.614942,SO41 0AW,New Forest,South East,50.754889,-1.614942,200,OK
52.979562,-1.080209,NG4 4BS,Gedling,East Midlands,52.979562,-1.080209,200,OK
53.502721,-1.1572,DN4 8PY,Doncaster,Yorkshire and The Humber,53.502775,-1.157229,200,OK
50.72695,-2.935468,DT7 3PJ,Dorset,South West,50.72695,-2.935468,200,OK
51.291671,0.307573,TN15 8EX,Tonbridge and Malling,South East,51.291608,0.307613,200,OK
55.757815,-4.691419,,,,,,200,OK
51.921238,-0.639738,LU7 3XJ,Central Bedfordshire,East of England,51.921229,-0.639738,200,OK
51.790859,-0.180158,AL7 3HS,Welwyn Hatfield,East of England,51.790859,-0.180158,200,OK
50.851128,0.544088,TN38 0BY,Hastings,South East,50.851127,0.543947,200,OK
53.669151,-1.410964,WF4 1DT,Wakefield,Yorkshire and The Humber,53.669151,-1.410964,200,OK
51.440324,-3.190137,CF64 2SA,Vale of Glamorgan,,51.440306,-3.190093,200,OK
52.901684,-1.876952,ST14 7PX,East Staffordshire,West Midlands,52.901684,-1.876952,200,OK
52.04153,-0.022385,SG8 9EN,North Hertfordshire,East of England,52.040855,-0.021788,200,OK
51.630333,-2.394771,,,,,,200,OK
53.493055,-2.075943,OL6 9RJ,Tameside,North West,53.493055,-2.075943,200,OK
51.493723,-3.166376,CF24 3RS,Cardiff,,51.493723,-3.166376,200,OK
54.869885,-1.8535,DH8 0RB,County Durham,North East,54.87009,-1.852673,200,OK
52.753293,-1.199209,LE11 2BB,Charnwood,East Midlands,52.753293,-1.199209,200,OK
51.49381,-0.223677,W6 7AN,Hammersmith and Fulham,London,51.49381,-0.223677,200,OK
54.207236,-2.728521,LA6 1RT,Westmorland and Furness,North West,54.207236,-2.728521,200,OK
53.652828,-1.02984,DN14 9AP,Doncaster,Yorkshire and The Humber,53.652797,-1.029164,200,OK
50.893945,-0.803013,PO18 9HN,Chichester,South East,50.893945,-0.803013,200,OK
53.521778,-2.595496,WN2 5NN,Wigan,North West,53.521778,-2.595496,200,OK
54.882742,-3.813705,DG5 4LH,Dumfries and Galloway,,54.882742,-3.813705,200,OK
