lat,lon,postcode,admin_district,region,latitude,longitude,estado_api,descripcion_estado
54.878768,-2.930848,CA2 4DR,Cumberland,North West,54.878768,-2.930848,200,OK
51.016529,-3.094155,TA1 1TA,Somerset,South West,51.016529,-3.094155,200,OK
51.510535,-0.148607,W1K 3RF,Westminster,London,51.510535,-0.148607,200,OK
51.116419,-2.986903,TA6 5HN,Somerset,South West,51.116419,-2.986903,200,OK
50.874723,-2.202648,DT11 0QH,Dorset,South West,50.874723,-2.202648,200,OK
51.384155,1.337927,CT8 8TL,Thanet,South East,51.384155,1.337927,200,OK
51.547799,0.148928,RM10 8DD,Barking and Dagenham,London,51.547624,0.148645,200,OK
53.563768,-2.204929,M24 5LU,Rochdale,North West,53.563768,-2.204929,200,OK
51.451381,-0.977671,RG1 6BQ,Reading,South East,51.451381,-0.977671,200,OK
53.721622,-0.433984,HU13 0AZ,East Riding of Yorkshire,Yorkshire and The Humber,53.721622,-0.433984,200,OK
51.5962,0.03794,E18 1HU,Redbridge,London,51.5962,0.03794,200,OK
51.664281,-0.032103,EN3 5HP,Enfield,London,51.664442,-0.031532,200,OK
51.513554,-0.136508,W1F 7NZ,Westminster,London,51.513554,-0.136508,200,OK
55.934177,-3.130043,EH16 4JU,City of Edinburgh,,55.934177,-3.130043,200,OK
51.8471,-1.349602,OX20 1PA,West Oxfordshire,South East,51.847434,-1.349844,200,OK
51.719596,-0.828607,,,,,,200,OK
51.577304,-3.034897,NP20 3PB,Newport,,51.577304,-3.034897,200,OK
51.772572,-1.358453,OX29 4BJ,Vale of White Horse,South East,51.772572,-1.358453,200,OK
53.567999,-2.476889,BL3 4TZ,Bolton,North West,53.567999,-2.476889,200,OK
51.311056,-0.307669,KT21 2RD,Mole Valley,South East,51.311056,-0.307669,200,OK
51.721892,0.670792,CM9 6JU,Maldon,East of England,51.721892,0.670792,200,OK
54.621713,-1.277313,TS23 3PS,Stockton-on-Tees,North East,54.621713,-1.277313,200,OK
53.432175,-2.651558,WA5 4LB,Warrington,North West,53.432175,-2.651558,200,OK
51.462803,-0.389217,TW4 5DZ,Hounslow,London,51.462803,-0.389217,200,OK
53.482403,-2.165403,M43 6WA,Tameside,North West,53.482403,-2.165403,200,OK
51.414203,-3.253837,CF63 2HN,Vale of Glamorgan,,51.413614,-3.254252,200,OK
54.245503,-1.060233,YO62 4YT,North Yorkshire,Yorkshire and The Humber,54.245545,-1.06032,200,OK
54.009429,-0.436123,YO25 5HQ,East Riding of Yorkshire,Yorkshire and The Humber,54.009429,-0.436123,200,OK
53.352236,-1.691479,S33 0BU,High Peak,East Midlands,53.352236,-1.691479,200,OK
53.428347,-2.946799,L6 0BT,Liverpool,North West,53.428347,-2.946799,200,OK
50.962548,-1.294117,SO50 7LR,Eastleigh,South East,50.962539,-1.294131,200,OK
51.614161,-0.151662,N11 3EA,Barnet,London,51.614161,-0.151662,200,OK
50.569899,-4.91624,PL27 6TJ,Cornwall,South West,50.569899,-4.91624,200,OK
51.27883,-0.726039,GU12 5PU,Guildford,South East,51.27883,-0.726039,200,OK
51.251128,-3.001062,TA8 2NR,Somerset,South West,51.251128,-3.001062,200,OK
51.333106,-2.470756,BA2 0JT,Bath and North East Somerset,South West,51.333106,-2.470756,200,OK
51.393452,-0.304899,KT6 4QW,Kingston upon Thames,London,51.393498,-0.305019,200,OK
51.453201,-0.963756,RG1 4BS,Reading,South East,51.453236,-0.963583,200,OK
51.681427,-3.236617,CF81 8PU,Caerphilly,,51.681427,-3.236617,200,OK
51.56572,0.165297,RM7 0LR,Havering,London,51.56572,0.165297,200,OK
51.71801,-0.037444,EN8 0TA,Broxbourne,East of England,51.71801,-0.037444,200,OK
51.49311,-0.270643,W4 5RL,Hounslow,London,51.49311,-0.270643,200,OK
51.318784,-1.925254,SN10 3PU,Wiltshire,South West,51.318784,-1.925254,200,OK
53.959275,-1.123209,YO26 5HS,York,Yorkshire and The Humber,53.959275,-1.123209,200,OK
53.230773,-0.546819,LN1 1XZ,Lincoln,East Midlands,53.231113,-0.546374,200,OK
53.737985,-2.962918,FY8 5LU,Fylde,North West,53.73755,-2.963027,200,OK
52.647003,1.241395,NR5 0AW,South Norfolk,East of England,52.647003,1.241395,200,OK
50.707559,-1.478093,PO41 0XD,Isle of Wight,South East,50.707559,-1.478093,200,OK
52.616076,1.186261,NR9 3PU,South Norfolk,East of England,52.616076,1.186261,200,OK
51.596251,0.288327,CM13 3HT,Brentwood,East of England,51.596251,0.288327,200,OK
51.60294,-2.980351,,,,,,200,OK
53.771224,-0.390593,HU5 4AH,East Riding of Yorkshire,Yorkshire and The Humber,53.771224,-0.390593,200,OK
51.746947,-1.230483,OX4 1LH,Oxford,South East,51.746947,-1.230483,200,OK
52.265554,-2.154749,WR9 8HY,Wychavon,West Midlands,52.265554,-2.154749,200,OK
51.739048,0.510696,CM2 6QP,Chelmsford,East of England,51.739048,0.510696,200,OK
53.259207,-3.977924,LL33 0BU,Conwy,,53.259207,-3.977924,200,OK
53.763765,-1.36436,LS25 7RP,Leeds,Yorkshire and The Humber,53.763908,-1.364145,200,OK
50.467733,-4.202992,PL20 7BX,West Devon,South West,50.467733,-4.202992,200,OK
51.45883,-1.315494,RG20 8XB,West Berkshire,South East,51.45883,-1.315494,200,OK
51.14319,0.847954,TN23 5XW,Ashford,South East,51.14319,0.847954,200,OK
52.589724,-0.24048,PE1 3PA,Peterborough,East of England,52.589724,-0.24048,200,OK
52.336784,-0.165198,PE29 1RU,Huntingdonshire,East of England,52.336878,-0.165056,200,OK
51.52553,0.567629,SS8 9SX,Castle Point,East of England,51.52553,0.567629,200,OK
51.714428,-0.449203,WD4 8ES,Dacorum,East of England,51.714479,-0.449195,200,OK
51.631971,0.009862,E4 6EE,Waltham Forest,London,51.631971,0.009862,200,OK
54.774587,-3.232998,CA7 1BG,Cumberland,North West,54.774602,-3.233001,200,OK
51.642118,-0.340879,WD23 4SG,Hertsmere,East of England,51.642118,-0.340879,200,OK
54.322751,-1.49963,DL7 9QX,North Yorkshire,Yorkshire and The Humber,54.322751,-1.49963,200,OK
53.221358,0.337819,PE24 5TQ,East Lindsey,East Midlands,53.221358,0.337819,200,OK
55.919404,-3.148144,EH16 5UJ,City of Edinburgh,,55.918768,-3.147917,200,OK
50.729427,-3.362093,,,,,,200,OK
52.435314,-0.052487,PE28 2UB,Huntingdonshire,East of England,52.435314,-0.052487,200,OK
53.458331,-2.292675,M32 0ZS,Trafford,North West,53.458331,-2.292675,200,OK
55.808548,-4.039377,ML4 2UX,North Lanarkshire,,55.808548,-4.039377,200,OK
51.364998,0.061461,BR6 7AW,Bromley,London,51.364998,0.061461,200,OK
56.057098,-3.411659,KY11 8HS,Fife,,56.057098,-3.411659,200,OK
51.357229,-1.20394,RG19 8BG,Basingstoke and Deane,South East,51.357229,-1.20394,200,OK
51.412622,-3.241859,CF63 2NR,Vale of Glamorgan,,51.412622,-3.241859,200,OK
51.795687,-0.069589,SG13 7EA,East Hertfordshire,East of England,51.795687,-0.069589,200,OK
55.857098,-4.305125,G51 2EP,Glasgow City,,55.857098,-4.305125,200,OK
51.406767,0.03021,BR1 3FB,Bromley,London,51.406767,0.03021,200,OK
53.611093,-1.358084,WF9 4ES,Wakefield,Yorkshire and The Humber,53.611093,-1.358084,200,OK
53.349742,-1.516879,S11 9LN,Sheffield,Yorkshire and The Humber,53.349742,-1.516879,200,OK
51.388585,-0.129272,CR0 3AE,Croydon,London,51.388585,-0.129272,200,OK
51.587326,-0.340089,HA1 1SB,Harrow,London,51.587326,-0.340089,200,OK
53.485539,-2.361506,M30 8EL,Salford,North West,53.485539,-2.361506,200,OK
53.023136,-1.454115,DE56 1SD,Amber Valley,East Midlands,53.023136,-1.454115,200,OK
53.390711,-3.10862,CH49 4NQ,Wirral,North West,53.390738,-3.108531,200,OK
54.634049,-5.841904,BT18 9NX,Ards and North Down,,54.634049,-5.841904,200,OK
51.528746,-0.300182,W5 1JJ,Ealing,London,51.528746,-0.300182,200,OK
54.433505,-3.025107,LA22 9HL,Westmorland and Furness,North West,54.433505,-3.025107,200,OK
50.851069,-1.093683,PO6 4BJ,Portsmouth,South East,50.851069,-1.093683,200,OK
53.306368,0.287254,LN12 2TE,East Lindsey,East Midlands,53.306368,0.287237,200,OK
51.522485,-0.097382,EC1Y 0SJ,City of London,London,51.522485,-0.097382,200,OK
52.462563,1.739199,NR33 0ED,East Suffolk,East of England,52.462563,1.739199,200,OK
53.471133,-2.075165,SK16 5AR,Tameside,North West,53.471133,-2.075165,200,OK
51.700341,0.115102,CM16 4LL,Epping Forest,East of England,51.700341,0.115102,200,OK
52.933357,-1.483693,DE22 1BH,Derby,East Midlands,52.933357,-1.483693,200,OK
53.870907,-3.041254,FY5 3EE,Blackpool,North West,53.870907,-3.041254,200,OK
53.492773,-2.093863,OL6 8LJ,Tameside,North West,53.492773,-2.093863,200,OK
53.348931,-1.344842,S20 1BJ,Sheffield,Yorkshire and The Humber,53.348931,-1.344842,200,OK
51.696171,-1.704175,GL7 3DW,Cotswold,South West,51.696171,-1.704175,200,OK
53.781428,-1.551593,LS11 6AD,Leeds,Yorkshire and The Humber,53.781428,-1.551593,200,OK
51.428226,-2.662951,BS41 9BG,North Somerset,South West,51.428226,-2.662951,200,OK
51.561295,-0.185269,NW3 7XG,Camden,London,51.561295,-0.185269,200,OK
50.472324,-3.530717,TQ1 3JF,Torbay,South West,50.472324,-3.530717,200,OK
51.341978,-1.129361,RG26 3NR,Basingstoke and Deane,South East,51.341979,-1.129376,200,OK
56.616902,-2.675092,DD11 3RU,Angus,,56.616902,-2.675092,200,OK
50.846932,0.278423,BN27 2RP,Wealden,South East,50.846932,0.278423,200,OK
57.612387,-3.609409,IV36 1BD,Moray,,57.612387,-3.609409,200,OK
51.691405,-2.363056,GL11 5QE,Stroud,South West,51.691309,-2.36301,200,OK
53.797453,-1.687526,LS28 7UW,Leeds,Yorkshire and The Humber,53.797453,-1.687526,200,OK
55.604975,-4.311518,KA16 9JP,East Ayrshire,,55.604975,-4.311487,200,OK
51.771045,-1.57969,OX18 1NF,West Oxfordshire,South East,51.771045,-1.57969,200,OK
52.705685,-2.021195,WS11 5JW,Cannock Chase,West Midlands,52.705685,-2.021195,200,OK
55.900652,-3.198544,EH10 7AD,City of Edinburgh,,55.900652,-3.198544,200,OK
52.806477,-1.004692,LE14 3LL,Melton,East Midlands,52.806477,-1.004692,200,OK
51.451826,-2.565778,BS5 9BU,"Bristol, City of",South West,51.451826,-2.565778,200,OK
51.978286,-0.23258,SG6 3HE,North Hertfordshire,East of England,51.978286,-0.23258,200,OK
51.316667,-0.724906,GU16 8NR,Surrey Heath,South East,51.316676,-0.724934,200,OK
51.443636,-0.109482,SW2 3DU,Lambeth,London,51.443636,-0.109482,200,OK
51.763598,-3.289579,NP22 5HE,Caerphilly,,51.763668,-3.289388,200,OK
53.646413,-2.320495,BL0 9EB,Bury,North West,53.646413,-2.320495,200,OK
52.59306,1.566192,NR13 3PE,Broadland,East of England,52.59306,1.566192,200,OK
53.527489,-1.157764,DN5 8EA,Doncaster,Yorkshire and The Humber,53.527489,-1.157764,200,OK
51.438516,-0.908136,RG6 7EJ,Wokingham,South East,51.43849,-0.908118,200,OK
51.604726,-3.340753,CF37 2DP,Rhondda Cynon Taf,,51.604726,-3.340753,200,OK
54.197907,-1.202887,,,,,,200,OK
52.156796,1.592357,IP15 5ND,East Suffolk,East of England,52.156796,1.592357,200,OK
52.413019,-0.213807,PE28 5YW,Huntingdonshire,East of England,52.413019,-0.213807,200,OK
53.475566,-2.193053,M11 2BB,Manchester,North West,53.475566,-2.193053,200,OK
53.249755,-0.444629,LN3 4DT,West Lindsey,East Midlands,53.249755,-0.444629,200,OK
51.508621,-0.141854,W1S 4JQ,Westminster,London,51.508621,-0.141854,200,OK
51.441816,-0.011463,SE6 2JZ,Lewisham,London,51.44186,-0.011953,200,OK
51.597364,-0.413084,HA6 1JG,Hillingdon,London,51.597364,-0.413084,200,OK
54.612464,-7.410171,BT78 5QB,Fermanagh and Omagh,,54.612464,-7.410171,200,OK
53.494795,-2.173726,M40 1RF,Manchester,North West,53.494795,-2.173726,200,OK
52.041454,-0.764837,MK9 2DT,Milton Keynes,South East,52.041199,-0.765355,200,OK
51.534422,0.052799,E6 1HU,Newham,London,51.534426,0.05261,200,OK
52.151739,-0.462688,MK41 7QR,Bedford,East of England,52.151751,-0.462637,200,OK
51.415094,-0.289279,KT2 6BZ,Kingston upon Thames,London,51.415094,-0.289279,200,OK
51.502275,-0.242381,W12 9AU,Hammersmith and Fulham,London,51.502275,-0.242381,200,OK
54.843175,-2.079392,DH8 9UD,Northumberland,North East,54.843175,-2.079392,200,OK
52.648848,-2.462891,TF4 3SA,Telford and Wrekin,West Midlands,52.64866,-2.46283,200,OK
53.148631,-2.352777,CW11 1YZ,Cheshire East,North West,53.148631,-2.352777,200,OK
51.25742,-1.668122,SP9 7JT,Wiltshire,South West,51.257321,-1.668094,200,OK
53.866703,-0.6766,YO43 3GA,East Riding of Yorkshire,Yorkshire and The Humber,53.866703,-0.6766,200,OK
52.396173,-1.648011,CV7 7RE,Solihull,West Midlands,52.396173,-1.648011,200,OK
50.988382,-1.372474,SO53 2DS,Eastleigh,South East,50.988382,-1.372474,200,OK
52.326214,-0.376804,PE28 0TW,Huntingdonshire,East of England,52.326215,-0.376862,200,OK
57.575397,-3.804405,IV12 5JX,Highland,,57.575397,-3.804405,200,OK
52.3505,-1.573899,CV8 2GR,Warwick,West Midlands,52.3505,-1.573899,200,OK
51.388796,-0.076774,CR0 6HZ,Croydon,London,51.388869,-0.076774,200,OK
53.754123,-1.45623,LS26 8XG,Leeds,Yorkshire and The Humber,53.754123,-1.45623,200,OK
53.954066,-1.117603,YO24 4HP,York,Yorkshire and The Humber,53.954066,-1.117603,200,OK
51.477392,0.147071,DA17 6NF,Bexley,London,51.477392,0.147071,200,OK
51.249331,-0.599646,GU2 8HF,Guildford,South East,51.249556,-0.599639,200,OK
51.463392,0.123249,DA16 1JD,Bexley,London,51.463392,0.123249,200,OK
50.919441,-1.425851,SO15 5FX,Southampton,South East,50.919441,-1.425851,200,OK
54.160832,-6.343268,BT35 8UL,"Newry, Mourne and Down",,54.160893,-6.343128,200,OK
51.981009,1.211689,IP9 1HA,Babergh,East of England,51.981032,1.211531,200,OK
51.630227,-3.971615,SA1 6QR,Swansea,,51.63025,-3.971649,200,OK
51.369684,1.390433,CT9 4JJ,Thanet,South East,51.369157,1.389946,200,OK
53.608641,-0.82678,DN17 4LW,North Lincolnshire,Yorkshire and The Humber,53.608641,-0.82678,200,OK
51.028704,-3.114292,TA2 6NJ,Somerset,South West,51.028704,-3.114292,200,OK
51.530168,-0.121067,WC1X 8QS,Camden,London,51.529985,-0.120872,200,OK
51.749584,-0.524445,HP1 2RY,Dacorum,East of England,51.74969,-0.525144,200,OK
52.531905,-2.014315,B70 0JJ,Sandwell,West Midlands,52.531905,-2.014315,200,OK
50.111291,-5.274096,TR13 0DL,Cornwall,South West,50.111291,-5.274096,200,OK
52.680065,0.409362,PE33 0RJ,King's Lynn and West Norfolk,East of England,52.680065,0.409362,200,OK
53.336454,0.258281,,,,,,200,OK
50.627429,-4.358029,PL15 9DJ,Cornwall,South West,50.627767,-4.358244,200,OK
51.112163,-0.139471,RH10 7SD,Crawley,South East,51.112163,-0.139471,200,OK
51.521005,-0.10651,EC1M 3JQ,Camden,London,51.521005,-0.10651,200,OK
54.56419,-1.311798,TS18 1RY,Stockton-on-Tees,North East,54.56419,-1.311798,200,OK
51.797247,-3.227182,NP23 5QF,Blaenau Gwent,,51.797247,-3.227182,200,OK
53.228432,-4.113074,LL57 1SJ,Gwynedd,,53.228186,-4.113296,200,OK
51.56741,-0.411631,HA4 0BB,Hillingdon,London,51.56741,-0.411631,200,OK
53.442755,-2.280659,M21 9AW,Manchester,North West,53.442746,-2.280659,200,OK
51.518456,-0.151356,W1U 4GD,Westminster,London,51.518412,-0.151318,200,OK
51.229187,-0.185774,RH1 6RG,Reigate and Banstead,South East,51.229187,-0.185774,200,OK
53.707306,-2.189129,OL13 9HQ,Rossendale,North West,53.707306,-2.189129,200,OK
53.53065,-2.093495,OL8 2JW,Oldham,North West,53.53065,-2.093495,200,OK
53.390605,-1.46412,S3 9QL,Sheffield,Yorkshire and The Humber,53.390605,-1.46412,200,OK
52.184727,0.988052,IP14 1QY,Mid Suffolk,East of England,52.184734,0.988069,200,OK
51.457375,-0.115536,SW2 1LY,Lambeth,London,51.457375,-0.115536,200,OK
50.940562,-2.629857,BA20 1PF,Somerset,South West,50.940562,-2.629857,200,OK
53.933172,-0.790717,YO42 2XE,East Riding of Yorkshire,Yorkshire and The Humber,53.93319,-0.790702,200,OK
55.941478,-3.174701,EH16 5XR,City of Edinburgh,,55.941469,-3.1747,200,OK
52.906745,-1.035792,NG12 3PF,Rushcliffe,East Midlands,52.906745,-1.035792,200,OK
53.685365,-1.298981,WF8 2BA,Wakefield,Yorkshire and The Humber,53.685686,-1.298534,200,OK
51.643934,-3.489602,CF41 7BG,Rhondda Cynon Taf,,51.643934,-3.489602,200,OK
51.801191,-1.872804,GL54 3JT,Cotswold,South West,51.801191,-1.872804,200,OK
52.978138,-1.086822,NG4 4DW,Gedling,East Midlands,52.978138,-1.086822,200,OK
53.587166,-2.662777,WN6 0JJ,Wigan,North West,53.587166,-2.662777,200,OK
53.429369,-2.231282,M20 3LQ,Manchester,North West,53.429369,-2.231282,200,OK
54.543852,-6.708367,BT71 4NN,Mid Ulster,,54.543852,-6.708367,200,OK
51.527684,0.116147,IG11 0RU,Barking and Dagenham,London,51.527839,0.116039,200,OK
53.024586,-0.428288,NG34 8JS,North Kesteven,East Midlands,53.024586,-0.428288,200,OK
55.801552,-3.971344,ML1 4BY,North Lanarkshire,,55.801552,-3.971344,200,OK
51.514438,-0.14463,W1S 1HT,Westminster,London,51.514438,-0.14463,200,OK
52.964856,-1.147848,NG3 4HG,Nottingham,East Midlands,52.964856,-1.147848,200,OK
53.564617,-1.498039,S75 1HA,Barnsley,Yorkshire and The Humber,53.564617,-1.498039,200,OK
53.85712,-2.143937,BB8 7BN,Pendle,North West,53.857125,-2.144016,200,OK
52.688126,-2.029634,WS11 1BD,Cannock Chase,West Midlands,52.688126,-2.029634,200,OK
52.659169,-1.101613,LE4 7GX,Leicester,East Midlands,52.659169,-1.101613,200,OK
54.810614,-7.402931,BT82 8NF,Derry City and Strabane,,54.810614,-7.402931,200,OK
51.635812,0.805894,CM0 8TN,Maldon,East of England,51.635812,0.805894,200,OK
51.999741,-0.502541,MK45 1RF,Central Bedfordshire,East of England,51.999741,-0.502541,200,OK
51.705682,-4.965856,SA73 1EB,Pembrokeshire,,51.705682,-4.965856,200,OK
50.912375,0.433329,TN33 9LS,Rother,South East,50.912375,0.433329,200,OK
51.734192,-3.178684,NP23 7TB,Blaenau Gwent,,51.734054,-3.178014,200,OK
52.565385,-2.111723,WV4 6HB,Wolverhampton,West Midlands,52.565385,-2.111723,200,OK
55.860733,-4.108032,G69 6BH,Glasgow City,,55.860733,-4.108032,200,OK
54.172749,-1.388578,YO7 3RE,North Yorkshire,Yorkshire and The Humber,54.172749,-1.388578,200,OK
52.225222,0.16295,CB4 1TU,South Cambridgeshire,East of England,52.225222,0.16295,200,OK
51.510445,-3.230064,CF14 2EH,Cardiff,,51.510445,-3.230064,200,OK
51.634783,-0.175589,N20 9FL,Barnet,London,51.634338,-0.175697,200,OK
50.923392,-1.30565,SO30 2HE,Eastleigh,South East,50.92347,-1.305055,200,OK
50.787638,-1.900396,BH22 9FY,Dorset,South West,50.787638,-1.900396,200,OK
50.790728,-1.885076,BH22 8LZ,Dorset,South West,50.790728,-1.885076,200,OK
52.103865,-0.681276,MK16 9JH,Milton Keynes,South East,52.103865,-0.681276,200,OK
57.146917,-2.120855,AB25 2RU,Aberdeen City,,57.146965,-2.120681,200,OK
51.446121,0.123513,DA5 3DL,Bexley,London,51.446121,0.123513,200,OK
57.515399,-2.460031,,,,,,200,OK
51.266496,-0.865317,GU51 5SR,Hart,South East,51.266496,-0.865317,200,OK
51.472665,0.113729,DA16 1DG,Bexley,London,51.472665,0.113729,200,OK
52.11618,1.021754,IP8 4SL,Mid Suffolk,East of England,52.11621,1.021639,200,OK
54.969156,-1.410521,NE34 8EL,South Tyneside,North East,54.969156,-1.410521,200,OK
51.552404,0.101239,IG3 9DQ,Redbridge,London,51.552404,0.101239,200,OK
51.152841,-1.338388,SO21 3SF,Winchester,South East,51.152841,-1.338388,200,OK
53.95456,-1.09699,YO24 4AY,York,Yorkshire and The Humber,53.954524,-1.097082,200,OK
52.96919,-1.165765,NG7 6HQ,Nottingham,East Midlands,52.96928,-1.165838,200,OK
55.373171,-1.693085,NE66 2YG,Northumberland,North East,55.373171,-1.693085,200,OK
53.212172,-1.674502,DE45 1GQ,Derbyshire Dales,East Midlands,53.212172,-1.674502,200,OK
50.388124,-4.138679,PL3 4NU,Plymouth,South West,50.388124,-4.138679,200,OK
53.076586,-0.966184,NG25 0NW,Newark and Sherwood,East Midlands,53.076586,-0.966184,200,OK
53.120051,-1.198784,NG18 5BL,Ashfield,East Midlands,53.120051,-1.198784,200,OK
51.633782,-3.423711,CF39 0PA,Rhondda Cynon Taf,,51.633782,-3.423711,200,OK
51.405619,-0.842066,RG41 2RX,Wokingham,South East,51.404866,-0.842268,200,OK
52.132304,-0.437672,MK41 9DJ,Bedford,East of England,52.132304,-0.437672,200,OK
53.27915,-3.579444,LL22 8DG,Conwy,,53.27915,-3.579444,200,OK
52.369767,-2.599895,SY8 3NG,Shropshire,West Midlands,52.369767,-2.599895,200,OK
52.433608,-1.703797,B92 0HA,Solihull,West Midlands,52.43347,-1.703776,200,OK
53.01252,-1.34391,DE75 7HB,Amber Valley,East Midlands,53.01252,-1.34391,200,OK
53.67528,-2.962063,PR9 9RA,Sefton,North West,53.67528,-2.962063,200,OK
53.376037,-2.054119,SK6 7JZ,Stockport,North West,53.376037,-2.054119,200,OK
53.565494,-0.279036,DN37 8JS,West Lindsey,East Midlands,53.565494,-0.279036,200,OK
50.85264,-1.305834,SO31 9FT,Fareham,South East,50.852449,-1.305468,200,OK
51.185182,-0.176298,RH6 8LG,Reigate and Banstead,South East,51.185182,-0.176298,200,OK
52.519738,-1.780708,B35 7NU,Birmingham,West Midlands,52.51977,-1.78067,200,OK
51.906654,0.094733,SG11 2LF,East Hertfordshire,East of England,51.906654,0.094733,200,OK
53.798064,-3.054782,FY4 1BT,Blackpool,North West,53.798064,-3.054782,200,OK
55.162941,-1.597715,NE62 5EJ,Northumberland,North East,55.162941,-1.597715,200,OK
50.152098,-5.100449,TR11 3TN,Cornwall,South West,50.152098,-5.100449,200,OK
53.853466,-0.438325,HU17 7JB,East Riding of Yorkshire,Yorkshire and The Humber,53.853466,-0.438325,200,OK
51.409125,-3.25528,CF63 3JB,Vale of Glamorgan,,51.409125,-3.25528,200,OK
52.667693,-2.028688,WS6 7EU,South Staffordshire,West Midlands,52.667693,-2.028688,200,OK
55.827573,-4.295602,G43 1RF,Glasgow City,,55.827573,-4.295602,200,OK
53.812952,-1.538074,LS7 3AG,Leeds,Yorkshire and The Humber,53.812952,-1.538074,200,OK
51.390705,-0.547689,KT16 0AW,Runnymede,South East,51.390705,-0.547689,200,OK
51.374396,0.578991,ME8 6HQ,Medway,South East,51.374396,0.578991,200,OK
54.513312,-1.362112,TS16 0GZ,Stockton-on-Tees,North East,54.513312,-1.362112,200,OK
54.751569,-3.369652,CA7 2PS,Cumberland,North West,54.751569,-3.369652,200,OK
54.689783,-1.316563,TS27 3EN,Hartlepool,North East,54.689783,-1.316563,200,OK
51.030652,-3.059928,TA2 8GR,Somerset,South West,51.030652,-3.059928,200,OK
55.935124,-4.716791,PA15 2NY,Inverclyde,,55.935077,-4.715744,200,OK
52.673181,-0.304885,PE6 8NA,South Kesteven,East Midlands,52.673181,-0.304885,200,OK
51.3702,-2.383823,BA2 2HQ,Bath and North East Somerset,South West,51.3702,-2.383823,200,OK
53.091137,-1.250479,NG17 8RP,Ashfield,East Midlands,53.091137,-1.250479,200,OK
52.51401,-1.795133,B35 7DH,Birmingham,West Midlands,52.513929,-1.795148,200,OK
53.23104,-0.543724,LN1 1DB,Lincoln,East Midlands,53.230984,-0.543561,200,OK
54.550719,-1.270467,TS5 4QT,Middlesbrough,North East,54.550719,-1.270467,200,OK
51.006171,-0.10319,RH16 1DR,Mid Sussex,South East,51.006094,-0.103109,200,OK
51.538478,-0.056512,E8 3SG,Hackney,London,51.538379,-0.056388,200,OK
51.78982,-1.167454,OX33 1AJ,South Oxfordshire,South East,51.789826,-1.167434,200,OK
51.360377,-0.06356,CR0 5RE,Croydon,London,51.360377,-0.06356,200,OK
50.832754,-0.280303,BN43 5EQ,Adur,South East,50.832718,-0.279722,200,OK
51.364836,-2.919184,BS22 7PB,North Somerset,South West,51.364836,-2.919184,200,OK
52.4787,-2.080989,DY2 9TD,Dudley,West Midlands,52.4787,-2.080989,200,OK
53.538937,-2.665479,WN5 9PY,Wigan,North West,53.538937,-2.665479,200,OK
53.491673,-2.259866,M7 1AQ,Salford,North West,53.491903,-2.260573,200,OK
51.30437,-3.010132,TA8 2RP,Somerset,South West,51.30437,-3.010132,200,OK
54.927222,-1.449973,SR5 4EL,Sunderland,North East,54.927222,-1.449973,200,OK
52.461529,-1.526514,CV7 8LT,Nuneaton and Bedworth,West Midlands,52.461529,-1.526514,200,OK
53.679897,-1.509842,WF2 9RQ,Wakefield,Yorkshire and The Humber,53.679897,-1.509842,200,OK
54.474382,-6.233626,BT67 0FA,Lisburn and Castlereagh,,54.474382,-6.233626,200,OK
51.952178,-1.121206,OX27 8EB,Cherwell,South East,51.952142,-1.121114,200,OK
52.545159,-4.0388,LL35 0LS,Gwynedd,,52.545149,-4.038858,200,OK
54.936409,-1.600587,NE9 6BX,Gateshead,North East,54.936409,-1.600587,200,OK
52.09504,0.492944,CB9 7QS,West Suffolk,East of England,52.09504,0.492944,200,OK
51.248967,-0.766325,GU11 1EY,Rushmoor,South East,51.248821,-0.766268,200,OK
51.498843,-0.264297,W4 5HN,Ealing,London,51.498843,-0.264297,200,OK
53.204798,-1.160449,NG20 0DY,Mansfield,East Midlands,53.204798,-1.160449,200,OK
53.838282,-1.565012,LS6 4SG,Leeds,Yorkshire and The Humber,53.838282,-1.565012,200,OK
57.151032,-2.137463,AB15 5LQ,Aberdeen City,,57.151032,-2.137463,200,OK
51.504277,-3.151128,CF23 9EY,Cardiff,,51.504136,-3.151773,200,OK
51.253388,0.424035,ME18 5PX,Tonbridge and Malling,South East,51.253388,0.424035,200,OK
54.66991,-5.922676,BT37 9JL,Antrim and Newtownabbey,,54.66991,-5.922676,200,OK
51.164735,-0.149572,RH6 9FZ,Reigate and Banstead,South East,51.164735,-0.149572,200,OK
52.062341,1.239807,IP5 2YJ,East Suffolk,East of England,52.062341,1.239807,200,OK
52.37863,-0.27079,PE28 4JJ,Huntingdonshire,East of England,52.378639,-0.270819,200,OK
52.675923,-1.149856,LE4 2HS,Leicester,East Midlands,52.675923,-1.149856,200,OK
51.61408,-3.406615,CF39 9UT,Rhondda Cynon Taf,,51.61408,-3.406615,200,OK
51.808657,1.022863,CO7 0DR,Tendring,East of England,51.808657,1.022863,200,OK
55.834023,-4.522598,PA5 8TD,Renfrewshire,,55.834023,-4.522598,200,OK
53.426232,-0.84589,DN10 4LN,Bassetlaw,East Midlands,53.426329,-0.846655,200,OK
53.345103,-2.859904,L24 1UH,Liverpool,North West,53.345103,-2.859904,200,OK
50.833311,-0.768041,PO19 7UY,Chichester,South East,50.833311,-0.768041,200,OK
54.976743,-1.435782,NE33 4TD,South Tyneside,North East,54.976743,-1.435782,200,OK
50.384199,-4.830107,PL26 8XT,Cornwall,South West,50.384199,-4.830107,200,OK
52.976472,-0.123656,PE20 3QY,Boston,East Midlands,52.976472,-0.123656,200,OK
53.561039,-2.379753,BL3 1EQ,Bolton,North West,53.561039,-2.379753,200,OK
53.791903,-2.244218,BB11 1DF,Burnley,North West,53.791526,-2.244064,200,OK
57.480167,-4.216106,IV2 3NJ,Highland,,57.480167,-4.216106,200,OK
51.544726,-0.253697,NW10 9DN,Brent,London,51.544726,-0.253697,200,OK
55.87929,-4.160211,G33 5QZ,Glasgow City,,55.87929,-4.160211,200,OK
52.104762,-2.325656,WR14 3DG,Malvern Hills,West Midlands,52.104762,-2.325656,200,OK
51.600267,-2.977406,NP19 7XU,Newport,,51.600547,-2.976465,200,OK
56.382833,-2.889246,KY16 0EX,Fife,,56.382728,-2.888939,200,OK
55.941433,-4.336155,G62 7QQ,East Dunbartonshire,,55.941433,-4.336155,200,OK
51.062295,0.816036,TN26 2LX,Ashford,South East,51.062295,0.816036,200,OK
52.443069,-2.055972,B63 4RB,Dudley,West Midlands,52.443069,-2.055972,200,OK
53.95622,-2.781041,PR3 0AY,Wyre,North West,53.95622,-2.781041,200,OK
52.729017,-1.939995,WS15 1QN,Cannock Chase,West Midlands,52.729017,-1.939995,200,OK
52.423429,-2.528523,,,,,,200,OK
53.354151,-1.477197,S8 9FH,Sheffield,Yorkshire and The Humber,53.35453,-1.477658,200,OK
51.746297,-2.216972,GL5 1BJ,Stroud,South West,51.746297,-2.216972,200,OK
52.283391,0.123999,CB24 8UB,South Cambridgeshire,East of England,52.283359,0.124098,200,OK
54.267682,-5.636154,BT30 7UJ,"Newry, Mourne and Down",,54.267682,-5.636154,200,OK
53.428267,-2.199521,M19 1GB,Manchester,North West,53.428267,-2.199521,200,OK
50.804009,-0.000346,BN10 7SJ,Lewes,South East,50.804241,0.000232,200,OK
51.465816,-3.569755,CF32 0TL,Vale of Glamorgan,,51.465816,-3.569755,200,OK
51.464754,-3.167978,CF10 5EY,Cardiff,,51.464735,-3.168021,200,OK
50.540771,-4.976761,PL28 8QW,Cornwall,South West,50.540819,-4.976665,200,OK
53.501465,-2.427342,M28 1SL,Salford,North West,53.501465,-2.427342,200,OK
51.596847,-0.069513,N17 6SR,Haringey,London,51.596851,-0.069759,200,OK
51.142153,0.853238,TN23 4HQ,Ashford,South East,51.142216,0.853242,200,OK
50.820825,-0.147284,BN1 2FN,Brighton and Hove,South East,50.821025,-0.148356,200,OK
54.711422,-1.242271,TS24 9QX,Hartlepool,North East,54.711422,-1.242271,200,OK
53.466682,-2.952728,L9 0HJ,Liverpool,North West,53.466682,-2.952728,200,OK
51.279468,-2.477949,BA3 4DT,Bath and North East Somerset,South West,51.279468,-2.477949,200,OK
51.54319,-2.420232,BS37 5EH,South Gloucestershire,South West,51.54319,-2.420232,200,OK
53.472796,-2.587171,WA3 3JP,Wigan,North West,53.472796,-2.587171,200,OK
51.378677,0.044472,BR2 8LQ,Bromley,London,51.378677,0.044472,200,OK
51.808455,-2.722502,NP25 5AJ,Monmouthshire,,51.808455,-2.722502,200,OK
51.045649,0.41591,TN5 7BY,Rother,South East,51.045649,0.41591,200,OK
51.51877,-0.311753,W13 8JB,Ealing,London,51.51877,-0.311753,200,OK
51.748216,-0.469624,HP2 4FT,Dacorum,East of England,51.748216,-0.469624,200,OK
53.776371,-0.407833,HU16 4RS,East Riding of Yorkshire,Yorkshire and The Humber,53.776371,-0.407833,200,OK
53.714321,-1.310649,WF10 3PL,Wakefield,Yorkshire and The Humber,53.714321,-1.310649,200,OK
54.377015,-2.162615,DL11 6DW,North Yorkshire,Yorkshire and The Humber,54.377033,-2.162369,200,OK
51.3642,-0.534996,KT16 0NX,Runnymede,South East,51.3642,-0.534996,200,OK
54.434129,-2.962453,LA22 9AU,Westmorland and Furness,North West,54.434129,-2.962453,200,OK
51.526744,-0.262933,NW10 6LE,Ealing,London,51.527395,-0.263211,200,OK
52.561919,-0.255299,PE2 9QF,Peterborough,East of England,52.5622,-0.255466,200,OK
54.602076,-1.100926,TS10 5PZ,Redcar and Cleveland,North East,54.602076,-1.100926,200,OK
52.420029,-1.835711,B28 0YH,Birmingham,West Midlands,52.420029,-1.835711,200,OK
51.639161,-0.468044,WD3 1EH,Three Rivers,East of England,51.639161,-0.468044,200,OK
53.180697,-3.399631,LL16 4YB,Denbighshire,,53.180702,-3.399677,200,OK
53.715254,-1.363985,WF10 5DY,Wakefield,Yorkshire and The Humber,53.715254,-1.363985,200,OK
54.749083,-6.320869,BT41 3AF,Antrim and Newtownabbey,,54.749293,-6.321124,200,OK
52.575185,-0.240413,PE1 1WS,Peterborough,East of England,52.575147,-0.240239,200,OK
51.884986,-0.523478,LU6 1SJ,Central Bedfordshire,East of England,51.884986,-0.523478,200,OK
55.934946,-3.207143,EH10 4EF,City of Edinburgh,,55.934946,-3.207143,200,OK
52.982394,-2.117415,ST3 5LW,Stoke-on-Trent,West Midlands,52.982627,-2.117088,200,OK
53.166,-0.543024,LN5 9RJ,North Kesteven,East Midlands,53.166189,-0.542973,200,OK
51.814488,-4.754032,SA67 8HB,Pembrokeshire,,51.814488,-4.754032,200,OK
52.193507,-2.256625,WR2 5QQ,Worcester,West Midlands,52.193507,-2.256625,200,OK
52.454091,0.044853,PE16 6NB,Fenland,East of England,52.454091,0.044853,200,OK
51.606794,-0.267837,HA8 9YQ,Barnet,London,51.606794,-0.267837,200,OK
54.92917,-1.380441,SR6 9BA,Sunderland,North East,54.92917,-1.380441,200,OK
55.849488,-4.247478,G5 0RB,Glasgow City,,55.849488,-4.247478,200,OK
53.211332,-4.253861,LL60 6EY,Isle of Anglesey,,53.211332,-4.253861,200,OK
51.917159,-1.454263,OX7 4NB,West Oxfordshire,South East,51.917159,-1.454263,200,OK
51.140051,-3.531302,TA24 7DH,Somerset,South West,51.140051,-3.531302,200,OK
51.368561,-2.387042,BA2 2LA,Bath and North East Somerset,South West,51.368561,-2.387042,200,OK
54.663158,-3.359388,CA13 9PJ,Cumberland,North West,54.663158,-3.359388,200,OK
55.105586,-1.579922,NE23 3BE,Northumberland,North East,55.105355,-1.580723,200,OK
53.658673,-1.55052,WF4 5AE,Wakefield,Yorkshire and The Humber,53.658673,-1.55052,200,OK
53.467789,-1.49055,S35 4FX,Sheffield,Yorkshire and The Humber,53.467789,-1.49055,200,OK
55.807031,-4.180111,G72 8LT,South Lanarkshire,,55.807031,-4.180111,200,OK
54.353095,-7.640913,BT74 6HE,Fermanagh and Omagh,,54.353095,-7.640913,200,OK
56.34549,-3.222751,,,,,,200,OK
52.219725,-0.286016,PE19 8SQ,Huntingdonshire,East of England,52.219725,-0.286016,200,OK
55.871821,-3.629852,EH47 7JZ,West Lothian,,55.871821,-3.629852,200,OK
54.514281,-1.318955,TS17 0GQ,Stockton-on-Tees,North East,54.514281,-1.318955,200,OK
56.185783,-3.539418,KY13 0UW,Perth and Kinross,,56.185783,-3.539418,200,OK
51.647172,-0.285205,WD6 3JS,Hertsmere,East of England,51.647172,-0.285205,200,OK
51.878562,0.561328,CM7 3JQ,Braintree,East of England,51.878712,0.561131,200,OK
53.370377,-2.578457,WA4 2AG,Warrington,North West,53.370429,-2.578291,200,OK
52.957344,-1.157136,NG1 5LN,Nottingham,East Midlands,52.957281,-1.157137,200,OK
51.361009,1.023867,CT5 1FE,Canterbury,South East,51.361009,1.023867,200,OK
55.876884,-4.316192,G11 7JW,Glasgow City,,55.876884,-4.316192,200,OK
52.644167,1.724996,NR30 5BP,Great Yarmouth,East of England,52.644167,1.724996,200,OK
53.081767,-2.259956,ST7 1RU,Newcastle-under-Lyme,West Midlands,53.081767,-2.259956,200,OK
51.63054,-0.335435,HA7 3HT,Harrow,London,51.63054,-0.335435,200,OK
53.566226,-0.082161,DN31 1DB,North East Lincolnshire,Yorkshire and The Humber,53.566161,-0.082557,200,OK
52.950896,-1.150248,NG1 7BQ,Nottingham,East Midlands,52.950896,-1.150248,200,OK
52.541555,-2.133213,DY3 3PE,Dudley,West Midlands,52.541555,-2.133213,200,OK
53.726354,-1.700177,BD19 4AD,Kirklees,Yorkshire and The Humber,53.726354,-1.700177,200,OK
52.43053,-1.722269,B92 0DL,Solihull,West Midlands,52.43053,-1.722269,200,OK
51.752431,-0.021797,EN11 8LL,Broxbourne,East of England,51.752431,-0.021797,200,OK
52.219746,1.484234,IP17 1WE,East Suffolk,East of England,52.219746,1.484234,200,OK
51.67785,-0.004915,EN9 3XP,Epping Forest,East of England,51.67785,-0.004915,200,OK
51.590494,-1.409898,OX12 8HP,Vale of White Horse,South East,51.590494,-1.409898,200,OK
51.442269,-0.929946,RG6 7DT,Wokingham,South East,51.442269,-0.929946,200,OK
52.640457,1.275624,NR2 4LT,Norwich,East of England,52.640482,1.275646,200,OK
51.439722,0.24675,DA2 6HP,Dartford,South East,51.44009,0.246825,200,OK
51.502424,-0.367101,UB2 4AZ,Ealing,London,51.502424,-0.367101,200,OK
50.15897,-5.014519,TR2 5DH,Cornwall,South West,50.15897,-5.014519,200,OK
51.420289,-0.320159,TW11 9DG,Richmond upon Thames,London,51.420289,-0.320159,200,OK
50.858013,-1.170085,PO16 8SY,Fareham,South East,50.858013,-1.170085,200,OK
51.547115,-0.101621,N5 1JG,Islington,London,51.547133,-0.101621,200,OK
51.08126,-4.053475,EX32 7DS,North Devon,South West,51.08126,-4.053475,200,OK
53.266212,-1.633716,S32 3XE,Derbyshire Dales,East Midlands,53.266185,-1.633626,200,OK
52.994193,-0.418276,NG34 7PA,North Kesteven,East Midlands,52.994193,-0.418276,200,OK
52.45127,-1.780356,B26 3DE,Birmingham,West Midlands,52.451375,-1.781012,200,OK
51.736367,-2.360998,GL2 7AN,Stroud,South West,51.736367,-2.360998,200,OK
51.338681,-0.746691,GU15 3SJ,Surrey Heath,South East,51.338381,-0.746395,200,OK
51.513998,-3.197066,CF14 4NY,Cardiff,,51.513998,-3.197066,200,OK
53.267854,0.089748,LN13 0AT,East Lindsey,East Midlands,53.267854,0.089748,200,OK
50.415422,-5.080282,TR7 1DY,Cornwall,South West,50.415422,-5.080282,200,OK
53.41369,-2.712056,WA9 4UU,St. Helens,North West,53.41369,-2.712056,200,OK
50.889827,-1.381501,SO19 9TA,Southampton,South East,50.889665,-1.381617,200,OK
53.545794,-2.09552,OL1 3NG,Oldham,North West,53.545794,-2.09552,200,OK
52.183105,1.616238,IP16 4QU,East Suffolk,East of England,52.183105,1.616238,200,OK
51.807064,-0.769663,HP22 5WD,Buckinghamshire,South East,51.807064,-0.769663,200,OK
51.518392,-0.129205,WC1B 3AX,Camden,London,51.518304,-0.129324,200,OK
57.587946,-3.835909,IV12 5TY,Highland,,57.587946,-3.835909,200,OK
51.859436,-2.198581,GL4 3HS,Gloucester,South West,51.859436,-2.198581,200,OK
54.088244,-1.135842,YO61 1JL,North Yorkshire,Yorkshire and The Humber,54.088244,-1.135842,200,OK
51.162561,0.551721,TN12 0EZ,Maidstone,South East,51.162561,0.551721,200,OK
54.512694,-6.068103,BT28 2BX,Lisburn and Castlereagh,,54.512694,-6.068103,200,OK
50.848897,0.476184,TN40 2DT,Rother,South East,50.848904,0.476284,200,OK
50.899119,-1.399272,SO14 3EG,Southampton,South East,50.899128,-1.399357,200,OK
51.607774,0.53688,SS11 8BN,Basildon,East of England,51.607774,0.53688,200,OK
52.129633,-0.458788,MK42 0HB,Bedford,East of England,52.129633,-0.458788,200,OK
50.962288,-0.147159,RH15 8UD,Mid Sussex,South East,50.962288,-0.147159,200,OK
52.341823,-0.170127,PE29 1AJ,Huntingdonshire,East of England,52.341823,-0.170127,200,OK
50.770249,-0.744965,PO21 4NR,Arun,South East,50.770249,-0.744965,200,OK
54.587078,-1.003954,TS11 7EQ,Redcar and Cleveland,North East,54.587078,-1.003954,200,OK
58.45773,-3.110342,KW1 4RQ,Highland,,58.45773,-3.110342,200,OK
53.067432,-2.39866,CW2 5LG,Cheshire East,North West,53.067432,-2.39866,200,OK
50.807413,-1.087247,PO1 4QB,Portsmouth,South East,50.807413,-1.087247,200,OK
52.240617,-4.260928,SA46 0DX,Ceredigion,,52.240476,-4.26101,200,OK
51.777338,-1.488013,OX28 4YN,West Oxfordshire,South East,51.777338,-1.488013,200,OK
53.279348,-3.805548,,,,,,200,OK
54.955423,-1.584002,NE8 3FE,Gateshead,North East,54.955244,-1.584395,200,OK
52.026573,-0.493357,MK45 2SA,Central Bedfordshire,East of England,52.026573,-0.493357,200,OK
51.552415,-0.176852,NW3 6PE,Camden,London,51.552388,-0.176262,200,OK
51.155707,-0.226853,RH6 0EE,Mole Valley,South East,51.156251,-0.227791,200,OK
51.207788,-2.674238,BA5 1NA,Somerset,South West,51.207788,-2.674238,200,OK
56.472609,-3.039162,DD2 4NU,Dundee City,,56.472609,-3.039162,200,OK
51.510676,-0.380604,UB1 1LQ,Ealing,London,51.510676,-0.380604,200,OK
54.662949,-1.225531,TS25 5HN,Hartlepool,North East,54.662949,-1.225531,200,OK
51.753883,-2.544933,GL15 4QD,Forest of Dean,South West,51.753883,-2.544933,200,OK
51.305688,-0.757661,GU14 8JS,Rushmoor,South East,51.305688,-0.757661,200,OK
57.645147,-3.308478,IV30 1QS,Moray,,57.645147,-3.308478,200,OK
54.385233,-7.485746,BT94 3JA,Fermanagh and Omagh,,54.385233,-7.485746,200,OK
51.71704,0.582865,CM3 4NP,Chelmsford,East of England,51.71704,0.582865,200,OK
51.715211,0.241096,CM5 0BT,Epping Forest,East of England,51.715211,0.241096,200,OK
54.185057,-7.513447,BT92 9LR,Fermanagh and Omagh,,54.185057,-7.513447,200,OK
52.251097,-0.823801,NN3 9PH,West Northamptonshire,East Midlands,52.251097,-0.823801,200,OK
50.653293,-1.277018,PO38 3LU,Isle of Wight,South East,50.653293,-1.277018,200,OK
51.187764,1.404365,CT14 8AF,Dover,South East,51.187764,1.404365,200,OK
51.559984,-0.175569,NW3 1EJ,Camden,London,51.55999,-0.175774,200,OK
51.613757,-1.639591,SN6 8SF,Vale of White Horse,South East,51.613757,-1.639591,200,OK
54.827467,-5.815129,BT40 3DJ,Mid and East Antrim,,54.827467,-5.815129,200,OK
52.556687,-1.892195,B44 9LS,Birmingham,West Midlands,52.556687,-1.892195,200,OK
51.712241,-0.443589,WD4 8HQ,Dacorum,East of England,51.712151,-0.443607,200,OK
51.743233,-1.258268,OX1 4LZ,Oxford,South East,51.743233,-1.258268,200,OK
51.834191,-0.209356,AL6 9FQ,Welwyn Hatfield,East of England,51.834197,-0.209332,200,OK
53.576084,-2.486767,BL1 5DL,Bolton,North West,53.576084,-2.486767,200,OK
53.526645,-2.1102,OL8 2AW,Oldham,North West,53.526645,-2.1102,200,OK
52.265679,1.571502,IP17 3BU,East Suffolk,East of England,52.265679,1.571502,200,OK
53.586281,-1.48147,S71 3PF,Barnsley,Yorkshire and The Humber,53.586281,-1.48147,200,OK
51.91944,-0.211492,SG1 4BH,Stevenage,East of England,51.91944,-0.211492,200,OK
54.001732,-1.532951,HG1 4LA,North Yorkshire,Yorkshire and The Humber,54.001732,-1.532951,200,OK
53.875103,-1.869616,BD20 5SZ,Bradford,Yorkshire and The Humber,53.875103,-1.869616,200,OK
51.605293,-0.415609,HA6 1SN,Hillingdon,London,51.605293,-0.415609,200,OK
52.307979,-1.71062,CV35 7BD,Warwick,West Midlands,52.307913,-1.710507,200,OK
51.572205,-2.213861,SN16 0LL,Wiltshire,South West,51.572205,-2.213861,200,OK
51.599547,-0.143199,N10 2RG,Haringey,London,51.599499,-0.142999,200,OK
53.229029,-3.433327,LL17 0BF,Denbighshire,,53.229029,-3.433327,200,OK
51.967201,-3.376073,LD3 9SS,Powys,,51.967201,-3.376073,200,OK
51.389129,-0.755374,RG12 7LE,Bracknell Forest,South East,51.389161,-0.75497,200,OK
50.924217,-1.4028,SO17 1EG,Southampton,South East,50.924217,-1.4028,200,OK
52.880328,-1.60562,DE65 6NN,South Derbyshire,East Midlands,52.88031,-1.605621,200,OK
53.44846,-2.853152,L34 0ED,Knowsley,North West,53.44846,-2.853152,200,OK
51.523962,-0.257273,NW10 6NY,Ealing,London,51.523808,-0.257054,200,OK
51.611615,-0.16726,N12 0RP,Barnet,London,51.611045,-0.167066,200,OK
50.42918,-4.138599,PL6 6JX,Plymouth,South West,50.429269,-4.138194,200,OK
51.358855,-2.347204,BA2 5JZ,Bath and North East Somerset,South West,51.358855,-2.347204,200,OK
51.36812,-0.366962,KT10 9QE,Elmbridge,South East,51.36812,-0.366962,200,OK
51.766452,-1.48231,OX29 7UT,West Oxfordshire,South East,51.766452,-1.48231,200,OK
53.448461,-3.001257,L20 1AD,Sefton,North West,53.448107,-3.001474,200,OK
52.596132,1.173819,NR9 3EJ,South Norfolk,East of England,52.596132,1.173819,200,OK
54.979287,-1.80473,NE41 8BP,Northumberland,North East,54.979287,-1.80473,200,OK
53.491967,-2.239611,M4 4FP,Manchester,North West,53.491464,-2.239261,200,OK
53.604468,-2.162918,OL11 1QS,Rochdale,North West,53.604468,-2.162918,200,OK
51.515259,-0.268314,W3 6PJ,Ealing,London,51.515259,-0.268314,200,OK
53.778542,-0.404063,HU16 4RQ,East Riding of Yorkshire,Yorkshire and The Humber,53.778542,-0.404063,200,OK
54.973518,-1.577879,NE6 2FQ,Newcastle upon Tyne,North East,54.973518,-1.577879,200,OK
53.493102,-3.022957,L23 2AA,Sefton,North West,53.493102,-3.022957,200,OK
50.752757,-1.900719,BH10 4FL,"Bournemouth, Christchurch and Poole",South West,50.752694,-1.899925,200,OK
53.587411,-1.340406,WF9 3EP,Wakefield,Yorkshire and The Humber,53.587411,-1.340406,200,OK
54.337255,-6.408444,BT62 2DP,"Armagh City, Banbridge and Craigavon",,54.337255,-6.408444,200,OK
52.043373,0.022668,SG8 8HH,North Hertfordshire,East of England,52.043365,0.022609,200,OK
53.868791,-1.708985,LS20 8PX,Leeds,Yorkshire and The Humber,53.868791,-1.708985,200,OK
55.478695,-4.616765,KA8 9BX,South Ayrshire,,55.478695,-4.616765,200,OK
52.483574,-1.893934,B4 6QA,Birmingham,West Midlands,52.483637,-1.89386,200,OK
51.474922,-0.076408,SE15 5JU,Southwark,London,51.474922,-0.076408,200,OK
52.241216,-0.867941,NN1 5LT,West Northamptonshire,East Midlands,52.241216,-0.867941,200,OK
50.745886,-1.620098,,,,,,200,OK
51.539639,0.67157,SS9 1HE,Southend-on-Sea,East of England,51.539639,0.67157,200,OK
52.853674,-1.5644,DE65 6BP,South Derbyshire,East Midlands,52.853674,-1.5644,200,OK
53.368788,-2.256953,M22 0HF,Manchester,North West,53.368538,-2.256275,200,OK
51.3884,-0.116028,CR0 3QD,Croydon,London,51.3884,-0.116028,200,OK
50.95235,-2.527217,DT9 4FE,Dorset,South West,50.95235,-2.527217,200,OK
55.718914,-2.747495,TD2 6SZ,Scottish Borders,,55.718985,-2.747326,200,OK
50.397396,-4.181576,PL5 1BJ,Plymouth,South West,50.397396,-4.181576,200,OK
50.60802,-2.456413,DT4 8AJ,Dorset,South West,50.607841,-2.456284,200,OK
51.429715,-0.8788,RG41 5QR,Wokingham,South East,51.429706,-0.8788,200,OK
51.493741,0.333887,RM16 2RN,Thurrock,East of England,51.493741,0.333887,200,OK
54.579897,-1.234485,TS2 1AH,Middlesbrough,North East,54.579897,-1.234485,200,OK
51.712862,-0.120786,EN6 4EQ,Welwyn Hatfield,East of England,51.712865,-0.120718,200,OK
51.221521,-0.741094,GU10 1LH,Guildford,South East,51.221521,-0.741094,200,OK
51.772114,-1.601825,OX18 1EE,West Oxfordshire,South East,51.772114,-1.601825,200,OK
54.514778,-7.969111,BT93 2BN,Fermanagh and Omagh,,54.514778,-7.969111,200,OK
51.768559,-0.577188,HP4 1EU,Dacorum,East of England,51.768559,-0.577188,200,OK
53.744776,-2.015125,HX7 7EB,Calderdale,Yorkshire and The Humber,53.744902,-2.015125,200,OK
51.428533,-0.064619,SE26 6QH,Lewisham,London,51.428533,-0.064619,200,OK
53.472119,-0.584782,DN21 4HU,North Lincolnshire,Yorkshire and The Humber,53.472119,-0.584782,200,OK
50.803984,-1.86939,BH22 8XD,Dorset,South West,50.803624,-1.868966,200,OK
51.519153,-0.120525,WC1B 4AF,Camden,London,51.518712,-0.1205,200,OK
51.590512,-3.00497,NP20 5HE,Newport,,51.590512,-3.00497,200,OK
53.37596,-2.145779,SK7 5LW,Stockport,North West,53.37596,-2.145779,200,OK
51.572355,0.557538,SS7 4HG,Castle Point,East of England,51.572355,0.557538,200,OK
51.972864,0.868107,CO6 4HZ,Babergh,East of England,51.972861,0.868036,200,OK
53.739893,-0.392275,HU4 6GA,"Kingston upon Hull, City of",Yorkshire and The Humber,53.739893,-0.392275,200,OK
51.417628,-0.700944,SL5 8HL,Bracknell Forest,South East,51.417628,-0.700944,200,OK
53.814101,-3.033861,FY3 9DX,Blackpool,North West,53.814101,-3.033861,200,OK
51.996767,-2.153266,GL20 5NF,Tewkesbury,South West,51.996767,-2.153266,200,OK
51.974513,-1.230596,OX27 7HT,Cherwell,South East,51.974513,-1.230596,200,OK
51.181823,-2.532378,BA4 4PW,Somerset,South West,51.181823,-2.532378,200,OK
53.644342,-1.771718,HD5 9AD,Kirklees,Yorkshire and The Humber,53.644385,-1.771916,200,OK
52.076791,1.114243,IP1 5PN,Ipswich,East of England,52.076791,1.114243,200,OK
57.424576,-1.924888,AB42 0TU,Aberdeenshire,,57.424576,-1.924888,200,OK
53.690944,-1.642203,WF13 2QS,Kirklees,Yorkshire and The Humber,53.690944,-1.642203,200,OK
51.408234,-0.952703,RG2 9DD,Wokingham,South East,51.408234,-0.952703,200,OK
50.916908,-1.397857,SO14 6HW,Southampton,South East,50.916899,-1.397914,200,OK
53.472495,-2.113886,M34 5FH,Tameside,North West,53.472495,-2.113886,200,OK
51.492982,-0.173866,SW7 3LR,Kensington and Chelsea,London,51.492982,-0.173866,200,OK
52.398683,-0.182283,PE28 2LY,Huntingdonshire,East of England,52.398684,-0.182313,200,OK
50.594319,-2.479973,DT4 9NL,Dorset,South West,50.594326,-2.479927,200,OK
51.388543,0.124784,BR5 4EP,Bromley,London,51.388543,0.124784,200,OK
52.704131,0.98001,NR20 4LY,Breckland,East of England,52.704131,0.98001,200,OK
50.977721,-0.943848,GU31 5RS,East Hampshire,South East,50.977721,-0.943848,200,OK
51.873921,0.166302,CM23 2AD,East Hertfordshire,East of England,51.873921,0.166302,200,OK
50.845568,-1.201186,PO14 1FE,Fareham,South East,50.845586,-1.201185,200,OK
55.928141,-4.346049,G61 3AX,East Dunbartonshire,,55.927673,-4.347013,200,OK
53.497382,-2.084784,OL6 8JY,Tameside,North West,53.497382,-2.084784,200,OK
53.40718,-1.507956,S6 4GF,Sheffield,Yorkshire and The Humber,53.40718,-1.507956,200,OK
54.854942,-1.58541,DH2 2DX,County Durham,North East,54.854942,-1.58541,200,OK
52.423913,-1.8118,B92 7BJ,Solihull,West Midlands,52.423913,-1.8118,200,OK
51.428754,-0.39678,TW13 6SS,Hounslow,London,51.42882,-0.396986,200,OK
55.801117,-4.398032,G78 1RS,East Renfrewshire,,55.801117,-4.398032,200,OK
53.814301,-1.74238,BD2 4DR,Bradford,Yorkshire and The Humber,53.814301,-1.74238,200,OK
55.945108,-3.062872,EH21 6DA,East Lothian,,55.945108,-3.062872,200,OK
52.988772,-2.130318,ST3 1NP,Stoke-on-Trent,West Midlands,52.988772,-2.130318,200,OK
51.530577,0.145621,RM9 6SJ,Barking and Dagenham,London,51.530577,0.145621,200,OK
51.712255,-1.589932,OX18 2TD,West Oxfordshire,South East,51.712491,-1.590509,200,OK
54.554625,-1.249261,TS5 5NQ,Middlesbrough,North East,54.554811,-1.248159,200,OK
51.454991,-0.950719,RG1 3JU,Reading,South East,51.454991,-0.950719,200,OK
52.739908,1.144137,NR9 5NY,Broadland,East of England,52.739908,1.144137,200,OK
51.051284,-4.181108,EX39 4JA,North Devon,South West,51.051284,-4.181108,200,OK
53.862644,-2.131275,BB8 7JF,Pendle,North West,53.862644,-2.131275,200,OK
57.144875,-2.104224,AB11 6BA,Aberdeen City,,57.144832,-2.104314,200,OK
51.295364,-2.203679,BA14 0TW,Wiltshire,South West,51.295364,-2.203679,200,OK
55.942181,-4.156366,G66 1PN,East Dunbartonshire,,55.942181,-4.156366,200,OK
53.288553,-2.911947,CH65 3BR,Cheshire West and Chester,North West,53.288569,-2.911947,200,OK
53.920963,-3.011786,FY7 6JB,Wyre,North West,53.921136,-3.011425,200,OK
55.867372,-4.262241,G3 6PN,Glasgow City,,55.867372,-4.262241,200,OK
57.671286,-2.492213,AB44 1SJ,Aberdeenshire,,57.671286,-2.492213,200,OK
56.492176,-3.013305,DD3 9JF,Dundee City,,56.492472,-3.013394,200,OK
53.575954,-2.42918,BL1 1PE,Bolton,North West,53.575855,-2.428815,200,OK
51.561894,-0.150504,N6 6AG,Camden,London,51.561729,-0.150658,200,OK
52.572578,1.69574,NR31 8QB,Great Yarmouth,East of England,52.572578,1.69574,200,OK
52.183614,-2.209907,WR5 2JA,Worcester,West Midlands,52.183614,-2.209907,200,OK
53.384367,-2.831814,L27 4YE,Liverpool,North West,53.384367,-2.831814,200,OK
54.712707,-1.696149,DL15 0PJ,County Durham,North East,54.712707,-1.696149,200,OK
53.550329,-2.336204,M26 1YN,Bury,North West,53.550151,-2.335098,200,OK
51.075756,1.070702,CT21 4SF,Folkestone and Hythe,South East,51.075593,1.070748,200,OK
50.762144,0.284979,BN21 4DX,Eastbourne,South East,50.762144,0.284979,200,OK
53.25488,-1.916742,SK17 6HS,High Peak,East Midlands,53.254869,-1.916846,200,OK
54.937679,-1.601386,NE9 5RZ,Gateshead,North East,54.937679,-1.601386,200,OK
53.472441,-2.249956,M15 4TF,Manchester,North West,53.472441,-2.249956,200,OK
53.430844,-2.330459,M33 6HZ,Trafford,North West,53.430844,-2.330459,200,OK
57.689971,-2.029758,AB43 9TZ,Aberdeenshire,,57.689971,-2.029758,200,OK
53.562808,-0.034977,DN35 8BL,North East Lincolnshire,Yorkshire and The Humber,53.562568,-0.034693,200,OK
52.167318,-2.21134,WR5 3RT,Worcester,West Midlands,52.167318,-2.21134,200,OK
53.464291,-2.252815,M15 5ET,Manchester,North West,53.464291,-2.252815,200,OK
53.789539,-1.508762,LS9 0QP,Leeds,Yorkshire and The Humber,53.789539,-1.508762,200,OK
53.020148,-2.181485,ST1 4HP,Stoke-on-Trent,West Midlands,53.020148,-2.181485,200,OK
53.189432,-2.893843,CH1 2AB,Cheshire West and Chester,North West,53.189369,-2.893811,200,OK
51.485094,0.312357,RM17 5HE,Thurrock,East of England,51.485094,0.312357,200,OK
53.316743,-3.056715,CH63 1JS,Wirral,North West,53.317038,-3.055941,200,OK
53.269024,-3.796179,LL28 5SS,Conwy,,53.26887,-3.796247,200,OK
50.651439,-3.617306,EX6 7QR,Teignbridge,South West,50.6514,-3.617391,200,OK
52.656364,-2.035614,WS6 7LW,South Staffordshire,West Midlands,52.656364,-2.035614,200,OK
51.515887,0.049256,E6 5TT,Newham,London,51.515887,0.049256,200,OK
52.0618,-0.805762,MK12 5QZ,Milton Keynes,South East,52.0618,-0.805762,200,OK
53.917152,-2.188053,BB18 5NB,Pendle,North West,53.917152,-2.188053,200,OK
51.618903,-0.140112,N11 1JE,Barnet,London,51.619117,-0.139197,200,OK
53.528561,-2.108153,OL8 1NS,Oldham,North West,53.528561,-2.108153,200,OK
51.272294,-0.854982,GU51 5AS,Hart,South East,51.272294,-0.854982,200,OK
55.989187,-3.397224,EH30 9NS,City of Edinburgh,,55.989187,-3.397224,200,OK
50.980655,-3.531194,EX16 9EJ,Mid Devon,South West,50.980655,-3.531194,200,OK
50.826648,-1.35225,SO45 1EA,New Forest,South East,50.826648,-1.352254,200,OK
55.980854,-3.232485,EH5 1GZ,City of Edinburgh,,55.980854,-3.232485,200,OK
51.829728,-2.290393,GL2 4FY,Gloucester,South West,51.829728,-2.290393,200,OK
53.372842,-0.004708,LN11 0HB,East Lindsey,East Midlands,53.372842,-0.004708,200,OK
51.439979,-0.358631,TW2 5AS,Richmond upon Thames,London,51.439979,-0.35861,200,OK
53.795873,-1.23963,LS25 6PW,North Yorkshire,Yorkshire and The Humber,53.795873,-1.23963,200,OK
51.46767,-0.055419,SE15 2EH,Southwark,London,51.46767,-0.055419,200,OK
56.488004,-2.984595,DD3 0SZ,Dundee City,,56.488004,-2.984595,200,OK
51.432055,-0.741664,RG42 6AN,Bracknell Forest,South East,51.432055,-0.741664,200,OK
53.83527,-3.022256,FY3 7LB,Blackpool,North West,53.83527,-3.022256,200,OK
51.50354,-0.127695,SW1A 2AA,Westminster,London,51.50354,-0.127695,200,OK
51.483586,-2.552274,BS16 1AU,"Bristol, City of",South West,51.483586,-2.552274,200,OK
51.972903,-4.933837,SA65 9TG,Pembrokeshire,,51.972903,-4.933837,200,OK
52.582148,-2.002431,WS2 9XH,Walsall,West Midlands,52.582148,-2.002431,200,OK
52.266665,-1.556753,CV34 7BL,Warwick,West Midlands,52.266665,-1.556753,200,OK
53.48345,-2.297685,M6 5QU,Salford,North West,53.48345,-2.297685,200,OK
53.441653,-2.986479,L20 2EP,Sefton,North West,53.441653,-2.986479,200,OK
53.400624,-2.915831,L15 8JF,Liverpool,North West,53.400624,-2.915831,200,OK
53.900043,-2.001272,BD20 8QA,North Yorkshire,Yorkshire and The Humber,53.900043,-2.001272,200,OK
52.717807,-1.403514,LE67 2BY,North West Leicestershire,East Midlands,52.717807,-1.403514,200,OK
55.004254,-1.487426,NE29 7XJ,North Tyneside,North East,55.004254,-1.487426,200,OK
53.832728,-2.21045,BB9 9DD,Pendle,North West,53.832728,-2.21045,200,OK
55.550712,-2.017281,NE71 6AS,Northumberland,North East,55.550712,-2.017281,200,OK
53.41556,-2.914918,L13 6QA,Liverpool,North West,53.41556,-2.914918,200,OK
53.83472,-1.935491,BD22 9EH,Bradford,Yorkshire and The Humber,53.83472,-1.935491,200,OK
54.75946,-3.214434,CA7 1AD,Cumberland,North West,54.760022,-3.213769,200,OK
51.39197,-1.309852,RG14 7TX,West Berkshire,South East,51.39197,-1.309852,200,OK
51.512357,-0.143821,W1S 2PG,Westminster,London,51.512357,-0.143821,200,OK
54.566141,-1.3199,TS18 1BL,Stockton-on-Tees,North East,54.566141,-1.3199,200,OK
53.905651,-1.359256,LS23 6NH,Leeds,Yorkshire and The Humber,53.905651,-1.359256,200,OK
55.10706,-3.345797,,,,,,200,OK
54.65836,-5.708739,BT19 1BB,Ards and North Down,,54.65836,-5.708739,200,OK
51.878316,0.835433,CO3 0LB,Colchester,East of England,51.878316,0.835433,200,OK
51.111839,-4.176644,EX33 1DW,North Devon,South West,51.111839,-4.176644,200,OK
51.426355,0.101507,DA14 6DN,Bexley,London,51.426613,0.101706,200,OK
51.131639,-0.16776,RH10 9AZ,Crawley,South East,51.13163,-0.167775,200,OK
57.610096,-3.609392,IV36 1DE,Moray,,57.610094,-3.609609,200,OK
52.057303,1.228397,IP5 1LT,East Suffolk,East of England,52.057303,1.228397,200,OK
56.03937,-4.370008,G63 9RY,Stirling,,56.03937,-4.370008,200,OK
52.274183,0.325377,CB25 0EP,East Cambridgeshire,East of England,52.274137,0.325404,200,OK
52.66416,0.159113,PE13 1SP,Fenland,East of England,52.66416,0.159113,200,OK
56.210245,-3.047788,KY8 5LA,Fife,,56.210245,-3.047788,200,OK
53.495402,-1.286664,S64 9BG,Doncaster,Yorkshire and The Humber,53.495402,-1.286664,200,OK
53.205878,-3.109248,CH7 6AZ,Flintshire,,53.205878,-3.109248,200,OK
52.572534,-2.142889,WV3 0AA,Wolverhampton,West Midlands,52.572534,-2.142889,200,OK
54.487144,-0.61947,YO21 3AR,North Yorkshire,Yorkshire and The Humber,54.487144,-0.61947,200,OK
53.411175,-2.971827,L3 8AG,Liverpool,North West,53.411175,-2.971827,200,OK
52.685767,-1.810382,WS13 6ES,Lichfield,West Midlands,52.685767,-1.810382,200,OK
52.57189,1.338675,NR14 7GN,South Norfolk,East of England,52.57189,1.338675,200,OK
51.202684,-0.981295,RG29 1RX,Hart,South East,51.202684,-0.981324,200,OK
55.643847,-4.813131,KA22 8HN,North Ayrshire,,55.643847,-4.813131,200,OK
53.547526,-0.101196,DN33 1QR,North East Lincolnshire,Yorkshire and The Humber,53.547526,-0.101196,200,OK
51.072086,-1.314019,SO23 7AF,Winchester,South East,51.072086,-1.314019,200,OK
51.654565,-0.400693,WD18 0QE,Watford,East of England,51.65457,-0.40067,200,OK
53.39714,-2.116976,SK2 5TX,Stockport,North West,53.39714,-2.116976,200,OK
53.416619,-3.045648,CH44 5UE,Wirral,North West,53.416912,-3.046046,200,OK
50.738343,-1.942271,BH12 3PH,"Bournemouth, Christchurch and Poole",South West,50.738343,-1.942271,200,OK
54.517934,-1.564894,DL3 8RE,Darlington,North East,54.517934,-1.564894,200,OK
56.490601,-2.98234,DD3 0DX,Dundee City,,56.490055,-2.983138,200,OK
52.318897,-0.082906,PE27 5HD,Huntingdonshire,East of England,52.318929,-0.082867,200,OK
53.485602,-2.607422,WA3 3UX,Wigan,North West,53.485602,-2.607422,200,OK
52.47442,-1.776178,B33 0SU,Birmingham,West Midlands,52.473736,-1.775534,200,OK
51.374282,0.316798,DA3 8DY,Sevenoaks,South East,51.374282,0.316798,200,OK
52.314792,0.780693,IP31 1ES,West Suffolk,East of England,52.314792,0.780693,200,OK
51.761941,0.066551,CM19 5FF,Harlow,East of England,51.761941,0.066551,200,OK
52.79979,0.034834,PE12 8PE,South Holland,East Midlands,52.799508,0.035043,200,OK
53.434661,-2.278814,M21 8FA,Manchester,North West,53.434652,-2.278829,200,OK
52.82225,-2.125545,ST16 1NG,Stafford,West Midlands,52.82225,-2.125545,200,OK
52.904167,-1.502461,DE23 6HW,Derby,East Midlands,52.904167,-1.502461,200,OK
51.532445,-0.043028,E3 5SA,Tower Hamlets,London,51.532445,-0.043028,200,OK
54.885152,-2.945707,CA2 5HY,Cumberland,North West,54.885152,-2.945707,200,OK
51.86417,0.158164,CM23 3HP,East Hertfordshire,East of England,51.864746,0.15809,200,OK
52.652877,1.366705,NR13 5DQ,Broadland,East of England,52.652877,1.366705,200,OK
54.520303,-1.539734,DL1 4AP,Darlington,North East,54.520303,-1.539734,200,OK
52.023027,-1.140703,NN13 7LF,West Northamptonshire,East Midlands,52.023027,-1.140703,200,OK
54.98775,-2.445041,NE49 9NN,Northumberland,North East,54.98775,-2.445041,200,OK
52.521588,-0.260376,PE7 3QB,Huntingdonshire,East of England,52.521588,-0.260376,200,OK
52.98119,-2.794108,SY13 3BB,Wrexham,,52.981444,-2.795096,200,OK
52.449504,-2.305785,WV15 6HS,Shropshire,West Midlands,52.449504,-2.305785,200,OK
53.66561,-1.625906,WF12 0RD,Kirklees,Yorkshire and The Humber,53.66561,-1.625906,200,OK
52.962942,-2.097011,ST3 7US,Stoke-on-Trent,West Midlands,52.962942,-2.097011,200,OK
51.53238,-0.123297,N1C 4AX,Camden,London,51.532382,-0.123271,200,OK
53.339941,-1.282066,S26 5LP,Rotherham,Yorkshire and The Humber,53.339593,-1.282447,200,OK
51.112164,0.862492,TN23 3ES,Ashford,South East,51.112164,0.862492,200,OK
53.163486,-3.053603,CH7 3BY,Flintshire,,53.163486,-3.053603,200,OK
52.469845,-2.103496,DY5 2DR,Dudley,West Midlands,52.469845,-2.103496,200,OK
54.191044,-2.913818,LA11 7HU,Westmorland and Furness,North West,54.191072,-2.913833,200,OK
53.991052,-1.07111,YO32 4BU,York,Yorkshire and The Humber,53.991597,-1.070701,200,OK
53.011973,-2.312894,ST5 6AA,Newcastle-under-Lyme,West Midlands,53.011973,-2.312894,200,OK
50.451033,-3.580698,TQ3 1AS,Torbay,South West,50.451033,-3.580698,200,OK
51.733643,-2.201196,GL5 2DE,Stroud,South West,51.73368,-2.201022,200,OK
52.103828,-2.319308,WR14 3PN,Malvern Hills,West Midlands,52.103801,-2.319381,200,OK
51.593858,-0.100555,N22 6SG,Haringey,London,51.593858,-0.100555,200,OK
51.483701,-0.199412,SW6 1LH,Hammersmith and Fulham,London,51.483701,-0.199412,200,OK
51.465554,-0.142884,SW4 0HW,Lambeth,London,51.465539,-0.142482,200,OK
51.661777,-3.136321,NP11 5FP,Caerphilly,,51.660993,-3.13565,200,OK
53.388394,-1.433114,S9 3HN,Sheffield,Yorkshire and The Humber,53.388145,-1.433673,200,OK
51.571192,-0.294565,HA9 8PB,Brent,London,51.571129,-0.294567,200,OK
51.417362,-0.958958,RG2 8TT,Reading,South East,51.417362,-0.958958,200,OK
51.582499,-3.251956,CF83 2UL,Caerphilly,,51.58249,-3.251955,200,OK
53.262038,-1.897869,SK17 7ER,High Peak,East Midlands,53.262038,-1.897869,200,OK
53.96551,-1.919209,BD23 6DX,North Yorkshire,Yorkshire and The Humber,53.96551,-1.919209,200,OK
55.786667,-4.067197,ML3 0PE,South Lanarkshire,,55.786667,-4.067197,200,OK
51.104558,-1.872594,,,,,,200,OK
50.895725,-1.388267,SO14 3GR,Southampton,South East,50.895725,-1.388267,200,OK
51.874508,0.865648,CO3 4RZ,Colchester,East of England,51.874508,0.865648,200,OK
53.499309,-2.220354,M40 7SE,Manchester,North West,53.499291,-2.220459,200,OK
53.802075,-3.046319,FY1 6JE,Blackpool,North West,53.802075,-3.046319,200,OK
55.852081,-4.079633,G69 7SQ,North Lanarkshire,,55.852081,-4.079633,200,OK
54.91019,-6.354054,BT43 5QL,Mid and East Antrim,,54.91019,-6.354054,200,OK
51.458162,-3.182396,CF11 7HU,Cardiff,,51.458207,-3.182378,200,OK
54.59412,-1.338084,TS20 1UB,Stockton-on-Tees,North East,54.594551,-1.338061,200,OK
52.511101,-0.702248,NN17 4AP,North Northamptonshire,East Midlands,52.511101,-0.702248,200,OK
51.751485,-1.295928,OX2 9LS,Vale of White Horse,South East,51.751577,-1.297053,200,OK
52.413095,-0.731208,NN16 9HW,North Northamptonshire,East Midlands,52.413095,-0.731208,200,OK
54.995789,-5.990146,BT44 0HD,Mid and East Antrim,,54.995789,-5.990146,200,OK
53.999471,-0.701999,YO42 1YR,East Riding of Yorkshire,Yorkshire and The Humber,53.999376,-0.701545,200,OK
51.568931,0.117887,RM6 4HL,Redbridge,London,51.568931,0.117887,200,OK
54.10468,-1.255161,,,,,,200,OK
52.992326,-2.224587,ST5 3ET,Newcastle-under-Lyme,West Midlands,52.992326,-2.224587,200,OK
51.607466,-3.034384,NP20 7SL,Newport,,51.607466,-3.034384,200,OK
57.322923,-2.002242,AB41 6FJ,Aberdeenshire,,57.322923,-2.002242,200,OK
51.498079,-0.232429,W6 0DX,Hammersmith and Fulham,London,51.498079,-0.232429,200,OK
54.689642,-1.250231,TS26 0PJ,Hartlepool,North East,54.689642,-1.250231,200,OK
53.351761,-2.645027,WA4 6SY,Halton,North West,53.351761,-2.645027,200,OK
52.750179,-1.215111,LE11 2QX,Charnwood,East Midlands,52.750179,-1.215111,200,OK
50.261237,-5.052956,TR1 2PY,Cornwall,South West,50.261088,-5.053143,200,OK
54.600467,-5.959178,BT13 2RR,Belfast,,54.60068,-5.959075,200,OK
52.536716,-1.93606,B43 5PN,Sandwell,West Midlands,52.536716,-1.93606,200,OK
52.123602,-0.465592,MK42 9NU,Bedford,East of England,52.123556,-0.465579,200,OK
51.886844,1.160607,CO16 0AT,Tendring,East of England,51.886856,1.160638,200,OK
51.279657,-0.247937,KT20 7SN,Reigate and Banstead,South East,51.279657,-0.247937,200,OK
51.531608,-2.478972,BS36 2EH,South Gloucestershire,South West,51.531581,-2.478914,200,OK
52.6938,-1.402554,LE67 6NR,North West Leicestershire,East Midlands,52.6938,-1.402554,200,OK
51.979272,0.629649,CO9 2RQ,Braintree,East of England,51.979272,0.629649,200,OK
53.432281,-1.395504,S61 2JB,Rotherham,Yorkshire and The Humber,53.432281,-1.395504,200,OK
53.452443,-2.901872,L11 4RD,Liverpool,North West,53.452443,-2.901872,200,OK
51.696334,-2.460034,GL13 9AU,Stroud,South West,51.696334,-2.460034,200,OK
53.814063,-1.621928,LS13 2QU,Leeds,Yorkshire and The Humber,53.814063,-1.621928,200,OK
52.555881,-1.918643,B43 7DN,Walsall,West Midlands,52.555881,-1.918643,200,OK
55.800384,-2.215317,TD11 3UR,Scottish Borders,,55.800384,-2.215317,200,OK
52.038805,-1.145503,NN13 6PE,West Northamptonshire,East Midlands,52.038805,-1.145503,200,OK
53.435674,-1.361738,S60 1RF,Rotherham,Yorkshire and The Humber,53.436037,-1.362216,200,OK
51.467339,-2.569008,BS5 0YD,"Bristol, City of",South West,51.467339,-2.569008,200,OK
52.702753,-1.971499,,,,,,200,OK
51.588495,-2.987257,NP19 0AX,Newport,,51.589022,-2.987644,200,OK
52.629865,1.300152,NR1 1LG,Norwich,East of England,52.629686,1.300707,200,OK
57.48691,-4.14734,IV2 7LP,Highland,,57.486692,-4.14691,200,OK
51.460656,-0.993816,RG30 1FD,Reading,South East,51.460089,-0.99457,200,OK
53.54851,-0.507279,DN20 9JS,North Lincolnshire,Yorkshire and The Humber,53.548304,-0.507331,200,OK
55.037897,-7.28941,,,,,,200,OK
51.042645,0.168748,TN6 3AW,Wealden,South East,51.042645,0.168748,200,OK
50.720451,-1.868517,BH1 2NN,"Bournemouth, Christchurch and Poole",South West,50.720451,-1.868517,200,OK
51.750914,-0.008144,EN11 8AQ,Broxbourne,East of England,51.750914,-0.008144,200,OK
50.555008,-3.489405,TQ14 8FR,Teignbridge,South West,50.555008,-3.489405,200,OK
52.29701,-0.802071,NN6 0AY,North Northamptonshire,East Midlands,52.29701,-0.802071,200,OK
53.764494,-2.702734,PR1 2SA,Preston,North West,53.764477,-2.702567,200,OK
51.380548,-2.366134,BA1 1BJ,Bath and North East Somerset,South West,51.380548,-2.366134,200,OK
53.344489,-1.436084,S14 1SY,Sheffield,Yorkshire and The Humber,53.344526,-1.436128,200,OK
53.591958,-2.2133,OL10 1PF,Rochdale,North West,53.591958,-2.2133,200,OK
51.540844,-3.267409,CF15 9TP,Cardiff,,51.540326,-3.267943,200,OK
51.472875,-0.123191,SW4 6SZ,Lambeth,London,51.472875,-0.123191,200,OK
51.581451,0.126655,RM6 5SJ,Redbridge,London,51.581451,0.126655,200,OK
51.439056,-0.011525,SE6 1EA,Lewisham,London,51.439056,-0.011525,200,OK
55.847316,-4.401867,PA1 3PH,Renfrewshire,,55.847316,-4.401867,200,OK
50.489905,-3.539758,TQ2 8HZ,Torbay,South West,50.489905,-3.539758,200,OK
50.822055,-0.140776,BN1 1HB,Brighton and Hove,South East,50.822154,-0.140729,200,OK
53.180774,-1.393777,S42 5UF,North East Derbyshire,East Midlands,53.180774,-1.393777,200,OK
53.195794,-2.652904,CW6 0JW,Cheshire West and Chester,North West,53.195794,-2.652904,200,OK
54.691621,-7.070228,BT79 7RU,Fermanagh and Omagh,,54.691621,-7.070228,200,OK
57.133844,-2.093009,AB11 8ET,Aberdeen City,,57.133657,-2.093132,200,OK
55.999241,-3.782004,FK1 1UJ,Falkirk,,55.999203,-3.782131,200,OK
53.141109,0.341263,PE25 3JE,East Lindsey,East Midlands,53.141068,0.341515,200,OK
53.440952,-2.213957,M14 6NQ,Manchester,North West,53.440952,-2.213957,200,OK
52.681427,-2.03636,WS11 0LD,Cannock Chase,West Midlands,52.681337,-2.036226,200,OK
53.549726,-3.066013,L37 6DY,Sefton,North West,53.549726,-3.066013,200,OK
51.608474,-3.099565,NP11 6PX,Caerphilly,,51.608474,-3.099565,200,OK
51.295864,-2.492032,BA3 2SN,Bath and North East Somerset,South West,51.295864,-2.492032,200,OK
55.906004,-3.138245,EH17 8FY,City of Edinburgh,,55.905855,-3.138386,200,OK
51.305157,-0.553283,GU22 9EB,Woking,South East,51.305157,-0.553283,200,OK
51.811748,-0.032214,SG12 9XF,East Hertfordshire,East of England,51.811748,-0.032214,200,OK
51.074785,-0.864116,GU33 6DG,East Hampshire,South East,51.074326,-0.864538,200,OK
52.513145,-3.317311,SY16 1EG,Powys,,52.512439,-3.317747,200,OK
53.536058,-1.112208,DN2 4BF,Doncaster,Yorkshire and The Humber,53.536058,-1.112208,200,OK
50.820841,-1.21494,PO14 2PF,Fareham,South East,50.820724,-1.214971,200,OK
51.417964,-0.7258,RG12 2RU,Bracknell Forest,South East,51.417964,-0.7258,200,OK
53.790416,-1.559288,LS12 1AF,Leeds,Yorkshire and The Humber,53.790416,-1.559288,200,OK
51.179091,-3.328894,TA23 0AT,Somerset,South West,51.179088,-3.328906,200,OK
52.626399,-0.239349,,,,,,200,OK
50.435587,-3.57068,TQ3 3EN,Torbay,South West,50.435577,-3.570765,200,OK
51.614382,-3.009483,NP20 6FP,Newport,,51.614115,-3.009159,200,OK
51.169833,0.532437,TN12 0JG,Maidstone,South East,51.169849,0.532096,200,OK
51.128659,0.899748,TN24 0SP,Ashford,South East,51.128659,0.899748,200,OK
51.607308,-0.11149,N22 8JH,Haringey,London,51.607308,-0.11149,200,OK
52.911349,-1.173182,NG11 8GE,Nottingham,East Midlands,52.911692,-1.17206,200,OK
51.180561,-3.322155,TA23 0UE,Somerset,South West,51.180561,-3.322155,200,OK
50.354778,-4.115079,PL9 9SB,Plymouth,South West,50.354778,-4.115079,200,OK
52.509347,-0.412296,PE8 6WH,North Northamptonshire,East Midlands,52.509347,-0.412296,200,OK
52.456696,-0.843234,LE16 8HB,North Northamptonshire,East Midlands,52.456788,-0.843468,200,OK
53.021993,-0.425296,NG34 8JL,North Kesteven,East Midlands,53.021993,-0.425296,200,OK
52.806748,-1.65432,DE14 2UD,East Staffordshire,West Midlands,52.80662,-1.653638,200,OK
51.984719,-2.276552,GL19 4PQ,Malvern Hills,West Midlands,51.984719,-2.276552,200,OK
51.325685,-0.395597,KT11 3AX,Elmbridge,South East,51.325685,-0.395597,200,OK
50.974199,-1.355755,SO50 9BG,Eastleigh,South East,50.974245,-1.355744,200,OK
55.772087,-4.190293,G74 4DJ,South Lanarkshire,,55.772087,-4.190293,200,OK
53.798127,-1.750073,BD1 4UG,Bradford,Yorkshire and The Humber,53.798127,-1.750073,200,OK
55.074569,-3.591884,DG1 3DY,Dumfries and Galloway,,55.074569,-3.591884,200,OK
51.860668,-2.228486,GL1 4BU,Gloucester,South West,51.860668,-2.228486,200,OK
51.432945,-0.135431,SW16 1JN,Lambeth,London,51.432782,-0.135337,200,OK
52.899518,-1.464933,DE24 8GD,Derby,East Midlands,52.899518,-1.464933,200,OK
50.846363,-1.066033,PO6 3EJ,Portsmouth,South East,50.846363,-1.066033,200,OK
51.505258,-0.080462,SE1 2JT,Southwark,London,51.505258,-0.080462,200,OK
53.580805,-0.228922,DN41 8DJ,North East Lincolnshire,Yorkshire and The Humber,53.580805,-0.228922,200,OK
51.369391,-0.271912,KT19 0LQ,Epsom and Ewell,South East,51.369391,-0.271912,200,OK
53.059478,-0.849428,NG24 3TE,Newark and Sherwood,East Midlands,53.059478,-0.849428,200,OK
54.011719,-0.436709,YO25 5EZ,East Riding of Yorkshire,Yorkshire and The Humber,54.011701,-0.436679,200,OK
53.752462,-1.693065,BD11 2HT,Kirklees,Yorkshire and The Humber,53.752462,-1.693065,200,OK
50.862334,0.253679,BN27 3DX,Wealden,South East,50.862995,0.253696,200,OK
51.488355,0.08985,SE18 1SB,Greenwich,London,51.488355,0.08985,200,OK
51.422023,0.355762,DA11 7HX,Gravesham,South East,51.422023,0.355762,200,OK
52.372389,-2.324964,DY12 2HB,Wyre Forest,West Midlands,52.372389,-2.324964,200,OK
55.777119,-3.894036,ML2 8RR,North Lanarkshire,,55.777119,-3.894036,200,OK
51.555875,-0.217105,NW2 6DR,Brent,London,51.555875,-0.217105,200,OK
52.706558,-2.748574,SY1 1XH,Shropshire,West Midlands,52.706558,-2.748574,200,OK
51.27197,0.519799,ME15 6NQ,Maidstone,South East,51.271951,0.519842,200,OK
53.778802,-1.543866,LS11 5PE,Leeds,Yorkshire and The Humber,53.778802,-1.543866,200,OK
53.781583,-1.597711,LS12 5NL,Leeds,Yorkshire and The Humber,53.781583,-1.597711,200,OK
52.617134,-1.372935,CV13 0AT,Hinckley and Bosworth,East Midlands,52.617134,-1.372935,200,OK
52.062082,-1.340009,OX16 0TB,Cherwell,South East,52.062093,-1.339993,200,OK
57.159389,-2.15844,AB16 5NQ,Aberdeen City,,57.159374,-2.158478,200,OK
52.692946,-2.733012,SY2 6FF,Shropshire,West Midlands,52.692946,-2.733012,200,OK
53.567997,-0.633438,DN16 2PG,North Lincolnshire,Yorkshire and The Humber,53.567923,-0.633305,200,OK
51.43285,0.348681,DA11 8BS,Gravesham,South East,51.43285,0.348681,200,OK
55.944402,-3.066599,EH21 6DL,East Lothian,,55.944402,-3.066599,200,OK
51.417631,-0.974074,RG2 0GG,Reading,South East,51.417631,-0.974074,200,OK
53.470398,-2.294309,M50 3BA,Salford,North West,53.470199,-2.294594,200,OK
54.898589,-1.380521,SR2 8HX,Sunderland,North East,54.898272,-1.380058,200,OK
56.588167,-3.333797,PH10 6EP,Perth and Kinross,,56.588167,-3.333797,200,OK
51.220837,-0.765258,GU10 1NX,Waverley,South East,51.220825,-0.765227,200,OK
54.581944,-5.909955,BT6 0BB,Belfast,,54.581944,-5.909955,200,OK
55.808619,-2.325729,TD11 3TG,Scottish Borders,,55.808619,-2.325729,200,OK
53.423603,-1.425573,S9 1PG,Sheffield,Yorkshire and The Humber,53.42363,-1.425588,200,OK
53.767996,-2.479109,BB1 9AF,Blackburn with Darwen,North West,53.767996,-2.479109,200,OK
51.924411,-3.617015,LD3 8AJ,Powys,,51.924411,-3.617015,200,OK
54.61755,-2.641037,CA10 3AL,Westmorland and Furness,North West,54.617085,-2.640472,200,OK
53.747743,-2.388153,BB5 0EP,Hyndburn,North West,53.747783,-2.388714,200,OK
55.003236,-1.607568,NE3 1YF,Newcastle upon Tyne,North East,55.00312,-1.607788,200,OK
51.511552,-3.281958,CF5 6HH,Cardiff,,51.511552,-3.281958,200,OK
53.577637,-2.363576,BL2 6QQ,Bury,North West,53.577653,-2.363453,200,OK
52.591814,-2.195872,WV6 7RZ,South Staffordshire,West Midlands,52.591814,-2.195872,200,OK
55.875879,-4.268363,G20 7JQ,Glasgow City,,55.875788,-4.267894,200,OK
54.567643,-1.235643,TS1 3LQ,Middlesbrough,North East,54.567643,-1.235643,200,OK
51.735907,-1.229223,OX4 3NS,Oxford,South East,51.735907,-1.229223,200,OK
51.409385,-0.061761,SE20 8TJ,Bromley,London,51.409203,-0.062142,200,OK
53.521751,-2.285917,M25 9NA,Bury,North West,53.52213,-2.285648,200,OK
51.627888,0.297563,CM15 9EL,Brentwood,East of England,51.627888,0.297563,200,OK
51.45959,-0.382471,TW4 5AH,Hounslow,London,51.45959,-0.382471,200,OK
51.548839,-0.168835,NW3 4AT,Camden,London,51.548839,-0.168835,200,OK
52.151928,0.092108,CB22 5GA,South Cambridgeshire,East of England,52.151928,0.092108,200,OK
53.581496,-1.524229,,,,,,200,OK
52.630572,1.218304,NR5 9HG,Norwich,East of England,52.630572,1.218304,200,OK
53.361733,-2.158278,SK7 2GA,Stockport,North West,53.361733,-2.158278,200,OK
54.249525,-1.060801,YO62 5AW,North Yorkshire,Yorkshire and The Humber,54.249534,-1.060786,200,OK
51.053537,-1.320685,SO23 9PU,Winchester,South East,51.053537,-1.320685,200,OK
51.629142,-0.751129,HP11 2AY,Buckinghamshire,South East,51.629142,-0.751129,200,OK
51.127238,-1.72757,SP4 0LU,Wiltshire,South West,51.127238,-1.72757,200,OK
52.227437,-2.732625,HR6 8NN,"Herefordshire, County of",West Midlands,52.227322,-2.732739,200,OK
51.728671,-3.371697,CF48 1PQ,Merthyr Tydfil,,51.728671,-3.371697,200,OK
51.456865,-2.576016,BS2 0EF,"Bristol, City of",South West,51.456865,-2.576016,200,OK
53.89116,-1.747903,LS29 6HF,Bradford,Yorkshire and The Humber,53.89116,-1.747903,200,OK
52.505165,-1.974758,B66 1AX,Sandwell,West Midlands,52.505156,-1.976172,200,OK
50.913915,-3.276502,EX15 3JA,Mid Devon,South West,50.913915,-3.276502,200,OK
57.442202,-2.790735,AB54 8AT,Aberdeenshire,,57.442202,-2.790735,200,OK
53.42745,-2.214656,M20 4TD,Manchester,North West,53.427441,-2.214671,200,OK
51.278764,-0.715901,GU12 5RA,Guildford,South East,51.278764,-0.715901,200,OK
53.430189,-2.272946,M21 7HR,Manchester,North West,53.430189,-2.272946,200,OK
53.41103,-2.983874,L3 2AB,Liverpool,North West,53.411094,-2.983891,200,OK
53.683904,-1.590859,WF5 8QS,Wakefield,Yorkshire and The Humber,53.683904,-1.590859,200,OK
53.789252,-2.355386,,,,,,200,OK
51.554125,-0.191497,NW3 7BA,Camden,London,51.554125,-0.191497,200,OK
52.705264,-2.008319,WS11 6TP,Cannock Chase,West Midlands,52.705264,-2.008319,200,OK
52.430976,-2.004618,B32 4JF,Birmingham,West Midlands,52.430976,-2.004618,200,OK
53.483971,-1.602851,S36 1JG,Sheffield,Yorkshire and The Humber,53.48397,-1.602852,200,OK
51.349259,0.087925,BR6 7LP,Bromley,London,51.349467,0.088337,200,OK
51.343924,-0.069219,CR2 8BG,Croydon,London,51.343924,-0.069219,200,OK
57.147594,-2.087432,AB11 5FE,Aberdeen City,,57.147421,-2.088019,200,OK
53.038647,0.014774,PE22 0SP,East Lindsey,East Midlands,53.038647,0.014774,200,OK
52.157851,-0.70522,MK46 5ES,Milton Keynes,South East,52.157851,-0.70522,200,OK
51.406645,-0.564897,GU25 4AY,Runnymede,South East,51.406645,-0.564897,200,OK
54.438879,-6.183087,BT25 1HX,"Armagh City, Banbridge and Craigavon",,54.438879,-6.183087,200,OK
54.62292,-1.273358,TS23 3LY,Stockton-on-Tees,North East,54.62292,-1.273358,200,OK
53.487856,-2.340638,M30 9HX,Salford,North West,53.487856,-2.340638,200,OK
52.53165,-1.232692,LE9 6PJ,Harborough,East Midlands,52.53165,-1.232692,200,OK
57.624402,-3.000851,,,,,,200,OK
53.37817,-3.022156,,,,,,200,OK
51.257904,-0.929858,RG29 1FR,Hart,South East,51.257904,-0.929858,200,OK
58.22285,-6.392777,HS1 2UJ,Na h-Eileanan Siar,,58.222841,-6.392776,200,OK
51.861741,-0.562574,LU6 2LA,Central Bedfordshire,East of England,51.861741,-0.562574,200,OK
53.617152,-1.624958,HD8 9RS,Kirklees,Yorkshire and The Humber,53.617152,-1.624958,200,OK
50.749487,-1.284147,PO32 6HG,Isle of Wight,South East,50.749487,-1.284147,200,OK
57.476508,-4.228961,IV3 5BL,Highland,,57.476566,-4.228715,200,OK
50.939089,-0.270805,BN5 9JY,Horsham,South East,50.939089,-0.270805,200,OK
52.763056,-1.948905,WS15 2RH,Cannock Chase,West Midlands,52.763056,-1.948905,200,OK
53.221529,-4.273661,LL60 6JW,Isle of Anglesey,,53.221707,-4.27424,200,OK
52.664948,-2.822564,SY5 8AR,Shropshire,West Midlands,52.664948,-2.822564,200,OK
55.943542,-3.107099,EH15 3BQ,City of Edinburgh,,55.943542,-3.107099,200,OK
52.427084,-1.869789,B13 0HJ,Birmingham,West Midlands,52.427084,-1.869789,200,OK
54.889651,-6.356622,BT42 1NE,Mid and East Antrim,,54.889651,-6.356622,200,OK
51.143357,-2.705709,BA6 8BJ,Somerset,South West,51.143357,-2.705709,200,OK
53.247127,-3.149415,CH6 5TU,Flintshire,,53.247127,-3.149415,200,OK
51.949825,-1.176295,OX27 8RY,Cherwell,South East,51.949834,-1.176339,200,OK
53.685413,-1.857621,HX4 8ET,Calderdale,Yorkshire and The Humber,53.685413,-1.857621,200,OK
51.5528,-0.296415,HA9 7BT,Brent,London,51.5528,-0.296415,200,OK
51.483366,0.316505,RM17 5EN,Thurrock,East of England,51.483366,0.316505,200,OK
54.590319,-6.210386,BT29 4NU,Lisburn and Castlereagh,,54.590319,-6.210386,200,OK
51.499444,-0.163234,SW1X 7XL,Kensington and Chelsea,London,51.499444,-0.163234,200,OK
51.97815,-4.26705,SA39 9HN,Carmarthenshire,,51.97815,-4.26705,200,OK
54.838,-4.045487,DG6 4EB,Dumfries and Galloway,,54.837954,-4.046104,200,OK
52.681923,-0.311411,PE6 8FT,South Kesteven,East Midlands,52.681923,-0.311411,200,OK
51.519608,-0.016537,E3 3LG,Tower Hamlets,London,51.519608,-0.016537,200,OK
51.825866,-4.944834,SA62 4DW,Pembrokeshire,,51.825866,-4.944834,200,OK
53.505857,-2.279538,M7 3RW,Salford,North West,53.505857,-2.279538,200,OK
51.53701,-0.488087,UB8 2FG,Hillingdon,London,51.53737,-0.488602,200,OK
55.854667,-4.162631,G32 0PJ,Glasgow City,,55.854667,-4.162631,200,OK
53.534601,-2.224508,M9 0SS,Manchester,North West,53.534601,-2.224508,200,OK
51.651151,-0.352113,WD23 3PG,Hertsmere,East of England,51.651151,-0.352113,200,OK
51.56849,-0.297546,HA9 8PY,Brent,London,51.56849,-0.297546,200,OK
55.907837,-4.340902,G61 1LY,East Dunbartonshire,,55.907837,-4.340902,200,OK
54.496565,-7.318592,BT78 2BG,Fermanagh and Omagh,,54.496565,-7.318592,200,OK
52.164723,-0.622062,MK43 8EA,Bedford,East of England,52.164723,-0.622062,200,OK
53.518697,-2.760073,WN8 9QS,West Lancashire,North West,53.518697,-2.760073,200,OK
51.570972,0.403908,SS15 6SG,Basildon,East of England,51.570972,0.403908,200,OK
57.538586,-2.461592,AB53 4RA,Aberdeenshire,,57.538586,-2.461592,200,OK
51.523345,-0.101613,EC1V 0EA,Islington,London,51.523426,-0.101512,200,OK
52.938442,-4.25508,LL52 0NB,Gwynedd,,52.938442,-4.25508,200,OK
53.333651,-1.131913,S81 7TB,Bassetlaw,East Midlands,53.333677,-1.131778,200,OK
56.075832,-3.438983,KY12 7RA,Fife,,56.075832,-3.438983,200,OK
55.958323,-3.197379,EH3 6QL,City of Edinburgh,,55.958432,-3.19727,200,OK
53.181661,-2.440614,CW10 0DG,Cheshire East,North West,53.181661,-2.440614,200,OK
52.677312,-2.374728,TF11 8FQ,Shropshire,West Midlands,52.677304,-2.374654,200,OK
51.105328,-0.167358,RH10 6QB,Crawley,South East,51.105044,-0.167041,200,OK
51.467853,-0.28863,TW9 2LL,Richmond upon Thames,London,51.467853,-0.28863,200,OK
51.477308,-0.099147,SE5 0LX,Southwark,London,51.477308,-0.099147,200,OK
52.961063,-1.0735,NG4 2HZ,Gedling,East Midlands,52.961063,-1.0735,200,OK
51.465577,-2.550012,BS5 7DL,"Bristol, City of",South West,51.465577,-2.550012,200,OK
54.993046,-7.311139,BT47 6DL,Derry City and Strabane,,54.992974,-7.311125,200,OK
53.394788,-2.657077,WA5 3ET,Warrington,North West,53.394788,-2.657077,200,OK
53.454662,-2.240876,M14 4UA,Manchester,North West,53.454662,-2.240876,200,OK
52.392467,-2.030095,B45 9EP,Bromsgrove,West Midlands,52.392467,-2.030095,200,OK
51.535742,-0.004401,E15 2LR,Newham,London,51.535742,-0.004401,200,OK
53.639032,-1.763337,HD5 8HX,Kirklees,Yorkshire and The Humber,53.639032,-1.763337,200,OK
53.239981,-2.110045,SK11 0EW,Cheshire East,North West,53.239981,-2.110045,200,OK
53.763391,-2.202139,BB10 4SW,Burnley,North West,53.763391,-2.202139,200,OK
50.931378,-0.391683,RH20 3JY,Horsham,South East,50.931378,-0.391683,200,OK
51.619604,-0.710247,HP13 7DL,Buckinghamshire,South East,51.619604,-0.710247,200,OK
55.182887,-1.565604,NE63 0BG,Northumberland,North East,55.182887,-1.565604,200,OK
51.055308,-1.325139,SO22 4AZ,Winchester,South East,51.055308,-1.325139,200,OK
51.493649,-0.15043,SW1W 9NZ,Westminster,London,51.493649,-0.15043,200,OK
53.283543,-3.049895,CH64 4DA,Cheshire West and Chester,North West,53.283572,-3.049701,200,OK
52.575054,-0.344858,PE5 7DJ,Peterborough,East of England,52.575054,-0.344858,200,OK
51.717411,-0.621412,HP5 2PT,Buckinghamshire,South East,51.716835,-0.620942,200,OK
51.637635,-2.157396,GL8 8DG,Cotswold,South West,51.637635,-2.157396,200,OK
52.373457,0.467147,IP28 8DQ,West Suffolk,East of England,52.373457,0.467147,200,OK
51.471307,-0.204493,SW6 3QF,Hammersmith and Fulham,London,51.471307,-0.204493,200,OK
55.099677,-6.389796,BT53 8PW,Causeway Coast and Glens,,55.099677,-6.389796,200,OK
51.423667,-0.758693,RG42 2BN,Bracknell Forest,South East,51.423667,-0.758693,200,OK
51.483163,-0.182611,SW10 0LA,Kensington and Chelsea,London,51.483163,-0.182611,200,OK
53.388694,-1.47927,S3 7ER,Sheffield,Yorkshire and The Humber,53.388694,-1.47927,200,OK
55.873645,-4.318285,G11 7PH,Glasgow City,,55.873645,-4.318285,200,OK
51.119131,-0.622575,GU8 4UT,Waverley,South East,51.119131,-0.622575,200,OK
54.423908,-2.976116,LA22 9LE,Westmorland and Furness,North West,54.423926,-2.976116,200,OK
51.091645,-1.7731,SP1 3PE,Wiltshire,South West,51.091645,-1.7731,200,OK
53.855697,-1.576629,LS16 8LN,Leeds,Yorkshire and The Humber,53.855697,-1.576629,200,OK
51.860355,-2.245328,GL1 1XR,Gloucester,South West,51.860355,-2.245328,200,OK
51.259844,-0.731523,GU12 5FA,Guildford,South East,51.260239,-0.731441,200,OK
55.184725,-1.585058,NE63 8QQ,Northumberland,North East,55.184725,-1.585058,200,OK
53.433778,-2.170241,SK4 5JU,Stockport,North West,53.433778,-2.170241,200,OK
54.649217,-7.565899,BT81 7RL,Derry City and Strabane,,54.649217,-7.565899,200,OK
51.347264,-0.797759,GU47 9BP,Bracknell Forest,South East,51.347264,-0.797759,200,OK
51.59856,-2.931832,NP19 9GP,Newport,,51.59856,-2.931832,200,OK
53.792174,-1.760124,BD1 2EP,Bradford,Yorkshire and The Humber,53.792973,-1.759649,200,OK
51.457258,-0.096598,SE24 9QR,Lambeth,London,51.457258,-0.096598,200,OK
54.986302,-1.435148,NE33 5PE,South Tyneside,North East,54.986302,-1.435148,200,OK
53.858065,-3.011515,FY6 7FH,Wyre,North West,53.858065,-3.011515,200,OK
55.963454,-2.969502,EH32 9FJ,East Lothian,,55.963454,-2.969502,200,OK
51.538198,-0.628649,SL2 2AS,Slough,South East,51.538198,-0.628649,200,OK
51.371473,0.539901,ME4 5DW,Medway,South East,51.371473,0.539901,200,OK
51.582627,-2.970913,NP19 0GB,Newport,,51.582591,-2.970913,200,OK
51.517506,-0.17744,W2 1HA,Westminster,London,51.517506,-0.17744,200,OK
54.449361,-6.701863,BT71 7SS,Mid Ulster,,54.449361,-6.701863,200,OK
54.540463,-1.167091,TS7 9EG,Redcar and Cleveland,North East,54.540463,-1.167091,200,OK
52.903381,-2.147605,ST15 8GG,Stafford,West Midlands,52.90346,-2.147662,200,OK
51.691528,-0.02784,EN8 7EN,Broxbourne,East of England,51.691528,-0.02784,200,OK
51.516252,-2.504377,BS36 1BD,South Gloucestershire,South West,51.516189,-2.504376,200,OK
50.920074,-1.454822,SO16 4BA,Southampton,South East,50.920074,-1.454822,200,OK
53.54735,-2.005121,OL3 6AB,Oldham,North West,53.54735,-2.005121,200,OK
51.520732,-0.149736,W1G 6NA,Westminster,London,51.520732,-0.149736,200,OK
53.056294,-3.378884,LL15 2NL,Denbighshire,,53.056294,-3.378884,200,OK
53.554065,-1.481122,S70 2ED,Barnsley,Yorkshire and The Humber,53.554065,-1.481122,200,OK
51.235839,-0.560105,GU1 3NQ,Guildford,South East,51.235839,-0.560105,200,OK
50.705103,-3.541642,EX2 9FE,Exeter,South West,50.705103,-3.541642,200,OK
52.382174,-2.248018,DY10 1JF,Wyre Forest,West Midlands,52.382174,-2.248018,200,OK
55.509274,-4.610511,KA9 2PL,South Ayrshire,,55.509274,-4.610511,200,OK
51.283755,-2.281915,BA11 6PA,Somerset,South West,51.283755,-2.281915,200,OK
51.603103,-2.516211,BS35 2DJ,South Gloucestershire,South West,51.603103,-2.516211,200,OK
53.368538,-2.256275,M22 0HF,Manchester,North West,53.368538,-2.256275,200,OK
51.351571,-0.670387,GU18 5TL,Surrey Heath,South East,51.351571,-0.670387,200,OK
52.334207,-2.062664,B61 8DJ,Bromsgrove,West Midlands,52.334194,-2.062717,200,OK
51.321191,-2.639737,BS40 6NQ,Bath and North East Somerset,South West,51.321191,-2.639737,200,OK
51.56084,-0.970351,RG9 4RH,South Oxfordshire,South East,51.56084,-0.970351,200,OK
51.490847,-0.108365,SE11 4NX,Lambeth,London,51.490847,-0.108365,200,OK
51.793105,1.130778,CO15 2BJ,Tendring,East of England,51.793105,1.130778,200,OK
50.716366,-1.883841,BH2 5EG,"Bournemouth, Christchurch and Poole",South West,50.716366,-1.883841,200,OK
51.796178,1.149399,CO15 3LR,Tendring,East of England,51.796178,1.149399,200,OK
52.604037,-2.13332,WV10 6JA,Wolverhampton,West Midlands,52.604037,-2.13332,200,OK
53.324706,-1.11618,S81 0LW,Bassetlaw,East Midlands,53.324706,-1.11618,200,OK
53.763344,-0.358989,HU5 2AA,"Kingston upon Hull, City of",Yorkshire and The Humber,53.763551,-0.359057,200,OK
55.963689,-3.151953,EH7 6HA,City of Edinburgh,,55.963689,-3.151953,200,OK
55.733788,-3.964151,ML9 2PW,South Lanarkshire,,55.733788,-3.964151,200,OK
50.726334,-3.06678,EX24 6AF,East Devon,South West,50.726317,-3.067467,200,OK
54.922489,-1.367547,SR6 0PF,Sunderland,North East,54.922489,-1.367547,200,OK
54.981041,-1.400581,NE34 6RQ,South Tyneside,North East,54.981041,-1.400581,200,OK
51.669561,-0.283882,WD6 4HN,Hertsmere,East of England,51.669561,-0.283882,200,OK
51.607468,-0.480101,UB9 6JX,Hillingdon,London,51.607468,-0.480101,200,OK
51.82122,-1.553254,OX29 9PP,West Oxfordshire,South East,51.82122,-1.553254,200,OK
53.525379,-2.276077,M25 0BE,Bury,North West,53.525379,-2.276077,200,OK
51.483134,-0.572392,SL3 9LB,Windsor and Maidenhead,South East,51.483134,-0.572392,200,OK
51.265434,-0.586013,GU2 9QX,Guildford,South East,51.265434,-0.586013,200,OK
51.509931,-0.145101,W1J 6EG,Westminster,London,51.509931,-0.145101,200,OK
51.555477,0.165663,RM10 7AS,Barking and Dagenham,London,51.555477,0.165663,200,OK
54.343579,-7.634061,BT74 6AQ,Fermanagh and Omagh,,54.343579,-7.634061,200,OK
51.469559,-0.126081,SW9 9AP,Lambeth,London,51.469533,-0.126111,200,OK
53.962757,-1.548492,HG3 1NB,North Yorkshire,Yorkshire and The Humber,53.962757,-1.548492,200,OK
52.492442,-1.273642,LE17 5DZ,Harborough,East Midlands,52.49236,-1.273511,200,OK
52.289116,-0.014851,CB24 4RB,South Cambridgeshire,East of England,52.289116,-0.014851,200,OK
54.55926,-1.260619,TS5 4LY,Middlesbrough,North East,54.55926,-1.260619,200,OK
53.632914,-2.312997,BL9 5QW,Bury,North West,53.632179,-2.312145,200,OK
53.475077,-1.303126,S64 5ST,Rotherham,Yorkshire and The Humber,53.474533,-1.303858,200,OK
56.416609,-3.482055,PH1 3WB,Perth and Kinross,,56.416609,-3.482055,200,OK
53.26945,-4.622863,LL65 2AJ,Isle of Anglesey,,53.26945,-4.622863,200,OK
51.607582,-1.802817,SN25 2ST,Swindon,South West,51.607582,-1.802817,200,OK
51.744624,-0.234512,AL10 9QJ,Welwyn Hatfield,East of England,51.744629,-0.234518,200,OK
51.459246,-2.579718,BS2 9AE,"Bristol, City of",South West,51.459283,-2.579661,200,OK
57.360829,-2.084442,AB41 9RX,Aberdeenshire,,57.360829,-2.084442,200,OK
50.74354,-1.881322,BH9 2PL,"Bournemouth, Christchurch and Poole",South West,50.74354,-1.881322,200,OK
51.78973,0.628901,CM8 1FF,Braintree,East of England,51.78973,0.628901,200,OK
56.333234,-3.636269,PH3 1HL,Perth and Kinross,,56.332386,-3.636524,200,OK
51.522996,-0.159836,NW1 6AH,Westminster,London,51.522949,-0.159751,200,OK
57.344525,-2.612744,AB52 6LD,Aberdeenshire,,57.344373,-2.612708,200,OK
52.744727,-2.363888,TF10 9AU,Telford and Wrekin,West Midlands,52.744727,-2.363888,200,OK
53.564654,-2.888133,L39 4RR,West Lancashire,North West,53.564654,-2.888133,200,OK
51.5143,-0.10676,EC4A 2BJ,City of London,London,51.5143,-0.10676,200,OK
53.543156,-0.168227,DN37 7BH,North East Lincolnshire,Yorkshire and The Humber,53.542955,-0.168352,200,OK
53.463695,-2.217656,M13 9GS,Manchester,North West,53.463695,-2.217656,200,OK
53.272449,-2.454442,CW9 7YN,Cheshire West and Chester,North West,53.272422,-2.454441,200,OK
53.372934,-3.184967,CH48 0QH,Wirral,North West,53.372934,-3.184967,200,OK
50.679577,-1.142964,PO36 0DU,Isle of Wight,South East,50.679477,-1.142853,200,OK
51.275965,-1.071572,RG24 8SH,Basingstoke and Deane,South East,51.275685,-1.071363,200,OK
57.152994,-2.094693,AB24 5AH,Aberdeen City,,57.152969,-2.0947,200,OK
51.504403,-0.098078,SE1 0HT,Southwark,London,51.50435,-0.09759,200,OK
51.54704,-0.11987,N7 9PW,Islington,London,51.54704,-0.11987,200,OK
51.738021,0.464505,CM1 2WW,Chelmsford,East of England,51.738005,0.464403,200,OK
53.518284,-2.401028,M28 7DU,Salford,North West,53.518284,-2.401028,200,OK
51.10023,0.288184,TN3 9BG,Wealden,South East,51.10023,0.288184,200,OK
53.362021,-2.926949,L17 6EX,Liverpool,North West,53.362021,-2.926949,200,OK
57.12053,-2.133238,AB10 7DQ,Aberdeen City,,57.12053,-2.133238,200,OK
51.493962,-0.149164,SW1W 9QU,Westminster,London,51.494,-0.149195,200,OK
53.045873,-3.06823,LL11 3TS,Wrexham,,53.045873,-3.06823,200,OK
51.354034,-2.988325,BS23 2AB,North Somerset,South West,51.354034,-2.988325,200,OK
53.023407,-1.337602,NG16 4GR,Amber Valley,East Midlands,53.023407,-1.337602,200,OK
53.457152,-3.00643,L20 4AD,Sefton,North West,53.457152,-3.00643,200,OK
50.714247,-2.00652,BH15 4BU,"Bournemouth, Christchurch and Poole",South West,50.714247,-2.00652,200,OK
52.240839,0.737421,IP32 7DG,West Suffolk,East of England,52.240839,0.737421,200,OK
53.455664,-2.279825,M16 0YG,Trafford,North West,53.455664,-2.279825,200,OK
54.968807,-1.870463,NE42 6BJ,Northumberland,North East,54.968807,-1.870463,200,OK
54.698958,-6.598477,BT45 7SG,Mid Ulster,,54.698958,-6.598477,200,OK
53.427003,-2.963158,L5 6AB,Liverpool,North West,53.427003,-2.963158,200,OK
51.480068,-2.533252,BS16 2DU,"Bristol, City of",South West,51.480068,-2.533252,200,OK
53.800364,-1.514132,LS9 7QW,Leeds,Yorkshire and The Humber,53.800364,-1.514132,200,OK
51.139014,0.900754,TN24 0JZ,Ashford,South East,51.139014,0.900754,200,OK
50.790413,-1.084485,PO5 1LT,Portsmouth,South East,50.79043,-1.084598,200,OK
52.891059,1.088177,NR25 6SR,North Norfolk,East of England,52.891059,1.088177,200,OK
51.992736,-0.21829,SG6 1AS,North Hertfordshire,East of England,51.992736,-0.21829,200,OK
55.812812,-3.839518,ML7 4JY,North Lanarkshire,,55.812812,-3.839518,200,OK
53.754833,-0.257876,HU9 5LJ,"Kingston upon Hull, City of",Yorkshire and The Humber,53.754833,-0.257876,200,OK
53.195213,-2.504727,CW7 3GY,Cheshire West and Chester,North West,53.195539,-2.504342,200,OK
52.686951,-1.978788,WS12 3HZ,Cannock Chase,West Midlands,52.686951,-1.978788,200,OK
53.446068,-2.308023,M32 8AE,Trafford,North West,53.446155,-2.308641,200,OK
53.778602,-1.085701,YO8 4JE,North Yorkshire,Yorkshire and The Humber,53.778602,-1.085701,200,OK
53.367141,-3.059194,CH43 3DW,Wirral,North West,53.367365,-3.058193,200,OK
51.910675,-1.153053,OX26 3XP,Cherwell,South East,51.910675,-1.153053,200,OK
54.59575,-5.816139,BT16 1RB,Lisburn and Castlereagh,,54.595517,-5.816167,200,OK
53.427245,-2.850801,L36 3XD,Knowsley,North West,53.427245,-2.850801,200,OK
50.825537,-1.382777,SO45 2JN,New Forest,South East,50.825564,-1.382762,200,OK
54.788566,-1.33454,SR8 3LA,County Durham,North East,54.78863,-1.334631,200,OK
51.496881,-0.012683,E14 3LT,Tower Hamlets,London,51.496881,-0.012683,200,OK
52.313445,-0.592554,NN10 8JF,North Northamptonshire,East Midlands,52.313445,-0.592554,200,OK
53.347926,-3.081625,CH61 1AR,Wirral,North West,53.347971,-3.081612,200,OK
51.505656,-2.577424,BS34 7RN,South Gloucestershire,South West,51.505656,-2.577424,200,OK
53.363028,-1.302325,S26 2GU,Rotherham,Yorkshire and The Humber,53.363028,-1.302325,200,OK
53.547642,-2.119445,OL1 2HR,Oldham,North West,53.547641,-2.120502,200,OK
53.328156,-1.040238,DN22 8JA,Bassetlaw,East Midlands,53.328156,-1.040238,200,OK
53.468253,-1.4753,S35 3JA,Sheffield,Yorkshire and The Humber,53.46828,-1.475299,200,OK
54.646268,-6.522137,BT80 0JA,Mid Ulster,,54.645863,-6.521346,200,OK
51.99385,-1.479883,OX15 5SD,Cherwell,South East,51.99385,-1.479883,200,OK
52.69942,-1.079641,LE7 1HP,Charnwood,East Midlands,52.699921,-1.079378,200,OK
52.543932,1.503016,NR14 6BT,South Norfolk,East of England,52.543932,1.503016,200,OK
55.887058,-4.210663,G21 3LD,Glasgow City,,55.887058,-4.210663,200,OK
53.542068,-2.109181,OL1 1SE,Oldham,North West,53.542068,-2.109181,200,OK
51.938712,1.283738,CO12 3BG,Tendring,East of England,51.938712,1.283738,200,OK
51.518249,-0.151321,W1U 4LZ,Westminster,London,51.518249,-0.151321,200,OK
51.297091,0.651637,ME9 7RZ,Maidstone,South East,51.297091,0.651637,200,OK
56.630159,-2.930363,DD8 1TG,Angus,,56.630159,-2.930363,200,OK
52.416096,-1.856141,B28 0TD,Birmingham,West Midlands,52.416096,-1.856141,200,OK
51.891542,0.561209,CM7 9RU,Braintree,East of England,51.891532,0.561252,200,OK
50.78593,-1.085069,PO5 2DR,Portsmouth,South East,50.78593,-1.085069,200,OK
53.503685,-2.51407,WN7 1PT,Wigan,North West,53.504071,-2.514119,200,OK
54.534717,-1.553959,DL3 6TG,Darlington,North East,54.534717,-1.553959,200,OK
52.927538,-0.61476,NG31 9SJ,South Kesteven,East Midlands,52.927538,-0.61476,200,OK
53.796061,-1.825046,BD15 7WP,Bradford,Yorkshire and The Humber,53.796061,-1.825046,200,OK
55.168303,-1.694421,NE61 1QR,Northumberland,North East,55.168303,-1.694421,200,OK
52.093607,-0.264271,SG18 0BU,Central Bedfordshire,East of England,52.093616,-0.264086,200,OK
51.486715,-0.18489,SW10 9NN,Kensington and Chelsea,London,51.486872,-0.184596,200,OK
57.514229,-1.817443,AB42 3FL,Aberdeenshire,,57.514229,-1.817443,200,OK
51.443477,-0.110827,SW2 3QF,Lambeth,London,51.443477,-0.110827,200,OK
52.986214,-2.456288,CW3 0DG,Cheshire East,North West,52.986214,-2.456288,200,OK
55.173218,-6.7221,BT55 7QF,Causeway Coast and Glens,,55.173218,-6.7221,200,OK
53.120802,-1.351677,DE55 5JG,Bolsover,East Midlands,53.120802,-1.351677,200,OK
53.795741,-1.746441,BD1 5BE,Bradford,Yorkshire and The Humber,53.795507,-1.746366,200,OK
52.066345,-2.746556,HR4 0SA,"Herefordshire, County of",West Midlands,52.066345,-2.746556,200,OK
51.369366,0.512916,ME1 2RD,Medway,South East,51.369366,0.512916,200,OK
52.688989,-1.944345,WS7 1ZU,Lichfield,West Midlands,52.688971,-1.944331,200,OK
51.197867,0.062563,TN8 5FA,Sevenoaks,South East,51.197867,0.062563,200,OK
51.153108,0.272637,TN4 9DG,Tunbridge Wells,South East,51.153108,0.272637,200,OK
53.760814,-0.356084,HU5 2QX,"Kingston upon Hull, City of",Yorkshire and The Humber,53.760814,-0.356084,200,OK
50.698358,-1.308685,PO30 5RD,Isle of Wight,South East,50.698358,-1.308685,200,OK
51.311384,0.887221,ME13 8QJ,Swale,South East,51.311384,0.887221,200,OK
55.976268,-4.560483,G83 9BU,West Dunbartonshire,,55.976268,-4.560483,200,OK
53.492163,-2.243724,M3 1EZ,Manchester,North West,53.491537,-2.243256,200,OK
50.551405,-3.608121,TQ12 3FQ,Teignbridge,South West,50.551405,-3.608121,200,OK
53.473376,-2.066988,SK16 5GZ,Tameside,North West,53.473376,-2.066988,200,OK
52.03621,-2.73187,HR2 7EQ,"Herefordshire, County of",West Midlands,52.03621,-2.73187,200,OK
54.084434,-0.214882,YO16 4TX,East Riding of Yorkshire,Yorkshire and The Humber,54.084434,-0.214882,200,OK
53.516545,-1.308178,S63 8FQ,Barnsley,Yorkshire and The Humber,53.516545,-1.308178,200,OK
51.381654,1.424523,CT10 3ED,Thanet,South East,51.381645,1.424508,200,OK
53.881308,-3.04314,FY5 1EZ,Wyre,North West,53.881308,-3.04314,200,OK
51.127494,1.312098,CT16 1BW,Dover,South East,51.127494,1.312098,200,OK
51.569187,0.478451,SS14 1NR,Basildon,East of England,51.569187,0.478451,200,OK
51.643671,-1.165638,OX10 7HH,South Oxfordshire,South East,51.643671,-1.165638,200,OK
51.366553,-2.374384,BA2 2EU,Bath and North East Somerset,South West,51.366553,-2.374384,200,OK
51.004314,-3.132279,TA1 5QU,Somerset,South West,51.004314,-3.132279,200,OK
53.218009,-0.598773,LN6 0JG,Lincoln,East Midlands,53.218009,-0.598773,200,OK
51.168589,1.33722,CT15 5JQ,Dover,South East,51.168589,1.33722,200,OK
53.760682,-2.354432,BB5 6HD,Hyndburn,North West,53.760682,-2.354432,200,OK
52.624035,1.433331,NR13 5XE,Broadland,East of England,52.624081,1.433592,200,OK
54.901633,-1.514289,NE38 7AL,Sunderland,North East,54.901633,-1.514289,200,OK
51.403241,-0.488706,TW18 1ST,Spelthorne,South East,51.403241,-0.488706,200,OK
51.520087,-0.135117,W1T 2HP,Camden,London,51.520087,-0.135117,200,OK
52.374931,-0.810922,NN14 1FG,North Northamptonshire,East Midlands,52.374931,-0.810922,200,OK
51.367335,-2.954495,BS22 9XT,North Somerset,South West,51.367335,-2.954495,200,OK
53.927838,-2.911326,PR3 6DB,Wyre,North West,53.927838,-2.911326,200,OK
50.790188,-3.659604,EX17 3AP,Mid Devon,South West,50.790188,-3.659604,200,OK
53.601383,-2.547745,BL6 7AS,Bolton,North West,53.601383,-2.547745,200,OK
55.811434,-4.325357,G46 8HA,Glasgow City,,55.811434,-4.325357,200,OK
50.926035,-1.360575,SO18 2AE,Southampton,South East,50.926035,-1.360575,200,OK
50.810124,-0.789232,PO20 7PP,Chichester,South East,50.810124,-0.789232,200,OK
51.507462,-0.236288,W12 0JA,Hammersmith and Fulham,London,51.507484,-0.236532,200,OK
50.711294,-3.352304,EX5 2DH,East Devon,South West,50.711294,-3.352304,200,OK
50.132573,-5.566764,TR20 8SJ,Cornwall,South West,50.132573,-5.566764,200,OK
51.762407,-0.222385,AL10 8UD,Welwyn Hatfield,East of England,51.762403,-0.222289,200,OK
50.769252,-1.646887,BH25 5PU,New Forest,South East,50.769252,-1.646887,200,OK
51.311478,0.037423,TN16 3LE,Bromley,London,51.3117,0.036557,200,OK
51.877651,-0.414484,LU1 3AA,Luton,East of England,51.877651,-0.414484,200,OK
53.333435,-2.25722,SK9 5NP,Cheshire East,North West,53.333435,-2.25722,200,OK
51.801665,-4.966378,SA61 1TP,Pembrokeshire,,51.801665,-4.966378,200,OK
53.754687,-2.48745,BB1 7EX,Blackburn with Darwen,North West,53.754687,-2.48745,200,OK
55.997056,-3.890655,FK4 2BN,Falkirk,,55.997056,-3.890655,200,OK
53.100026,-2.470291,CW2 7SH,Cheshire East,North West,53.100026,-2.470291,200,OK
52.552236,-1.891277,B44 9DH,Birmingham,West Midlands,52.552219,-1.892324,200,OK
55.923224,-3.175173,EH9 3FJ,City of Edinburgh,,55.923618,-3.176225,200,OK
51.421515,-0.056228,SE26 5HS,Bromley,London,51.421515,-0.056228,200,OK
53.73913,-1.534911,LS10 4UH,Leeds,Yorkshire and The Humber,53.73913,-1.534911,200,OK
51.464749,-3.158468,CF10 4RF,Cardiff,,51.464758,-3.158506,200,OK
52.306348,-0.783279,NN6 0BW,North Northamptonshire,East Midlands,52.306137,-0.78321,200,OK
51.725696,-2.265967,GL10 3PS,Stroud,South West,51.725696,-2.265967,200,OK
53.547737,-1.148412,DN5 0DX,Doncaster,Yorkshire and The Humber,53.547737,-1.148412,200,OK
51.406994,-1.368672,RG20 8LU,West Berkshire,South East,51.406994,-1.368672,200,OK
51.360074,-0.815049,,,,,,200,OK
53.398773,-2.702242,WA8 3UY,St. Helens,North West,53.398773,-2.702272,200,OK
52.57133,-2.127245,WV2 3AW,Wolverhampton,West Midlands,52.57133,-2.127245,200,OK
52.618054,1.303799,NR1 2AS,Norwich,East of England,52.618054,1.303799,200,OK
53.20619,-2.928807,CH1 5AY,Cheshire West and Chester,North West,53.20619,-2.928807,200,OK
54.977988,-1.715571,NE15 8DU,Newcastle upon Tyne,North East,54.977988,-1.715571,200,OK
50.852701,-0.557784,BN18 9NY,Arun,South East,50.852701,-0.557784,200,OK
52.315788,-2.596627,WR15 8RD,Shropshire,West Midlands,52.315929,-2.597084,200,OK
51.802315,-0.602797,HP23 5RR,Dacorum,East of England,51.802277,-0.602673,200,OK
52.064635,-0.083689,SG8 0RG,South Cambridgeshire,East of England,52.064635,-0.083689,200,OK
51.618113,-3.955883,SA1 4JR,Swansea,,51.61813,-3.955941,200,OK
52.575804,-1.833655,B74 2SE,Birmingham,West Midlands,52.575804,-1.833655,200,OK
53.632007,-2.976654,PR8 6HU,Sefton,North West,53.632007,-2.976654,200,OK
51.382106,-0.834038,RG40 3LS,Wokingham,South East,51.382106,-0.834038,200,OK
51.647768,-3.137286,NP11 4AA,Caerphilly,,51.647768,-3.137286,200,OK
54.236885,-0.520321,YO13 9BP,North Yorkshire,Yorkshire and The Humber,54.236885,-0.520321,200,OK
53.526955,-0.619613,DN17 3RQ,North Lincolnshire,Yorkshire and The Humber,53.526955,-0.619613,200,OK
53.796225,-2.257618,BB12 0TW,Burnley,North West,53.796225,-2.257618,200,OK
50.387376,-3.953155,PL21 9GB,South Hams,South West,50.387376,-3.953155,200,OK
55.728277,-3.437328,,,,,,200,OK
52.339924,-0.167064,PE29 1PD,Huntingdonshire,East of England,52.339924,-0.167079,200,OK
50.630869,-3.326339,EX9 6LU,East Devon,South West,50.630869,-3.326339,200,OK
51.496304,-2.54377,BS16 1WG,South Gloucestershire,South West,51.496304,-2.54377,200,OK
53.452734,-2.335673,M32 9PH,Trafford,North West,53.452734,-2.335673,200,OK
51.046507,-0.383904,RH13 0NT,Horsham,South East,51.046433,-0.383425,200,OK
51.780141,-3.75424,SA9 1HR,Powys,,51.780141,-3.75424,200,OK
51.274541,0.515681,,,,,,200,OK
54.994448,-1.718112,NE5 1EJ,Newcastle upon Tyne,North East,54.994448,-1.718112,200,OK
54.377852,-1.728384,DL9 3HR,North Yorkshire,Yorkshire and The Humber,54.377852,-1.728384,200,OK
52.636047,-1.124474,LE1 1TG,Leicester,East Midlands,52.636047,-1.124474,200,OK
51.166563,-1.766612,SP4 7XH,Wiltshire,South West,51.166563,-1.766612,200,OK
51.660647,-3.852435,SA10 6RG,Neath Port Talbot,,51.660647,-3.852435,200,OK
53.743106,-2.398633,BB5 3JS,Hyndburn,North West,53.743106,-2.398633,200,OK
52.614979,-2.114892,WV10 9HX,Wolverhampton,West Midlands,52.614979,-2.114892,200,OK
52.528155,-2.105467,DY1 3QE,Dudley,West Midlands,52.528155,-2.105467,200,OK
53.418274,-2.233177,M20 6TJ,Manchester,North West,53.418066,-2.233567,200,OK
51.53294,-3.250725,CF15 7JP,Cardiff,,51.532922,-3.250792,200,OK
55.815246,-4.24156,G44 5HL,Glasgow City,,55.815246,-4.24156,200,OK
53.845925,-0.415008,HU17 0HX,East Riding of Yorkshire,Yorkshire and The Humber,53.845925,-0.415008,200,OK
52.066941,-0.744119,MK14 5JL,Milton Keynes,South East,52.066941,-0.744119,200,OK
53.389812,-2.261094,M22 8JZ,Manchester,North West,53.389812,-2.261109,200,OK
51.001508,-2.684924,BA22 8NY,Somerset,South West,51.001508,-2.684924,200,OK
52.910846,-1.041574,NG12 3AU,Rushcliffe,East Midlands,52.910846,-1.041574,200,OK
51.335021,1.163175,CT3 4LD,Canterbury,South East,51.335021,1.163175,200,OK
51.380984,1.40123,CT9 3QD,Thanet,South East,51.380984,1.40123,200,OK
51.559861,0.555581,SS7 5QQ,Castle Point,East of England,51.559861,0.555581,200,OK
57.562154,-4.570351,IV14 9EB,Highland,,57.562154,-4.570351,200,OK
52.257759,-0.939633,NN5 7FD,West Northamptonshire,East Midlands,52.257759,-0.939633,200,OK
52.681481,0.133603,PE13 5AS,Fenland,East of England,52.681481,0.133603,200,OK
54.291811,-0.414842,YO12 6BA,North Yorkshire,Yorkshire and The Humber,54.291718,-0.414569,200,OK
52.725112,-1.037581,LE7 4YE,Charnwood,East Midlands,52.725111,-1.037536,200,OK
52.68278,-0.742949,LE15 7TE,Rutland,East Midlands,52.68278,-0.742949,200,OK
51.266877,-0.867671,GU51 5BZ,Hart,South East,51.266877,-0.867671,200,OK
51.524194,-0.316251,W5 1DA,Ealing,London,51.524194,-0.316251,200,OK
51.349338,0.733672,ME10 2QQ,Swale,South East,51.349338,0.733672,200,OK
51.555457,-2.568722,BS32 4DU,South Gloucestershire,South West,51.555457,-2.568722,200,OK
51.20222,-0.607258,GU7 3SR,Waverley,South East,51.202116,-0.606804,200,OK
50.78485,-0.982072,PO11 9AN,Havant,South East,50.784856,-0.981703,200,OK
53.984971,-1.150669,YO26 6JQ,York,Yorkshire and The Humber,53.985042,-1.150645,200,OK
57.075557,-2.12882,AB12 4WT,Aberdeenshire,,57.075557,-2.12882,200,OK
55.830754,-4.40265,PA2 7PH,Renfrewshire,,55.830754,-4.40265,200,OK
51.081946,-4.061002,EX31 1UL,North Devon,South West,51.082012,-4.060685,200,OK
51.081589,-1.801087,SP1 3JL,Wiltshire,South West,51.081589,-1.801087,200,OK
51.598456,-0.035325,E17 5QX,Waltham Forest,London,51.598456,-0.035325,200,OK
51.488795,-3.170903,CF24 3DB,Cardiff,,51.488863,-3.1704,200,OK
55.899435,-4.104945,G69 9EE,North Lanarkshire,,55.899435,-4.104945,200,OK
54.778424,-1.536287,DH1 2YN,County Durham,North East,54.7784,-1.537092,200,OK
50.624222,-2.505187,DT3 4PL,Dorset,South West,50.62423,-2.505142,200,OK
51.644692,-0.410623,WD18 6JD,Watford,East of England,51.644683,-0.410623,200,OK
51.55409,-1.802469,SN5 8WD,Swindon,South West,51.55409,-1.802469,200,OK
53.382509,-3.095402,CH49 0TY,Wirral,North West,53.382509,-3.095402,200,OK
54.589528,-5.900685,BT6 9BA,Belfast,,54.589528,-5.900685,200,OK
52.445269,-1.845931,B11 3EL,Birmingham,West Midlands,52.445269,-1.845931,200,OK
50.853195,-1.171663,PO16 0DB,Fareham,South East,50.853195,-1.171663,200,OK
51.481076,0.273627,RM20 3AX,Thurrock,East of England,51.48122,0.272726,200,OK
53.342753,-2.982557,CH62 3LF,Wirral,North West,53.342753,-2.982557,200,OK
51.029194,-0.386734,RH13 0SU,Horsham,South East,51.029184,-0.38662,200,OK
51.4044,-2.595627,BS13 0EY,"Bristol, City of",South West,51.4044,-2.595627,200,OK
51.553322,-0.344198,UB6 0UJ,Ealing,London,51.553322,-0.344198,200,OK
53.727819,-0.41376,,,,,,200,OK
52.087411,-1.895866,WR11 7EU,Wychavon,West Midlands,52.087449,-1.895652,200,OK
