lat,lon,postcode,admin_district,region,latitude,longitude,estado_api,descripcion_estado
55.955711,-2.784806,EH41 3NU,East Lothian,,55.955711,-2.784806,200,OK
52.14832,-1.208342,NN11 3PP,West Northamptonshire,East Midlands,52.14832,-1.208342,200,OK
54.866482,-7.115096,BT47 4AT,Derry City and Strabane,,54.866482,-7.115096,200,OK
54.722405,-7.473647,BT78 4LT,Derry City and Strabane,,54.722605,-7.474094,200,OK
51.459493,-2.609128,BS8 1PD,"Bristol, City of",South West,51.459061,-2.609165,200,OK
52.157034,1.597756,IP15 5LZ,East Suffolk,East of England,52.157034,1.597756,200,OK
57.627832,-2.625462,AB45 3AX,Aberdeenshire,,57.627832,-2.625462,200,OK
52.591742,-1.886618,B74 3LD,Walsall,West Midlands,52.591742,-1.886618,200,OK
52.879595,-3.060779,SY10 7DD,Shropshire,West Midlands,52.879595,-3.060779,200,OK
54.593363,-5.906817,BT6 8AB,Belfast,,54.593363,-5.906817,200,OK
53.51409,-2.435838,M29 8PG,Wigan,North West,53.51409,-2.435838,200,OK
55.863179,-4.184471,G33 2PB,Glasgow City,,55.863179,-4.184471,200,OK
55.943469,-3.209442,EH3 8DJ,City of Edinburgh,,55.943469,-3.209442,200,OK
51.92331,-4.7339,,,,,,200,OK
53.800963,-0.360299,HU7 3FR,"Kingston upon Hull, City of",Yorkshire and The Humber,53.800963,-0.360299,200,OK
57.190563,-2.113983,AB22 8TP,Aberdeen City,,57.190796,-2.114199,200,OK
52.620624,1.309328,NR1 1GB,Norwich,East of England,52.620624,1.309328,200,OK
51.232462,-0.059736,,,,,,200,OK
53.653216,-2.625214,PR6 6HT,Chorley,North West,53.653216,-2.625214,200,OK
55.850118,-4.000737,ML5 4SW,North Lanarkshire,,55.849864,-4.0009,200,OK
51.599281,-1.125029,OX10 0EB,South Oxfordshire,South East,51.599155,-1.12506,200,OK
50.812549,-0.373354,BN11 1QE,Worthing,South East,50.812549,-0.373354,200,OK
55.893151,-4.204628,G21 3QA,Glasgow City,,55.893151,-4.204628,200,OK
53.294587,-1.635799,S32 2HB,Derbyshire Dales,East Midlands,53.294587,-1.635799,200,OK
51.563673,0.058575,IG1 3EG,Redbridge,London,51.563673,0.058575,200,OK
53.624151,-2.210121,OL11 5FE,Rochdale,North West,53.624169,-2.20997,200,OK
50.55214,-4.733704,PL30 3NG,Cornwall,South West,50.55214,-4.733704,200,OK
51.890802,0.893313,CO3 3DD,Colchester,East of England,51.890802,0.893313,200,OK
51.791701,-2.264076,,,,,,200,OK
51.430055,-2.776485,BS48 4XS,North Somerset,South West,51.430055,-2.776485,200,OK
54.90553,-1.536747,NE37 1RR,Sunderland,North East,54.90553,-1.536747,200,OK
51.438726,0.133098,DA5 3JX,Bexley,London,51.438726,0.133098,200,OK
52.041179,-1.859014,WR12 7EY,Wychavon,West Midlands,52.041179,-1.859014,200,OK
52.188549,-2.203645,WR5 1TQ,Worcester,West Midlands,52.188562,-2.203231,200,OK
51.625754,-2.364929,GL12 8SQ,Stroud,South West,51.625754,-2.364929,200,OK
52.456293,1.564862,NR34 9TB,East Suffolk,East of England,52.456293,1.564862,200,OK
51.911538,-0.198691,SG1 3PJ,Stevenage,East of England,51.911681,-0.199224,200,OK
52.192714,0.996828,IP14 1HX,Mid Suffolk,East of England,52.192714,0.996828,200,OK
51.887408,-0.15025,SG2 7EF,East Hertfordshire,East of England,51.886755,-0.149409,200,OK
51.062549,-1.319369,SO23 8HS,Winchester,South East,51.062549,-1.319369,200,OK
51.684432,-4.939459,SA72 6QZ,Pembrokeshire,,51.684664,-4.940029,200,OK
55.87993,-4.385829,PA4 8QA,Renfrewshire,,55.87993,-4.385829,200,OK
53.828981,-1.459627,LS14 1FB,Leeds,Yorkshire and The Humber,53.828981,-1.459627,200,OK
50.72234,-1.840576,BH5 1JS,"Bournemouth, Christchurch and Poole",South West,50.72234,-1.840576,200,OK
51.205573,-2.19717,BA12 7RN,Wiltshire,South West,51.205573,-2.19717,200,OK
51.354921,-2.957253,BS22 8BQ,North Somerset,South West,51.354921,-2.957253,200,OK
50.792952,-0.002265,BN10 8JT,Lewes,South East,50.792952,-0.002265,200,OK
51.406017,0.50358,ME2 4QL,Medway,South East,51.406017,0.50358,200,OK
51.146664,0.28719,TN2 3TT,Tunbridge Wells,South East,51.146664,0.28719,200,OK
51.346807,-0.223565,SM2 7NH,Epsom and Ewell,South East,51.346807,-0.223565,200,OK
52.042863,-2.434032,HR8 2UR,"Herefordshire, County of",West Midlands,52.042863,-2.434032,200,OK
51.62862,-0.396462,WD19 7DG,Three Rivers,East of England,51.62862,-0.396462,200,OK
52.092629,-2.118987,WR8 9AD,Wychavon,West Midlands,52.092629,-2.118987,200,OK
60.143534,-1.172873,ZE1 0SX,Shetland Islands,,60.143534,-1.172873,200,OK
54.60262,-5.942541,BT13 2HJ,Belfast,,54.60262,-5.942541,200,OK
53.417191,-2.764806,L35 0LB,St. Helens,North West,53.417191,-2.764806,200,OK
52.934368,-3.053935,LL14 5RE,Wrexham,,52.934368,-3.053935,200,OK
53.617814,-2.135577,OL16 2YA,Rochdale,North West,53.617814,-2.135577,200,OK
51.464377,-0.33072,TW7 7DS,Hounslow,London,51.464377,-0.33072,200,OK
50.907777,-3.484466,EX16 6AR,Mid Devon,South West,50.907777,-3.484466,200,OK
57.563267,-2.742863,AB54 7LQ,Moray,,57.563278,-2.742915,200,OK
51.461662,0.375555,RM18 8EF,Thurrock,East of England,51.461662,0.375555,200,OK
51.368836,-2.142365,SN12 6UY,Wiltshire,South West,51.368836,-2.142365,200,OK
51.234449,-0.578784,GU2 4HR,Guildford,South East,51.234457,-0.578755,200,OK
52.280251,0.122617,CB24 8UH,South Cambridgeshire,East of England,52.280653,0.123237,200,OK
53.035989,-2.192081,ST6 3JB,Stoke-on-Trent,West Midlands,53.035989,-2.192081,200,OK
54.332452,-2.753063,LA9 4QP,Westmorland and Furness,North West,54.332452,-2.753063,200,OK
50.069653,-5.278679,TR12 7PX,Cornwall,South West,50.069653,-5.278679,200,OK
51.52339,-0.139221,W1T 5HH,Camden,London,51.52339,-0.139221,200,OK
54.820574,-1.371224,SR7 9LU,County Durham,North East,54.820808,-1.371267,200,OK
52.575357,-1.548368,CV9 1BT,North Warwickshire,West Midlands,52.575357,-1.548368,200,OK
52.611257,-1.19472,LE19 1UZ,Blaby,East Midlands,52.612011,-1.194573,200,OK
51.365883,0.096712,BR6 9HS,Bromley,London,51.366129,0.096508,200,OK
51.253535,-0.569569,GU1 1QY,Guildford,South East,51.253346,-0.570305,200,OK
55.911372,-4.092711,G69 0BY,North Lanarkshire,,55.911372,-4.092711,200,OK
52.618827,-1.491985,CV13 6LR,Hinckley and Bosworth,East Midlands,52.619343,-1.492703,200,OK
52.425403,-0.893157,LE16 8NP,West Northamptonshire,East Midlands,52.425403,-0.893157,200,OK
53.943331,-1.107539,YO24 1EG,York,Yorkshire and The Humber,53.943331,-1.107539,200,OK
51.918959,0.914512,CO4 9FU,Colchester,East of England,51.918959,0.914512,200,OK
55.818209,-3.937118,ML1 5TB,North Lanarkshire,,55.818209,-3.937118,200,OK
57.125374,-2.131537,AB10 7JW,Aberdeen City,,57.12542,-2.130926,200,OK
50.963421,-0.073758,RH17 7RH,Lewes,South East,50.963421,-0.073758,200,OK
51.060167,-0.132837,RH17 6NY,Mid Sussex,South East,51.060145,-0.132782,200,OK
50.887075,-0.329759,BN44 3NJ,Horsham,South East,50.887256,-0.32988,200,OK
52.184712,-0.878621,NN4 5BX,West Northamptonshire,East Midlands,52.184712,-0.878621,200,OK
53.549666,-2.126741,OL1 2NR,Oldham,North West,53.549711,-2.12653,200,OK
52.602358,-1.98624,WS2 7AA,Walsall,West Midlands,52.602491,-1.986855,200,OK
56.513431,-2.68669,DD7 6JQ,Angus,,56.513431,-2.68669,200,OK
53.983934,-1.556208,HG2 0BD,North Yorkshire,Yorkshire and The Humber,53.983771,-1.555904,200,OK
53.718923,-2.76715,PR4 4SL,South Ribble,North West,53.718923,-2.76715,200,OK
52.213237,-0.296205,PE19 8TT,Huntingdonshire,East of England,52.212739,-0.29569,200,OK
51.407596,-0.432114,TW17 8RJ,Spelthorne,South East,51.407596,-0.432114,200,OK
52.299491,-2.22766,DY13 9TB,Wychavon,West Midlands,52.299491,-2.22766,200,OK
51.246172,-1.475605,SP11 6JY,Test Valley,South East,51.246172,-1.475605,200,OK
51.505752,-0.09867,SE1 0FD,Southwark,London,51.505938,-0.097913,200,OK
53.445676,-2.756691,WA10 3UZ,St. Helens,North West,53.445676,-2.756691,200,OK
51.490974,0.030305,SE7 7EG,Greenwich,London,51.490974,0.030305,200,OK
53.379049,-1.417033,S9 4GL,Sheffield,Yorkshire and The Humber,53.379049,-1.417033,200,OK
53.375865,-2.468832,WA13 0BG,Warrington,North West,53.375845,-2.468891,200,OK
53.745898,-0.866042,DN14 7BJ,East Riding of Yorkshire,Yorkshire and The Humber,53.745898,-0.866042,200,OK
52.575741,-0.240952,PE1 1RT,Peterborough,East of England,52.575849,-0.24086,200,OK
51.174244,-2.223013,,,,,,200,OK
50.752171,-1.308427,PO31 7US,Isle of Wight,South East,50.752177,-1.308246,200,OK
51.40903,-0.411029,TW16 6HJ,Spelthorne,South East,51.40903,-0.411029,200,OK
53.394344,-2.23443,SK8 4DF,Stockport,North West,53.394776,-2.233936,200,OK
52.326003,-1.873607,B98 9EA,Bromsgrove,West Midlands,52.326003,-1.873607,200,OK
53.697621,-1.630896,WF13 2EJ,Kirklees,Yorkshire and The Humber,53.697621,-1.630896,200,OK
53.367252,-1.490832,S11 8YZ,Sheffield,Yorkshire and The Humber,53.367234,-1.490862,200,OK
51.72683,-3.556223,,,,,,200,OK
51.509731,-0.02861,E14 8AF,Tower Hamlets,London,51.509731,-0.02861,200,OK
52.037255,-4.469053,SA38 9AW,Carmarthenshire,,52.037126,-4.469162,200,OK
52.421427,-1.496623,CV6 5DJ,Coventry,West Midlands,52.421427,-1.496623,200,OK
54.652553,-1.191568,TS25 2DW,Hartlepool,North East,54.652553,-1.191568,200,OK
51.409618,-1.335883,RG14 1UA,West Berkshire,South East,51.409618,-1.335883,200,OK
52.56522,1.559709,NR13 3JF,Broadland,East of England,52.56522,1.559709,200,OK
51.722752,0.461444,CM2 9AQ,Chelmsford,East of England,51.722752,0.461444,200,OK
53.416971,-1.058883,DN11 8AA,Bassetlaw,East Midlands,53.416323,-1.059696,200,OK
53.350513,-2.997458,CH62 4UP,Wirral,North West,53.350515,-2.997202,200,OK
54.081759,-0.194695,YO15 3BL,East Riding of Yorkshire,Yorkshire and The Humber,54.08204,-0.194836,200,OK
53.767109,-1.902643,HX2 8XR,Calderdale,Yorkshire and The Humber,53.767109,-1.902643,200,OK
51.847364,1.269601,CO14 8EE,Tendring,East of England,51.847443,1.269984,200,OK
52.730086,-1.342158,LE67 5QD,North West Leicestershire,East Midlands,52.730086,-1.342158,200,OK
54.040379,-0.331342,YO25 4QU,East Riding of Yorkshire,Yorkshire and The Humber,54.040379,-0.331342,200,OK
50.810297,0.270266,BN22 0XH,Wealden,South East,50.810298,0.270252,200,OK
52.00586,0.988708,IP7 5LS,Babergh,East of England,52.00586,0.988708,200,OK
50.800729,-3.611444,EX17 1AS,Mid Devon,South West,50.800729,-3.611444,200,OK
54.850964,-7.415537,BT82 0EW,Derry City and Strabane,,54.850964,-7.415537,200,OK
53.359351,0.009058,LN11 8XA,East Lindsey,East Midlands,53.359003,0.009974,200,OK
50.660495,-3.766536,TQ13 8NE,Teignbridge,South West,50.660495,-3.766536,200,OK
54.583864,-5.931266,BT7 1LP,Belfast,,54.583864,-5.931266,200,OK
51.518657,-0.354421,UB6 9AT,Ealing,London,51.518657,-0.354421,200,OK
53.753513,-0.308788,HU9 2JP,"Kingston upon Hull, City of",Yorkshire and The Humber,53.753513,-0.308788,200,OK
53.550852,-0.488075,DN20 8BF,North Lincolnshire,Yorkshire and The Humber,53.550981,-0.489274,200,OK
55.897664,-4.219283,G64 1RQ,East Dunbartonshire,,55.897664,-4.219283,200,OK
53.37672,-3.020318,CH42 5PG,Wirral,North West,53.37672,-3.020318,200,OK
54.526759,-1.195229,TS7 8NA,Middlesbrough,North East,54.526759,-1.195229,200,OK
52.03672,-1.726164,GL55 6XN,Cotswold,South West,52.03672,-1.726164,200,OK
52.797898,-2.186475,ST18 9PA,Stafford,West Midlands,52.797898,-2.186475,200,OK
51.356996,-1.138067,RG26 3PX,Basingstoke and Deane,South East,51.357259,-1.137038,200,OK
51.599933,-0.016736,E17 5AQ,Waltham Forest,London,51.599823,-0.016526,200,OK
51.523763,-0.176757,W2 1ND,Westminster,London,51.523763,-0.176757,200,OK
53.923901,-1.965337,BD20 9HJ,Bradford,Yorkshire and The Humber,53.923901,-1.965337,200,OK
50.89139,-1.381239,SO19 9FL,Southampton,South East,50.89139,-1.381239,200,OK
51.611085,0.686901,SS4 3JF,Rochford,East of England,51.611085,0.686901,200,OK
55.843772,-4.190203,G31 4SF,Glasgow City,,55.843772,-4.190203,200,OK
51.510061,-0.718214,SL6 1JE,Windsor and Maidenhead,South East,51.510061,-0.718214,200,OK
53.42723,-3.065474,CH45 3JX,Wirral,North West,53.426921,-3.065947,200,OK
51.368899,-0.822593,RG45 6BB,Wokingham,South East,51.368656,-0.822557,200,OK
56.488164,-2.919158,DD4 0FD,Dundee City,,56.488164,-2.919158,200,OK
54.55791,-1.299502,TS17 6AQ,Stockton-on-Tees,North East,54.558214,-1.300253,200,OK
55.45298,-4.265371,KA18 1DW,East Ayrshire,,55.453002,-4.265295,200,OK
52.559995,-1.901775,B43 7US,Walsall,West Midlands,52.559995,-1.901775,200,OK
50.866708,-1.046442,PO7 5RS,Havant,South East,50.867325,-1.045947,200,OK
52.304215,-1.080537,NN6 7RX,West Northamptonshire,East Midlands,52.304242,-1.080624,200,OK
50.938408,-1.203838,SO32 2LP,Winchester,South East,50.938437,-1.202926,200,OK
55.151649,-1.654758,,,,,,200,OK
50.799982,-1.985886,BH21 1LJ,Dorset,South West,50.799982,-1.985886,200,OK
51.501707,-0.206627,W14 8EL,Kensington and Chelsea,London,51.501707,-0.206627,200,OK
51.544968,0.32119,RM14 3RD,Havering,London,51.544968,0.32119,200,OK
51.612234,-1.224271,OX11 7ST,South Oxfordshire,South East,51.612234,-1.224271,200,OK
51.609197,-0.280252,HA8 6LG,Harrow,London,51.609197,-0.280252,200,OK
52.333141,1.043516,IP22 1QG,Mid Suffolk,East of England,52.333141,1.043516,200,OK
51.701707,0.243323,CM5 9DS,Epping Forest,East of England,51.701707,0.243323,200,OK
51.512131,-0.231049,W12 7QN,Hammersmith and Fulham,London,51.512131,-0.231049,200,OK
52.64897,-1.217494,LE3 8DX,Blaby,East Midlands,52.649403,-1.216377,200,OK
51.404508,-2.49071,BS31 1RB,Bath and North East Somerset,South West,51.404508,-2.49071,200,OK
53.165084,-2.211414,CW12 1DG,Cheshire East,North West,53.165084,-2.211414,200,OK
54.812633,-1.44557,DH5 0HZ,Sunderland,North East,54.812633,-1.44557,200,OK
53.763161,-2.706232,PR1 7BE,Preston,North West,53.763161,-2.706232,200,OK
50.717602,-1.157821,PO33 1BH,Isle of Wight,South East,50.717602,-1.157821,200,OK
51.593429,-3.052731,NP10 9AR,Newport,,51.593429,-3.052731,200,OK
54.463791,-6.338251,BT66 6HN,"Armagh City, Banbridge and Craigavon",,54.463791,-6.338251,200,OK
52.457605,1.72588,NR33 7JW,East Suffolk,East of England,52.457605,1.72588,200,OK
52.637266,-2.481817,TF7 5UH,Telford and Wrekin,West Midlands,52.637266,-2.481817,200,OK
51.883355,0.911509,CO1 2EG,Colchester,East of England,51.883355,0.911509,200,OK
53.511179,-2.192582,M40 9JA,Manchester,North West,53.511179,-2.192597,200,OK
53.22274,-0.551584,LN6 7AN,Lincoln,East Midlands,53.223101,-0.552471,200,OK
52.290906,-1.946632,B97 5DD,Redditch,West Midlands,52.290906,-1.946632,200,OK
51.371963,0.615711,ME8 7PP,Medway,South East,51.371963,0.615711,200,OK
57.498124,-4.116456,IV2 7GX,Highland,,57.498145,-4.116307,200,OK
51.550634,-0.046099,E9 6SR,Hackney,London,51.550634,-0.046099,200,OK
51.519761,-0.148017,W1G 8PE,Westminster,London,51.519761,-0.148017,200,OK
54.853404,-1.832766,DH8 5AS,County Durham,North East,54.853404,-1.832766,200,OK
54.4004,-5.868486,BT24 8XT,"Newry, Mourne and Down",,54.4004,-5.868486,200,OK
53.403146,-2.15589,SK1 3QQ,Stockport,North West,53.403146,-2.15589,200,OK
54.568388,-1.185841,TS3 9DY,Middlesbrough,North East,54.568388,-1.185841,200,OK
51.356159,-1.943785,SN10 3LE,Wiltshire,South West,51.356159,-1.943785,200,OK
53.715236,-0.875665,DN14 6RU,East Riding of Yorkshire,Yorkshire and The Humber,53.714839,-0.875479,200,OK
50.715026,-2.428075,DT1 1AB,Dorset,South West,50.715026,-2.428075,200,OK
53.407377,-2.255712,M22 4WD,Manchester,North West,53.407377,-2.255712,200,OK
53.758086,-2.68705,PR1 4JB,Preston,North West,53.758329,-2.686993,200,OK
51.280887,0.543705,ME14 5RS,Maidstone,South East,51.281182,0.542961,200,OK
55.803125,-4.002426,ML1 3UA,North Lanarkshire,,55.803125,-4.002426,200,OK
51.501015,-0.179812,SW7 5EZ,Westminster,London,51.501015,-0.179812,200,OK
52.873336,-1.494642,DE24 3DJ,South Derbyshire,East Midlands,52.873336,-1.494642,200,OK
53.59419,-1.860993,HD9 5LF,Kirklees,Yorkshire and The Humber,53.59419,-1.860993,200,OK
53.411439,-3.050004,CH44 5SQ,Wirral,North West,53.411439,-3.050004,200,OK
53.05048,-3.88417,LL25 0WA,Conwy,,53.05045,-3.884188,200,OK
54.328769,-2.74697,LA9 4LT,Westmorland and Furness,North West,54.329093,-2.746991,200,OK
50.79888,-1.075976,PO1 5EH,Portsmouth,South East,50.79888,-1.075976,200,OK
51.844065,0.712896,CO5 9RA,Braintree,East of England,51.844065,0.712896,200,OK
51.518641,-0.148167,W1G 8GH,Westminster,London,51.518641,-0.148167,200,OK
53.665887,-1.821197,HD3 3BE,Kirklees,Yorkshire and The Humber,53.665887,-1.821197,200,OK
52.630138,-2.189764,WV8 1SP,South Staffordshire,West Midlands,52.630138,-2.189764,200,OK
50.907724,-1.496184,SO40 9ET,New Forest,South East,50.907544,-1.496214,200,OK
50.934902,-2.651697,BA20 2YB,Somerset,South West,50.934902,-2.651697,200,OK
53.388731,-2.912478,L18 1LG,Liverpool,North West,53.388731,-2.912478,200,OK
51.98984,-1.702901,GL56 0BA,Cotswold,South West,51.98984,-1.702901,200,OK
51.850591,-2.222686,GL4 4SP,Gloucester,South West,51.850591,-2.222686,200,OK
52.017093,-0.054958,SG8 9QB,North Hertfordshire,East of England,52.017093,-0.054958,200,OK
51.702563,0.489465,CM2 8NN,Chelmsford,East of England,51.702563,0.489465,200,OK
51.176107,-0.156198,RH6 9UB,Reigate and Banstead,South East,51.176107,-0.156198,200,OK
51.498745,-0.024561,E14 8SP,Tower Hamlets,London,51.498745,-0.024561,200,OK
55.210588,-4.768684,KA26 0TU,South Ayrshire,,55.210588,-4.768684,200,OK
51.85255,-1.359686,OX20 1YQ,West Oxfordshire,South East,51.852505,-1.359803,200,OK
51.988973,1.214503,IP9 1EE,Babergh,East of England,51.988967,1.21475,200,OK
57.134079,-2.162081,AB15 8DF,Aberdeen City,,57.134079,-2.162081,200,OK
51.094082,0.179338,TN3 9PH,Wealden,South East,51.094082,0.179338,200,OK
51.394062,-3.290226,CF62 6RN,Vale of Glamorgan,,51.393973,-3.290123,200,OK
51.557452,-0.129507,N7 0PT,Islington,London,51.557452,-0.129507,200,OK
50.713735,-3.501825,EX2 6NB,Exeter,South West,50.713735,-3.501825,200,OK
55.940145,-4.7678,PA15 4JY,Inverclyde,,55.940147,-4.768198,200,OK
52.909133,-0.639393,NG31 6EY,South Kesteven,East Midlands,52.909292,-0.639135,200,OK
52.752716,-1.391392,LE67 8HF,North West Leicestershire,East Midlands,52.752716,-1.391392,200,OK
51.678315,-0.384366,WD24 7AA,Watford,East of England,51.678292,-0.3843,200,OK
54.257136,-0.994881,YO62 7TN,North Yorkshire,Yorkshire and The Humber,54.257136,-0.994881,200,OK
53.748315,-0.327196,HU9 1BY,"Kingston upon Hull, City of",Yorkshire and The Humber,53.748315,-0.327196,200,OK
52.647321,1.295331,NR3 3LP,Norwich,East of England,52.647321,1.295331,200,OK
51.364178,-0.091855,CR2 7YB,Croydon,London,51.364178,-0.091855,200,OK
51.449095,-0.93101,RG6 1HD,Wokingham,South East,51.449095,-0.93101,200,OK
55.823624,-4.274261,G42 9UJ,Glasgow City,,55.823624,-4.274261,200,OK
53.822652,-1.730343,BD2 2JL,Bradford,Yorkshire and The Humber,53.822652,-1.730343,200,OK
53.953457,-1.144071,YO26 5BQ,York,Yorkshire and The Humber,53.953475,-1.144048,200,OK
51.480224,-0.197274,SW6 1BJ,Hammersmith and Fulham,London,51.480223,-0.19712,200,OK
53.505888,-2.945209,L31 7ER,Sefton,North West,53.505888,-2.945209,200,OK
52.51654,-1.975361,B70 6TL,Sandwell,West Midlands,52.51654,-1.975361,200,OK
53.34089,-1.365572,S20 6SQ,Sheffield,Yorkshire and The Humber,53.340918,-1.365541,200,OK
51.443176,-2.47006,BS30 8TR,South Gloucestershire,South West,51.443176,-2.47006,200,OK
55.890444,-3.653164,EH48 2RW,West Lothian,,55.890444,-3.653164,200,OK
54.695255,-5.917317,BT37 0LQ,Antrim and Newtownabbey,,54.695255,-5.917317,200,OK
52.211066,-2.174692,WR4 0ER,Worcester,West Midlands,52.211066,-2.174692,200,OK
52.392917,-0.53136,NN14 4XF,North Northamptonshire,East Midlands,52.392917,-0.53136,200,OK
50.935706,-3.201827,EX15 3TH,Mid Devon,South West,50.935706,-3.201827,200,OK
51.498587,-0.545747,SL3 8NL,Slough,South East,51.498587,-0.545747,200,OK
53.777943,-1.754545,BD5 8BB,Bradford,Yorkshire and The Humber,53.777943,-1.754545,200,OK
53.586699,-2.301689,BL9 0TR,Bury,North West,53.586699,-2.301689,200,OK
53.40599,-2.303461,M23 9EP,Manchester,North West,53.40599,-2.303461,200,OK
52.563661,-0.126339,PE7 1UW,Fenland,East of England,52.563661,-0.126339,200,OK
51.799791,0.053359,SG12 8PL,East Hertfordshire,East of England,51.799791,0.053359,200,OK
54.975998,-1.654781,NE4 9QA,Newcastle upon Tyne,North East,54.975998,-1.654781,200,OK
51.380713,-2.359583,BA1 1NH,Bath and North East Somerset,South West,51.380722,-2.359468,200,OK
54.679524,-5.952732,BT36 6JR,Antrim and Newtownabbey,,54.679524,-5.952732,200,OK
50.83787,-0.153682,BN1 5AS,Brighton and Hove,South East,50.83787,-0.153682,200,OK
53.487649,-2.915279,L31 1GA,Sefton,North West,53.487649,-2.915279,200,OK
53.547228,-2.633252,WN1 1JF,Wigan,North West,53.547157,-2.63316,200,OK
54.92141,-1.393729,SR5 1SA,Sunderland,North East,54.92141,-1.393729,200,OK
51.646923,-0.41199,WD18 6SF,Watford,East of England,51.646923,-0.41199,200,OK
55.836877,-4.508488,PA5 5AX,Renfrewshire,,55.836877,-4.508488,200,OK
51.4445,-2.700195,BS8 3TU,North Somerset,South West,51.4445,-2.700195,200,OK
53.747661,-0.307507,HU9 1NU,"Kingston upon Hull, City of",Yorkshire and The Humber,53.747661,-0.307507,200,OK
54.928115,-3.817775,DG5 4EJ,Dumfries and Galloway,,54.928115,-3.817775,200,OK
51.991847,0.832321,CO6 4UL,Babergh,East of England,51.991847,0.832321,200,OK
53.745635,-0.376118,HU3 6NL,"Kingston upon Hull, City of",Yorkshire and The Humber,53.745635,-0.376118,200,OK
51.529992,0.580294,SS8 9UD,Castle Point,East of England,51.529992,0.580294,200,OK
53.621551,-0.482507,DN20 0PL,North Lincolnshire,Yorkshire and The Humber,53.621551,-0.482507,200,OK
51.550095,0.691412,SS0 9EN,Southend-on-Sea,East of England,51.550431,0.691287,200,OK
51.121634,1.296013,CT17 9QJ,Dover,South East,51.121461,1.296361,200,OK
56.675117,-3.003149,DD8 4DP,Angus,,56.675117,-3.003149,200,OK
53.100883,-2.476126,CW2 8SN,Cheshire East,North West,53.100883,-2.476126,200,OK
51.23109,-0.765428,GU9 9NF,Waverley,South East,51.23109,-0.765428,200,OK
52.953076,-1.228948,NG8 2FU,Nottingham,East Midlands,52.952972,-1.228161,200,OK
52.794599,-1.615027,DE15 9DQ,East Staffordshire,West Midlands,52.794599,-1.615027,200,OK
53.783002,-2.862188,PR4 2YU,Fylde,North West,53.783071,-2.862216,200,OK
53.513067,-2.362206,M28 8AA,Salford,North West,53.513067,-2.362206,200,OK
50.917748,-1.42718,SO15 3HW,Southampton,South East,50.917811,-1.42727,200,OK
52.573822,-1.175013,LE8 6JU,Blaby,East Midlands,52.57384,-1.175146,200,OK
52.903377,-2.350572,ST21 6NR,Stafford,West Midlands,52.903377,-2.350572,200,OK
51.588348,-3.004575,NP20 4PR,Newport,,51.588381,-3.004937,200,OK
53.691219,-1.644093,WF13 2QZ,Kirklees,Yorkshire and The Humber,53.691263,-1.643699,200,OK
51.130465,0.279087,TN2 4UP,Tunbridge Wells,South East,51.130465,0.279087,200,OK
53.329523,-3.080079,CH60 2SU,Wirral,North West,53.329523,-3.080079,200,OK
57.447716,-2.785289,AB54 8AA,Aberdeenshire,,57.447724,-2.785406,200,OK
52.713759,-2.505589,TF1 6GZ,Telford and Wrekin,West Midlands,52.713759,-2.505589,200,OK
53.916799,-2.935589,PR3 6SD,Wyre,North West,53.916799,-2.935589,200,OK
50.931935,-1.591154,SO40 2NT,New Forest,South East,50.931935,-1.591154,200,OK
57.174696,-2.117093,AB24 2YQ,Aberdeen City,,57.174696,-2.117093,200,OK
51.669836,-0.575171,HP7 9PE,Buckinghamshire,South East,51.669836,-0.575171,200,OK
51.217562,-1.464275,SP10 5HB,Test Valley,South East,51.217562,-1.464275,200,OK
54.93549,-1.388179,SR6 8LE,Sunderland,North East,54.93549,-1.388179,200,OK
52.665081,1.588679,NR29 3BQ,Great Yarmouth,East of England,52.665081,1.588679,200,OK
53.404677,-0.763395,DN21 1EQ,West Lindsey,East Midlands,53.404595,-0.762934,200,OK
51.487882,-0.143403,SW1V 4EB,Westminster,London,51.487882,-0.143403,200,OK
51.463929,0.184548,DA1 4SB,Bexley,London,51.463741,0.185,200,OK
50.895906,0.054242,BN8 5JY,Lewes,South East,50.895906,0.054242,200,OK
53.8044,-1.642073,LS13 4PE,Leeds,Yorkshire and The Humber,53.8044,-1.642073,200,OK
50.500343,-3.826468,TQ11 0HU,South Hams,South West,50.500258,-3.825577,200,OK
51.508268,-2.075266,SN15 4UZ,Wiltshire,South West,51.507971,-2.07552,200,OK
51.343949,0.591368,ME8 9TW,Medway,South East,51.343949,0.591368,200,OK
51.342297,-0.139256,CR8 3NE,Croydon,London,51.34253,-0.139264,200,OK
57.550527,-2.829792,AB55 6SL,Moray,,57.550527,-2.829792,200,OK
53.258257,-1.402396,S43 1JT,Chesterfield,East Midlands,53.258257,-1.402396,200,OK
51.604513,-0.27048,HA8 0AH,Barnet,London,51.604506,-0.270471,200,OK
50.227892,-5.221318,TR15 2HX,Cornwall,South West,50.227892,-5.221318,200,OK
53.934076,-1.99753,BD20 9EQ,North Yorkshire,Yorkshire and The Humber,53.934031,-1.997469,200,OK
51.758647,0.071981,CM19 5PE,Harlow,East of England,51.758647,0.071981,200,OK
52.566621,1.711343,NR31 7EZ,Great Yarmouth,East of England,52.566621,1.711343,200,OK
51.425806,0.796084,ME12 2DJ,Swale,South East,51.425806,0.796084,200,OK
51.448814,-2.479026,BS30 8DB,South Gloucestershire,South West,51.448778,-2.47904,200,OK
51.55662,-1.783937,SN1 3PG,Swindon,South West,51.556621,-1.783767,200,OK
50.813346,0.350636,BN24 6AE,Wealden,South East,50.813346,0.350636,200,OK
52.407506,-0.721474,NN16 9SE,North Northamptonshire,East Midlands,52.407506,-0.721474,200,OK
52.844748,-4.113183,LL46 2SE,Gwynedd,,52.844748,-4.113183,200,OK
51.356657,-0.022263,CR0 9EZ,Croydon,London,51.356657,-0.022263,200,OK
50.742512,-1.800598,BH23 2BJ,"Bournemouth, Christchurch and Poole",South West,50.742512,-1.800598,200,OK
53.473936,-0.880772,DN9 2ET,North Lincolnshire,Yorkshire and The Humber,53.473936,-0.880772,200,OK
52.639016,-1.154384,LE3 9GH,Leicester,East Midlands,52.639016,-1.154384,200,OK
51.483841,-2.570221,BS7 9ST,"Bristol, City of",South West,51.483841,-2.570221,200,OK
50.953799,-2.004391,SP5 5NA,Dorset,South West,50.954014,-2.003964,200,OK
53.520712,-2.946248,L31 2HP,Sefton,North West,53.520712,-2.946248,200,OK
55.127265,-1.509141,NE24 1BJ,Northumberland,North East,55.127274,-1.508937,200,OK
54.590879,-7.30554,BT78 1JN,Fermanagh and Omagh,,54.590879,-7.30554,200,OK
52.940816,-1.115613,NG2 5AG,Rushcliffe,East Midlands,52.940816,-1.115613,200,OK
52.485649,-1.967942,B67 6EY,Sandwell,West Midlands,52.485649,-1.967942,200,OK
51.359411,1.438552,CT10 1JW,Thanet,South East,51.359308,1.438972,200,OK
53.084685,-1.177374,NG15 8GD,Gedling,East Midlands,53.084685,-1.177374,200,OK
51.453738,-2.276471,SN14 8QW,Wiltshire,South West,51.453738,-2.276471,200,OK
51.107381,0.920933,TN25 7HE,Ashford,South East,51.107381,0.920933,200,OK
53.239648,-2.604697,CW8 2TY,Cheshire West and Chester,North West,53.239648,-2.604697,200,OK
51.240074,-2.309782,BA11 2SB,Somerset,South West,51.240074,-2.309782,200,OK
54.896301,-1.498275,NE38 8BB,Sunderland,North East,54.896419,-1.498539,200,OK
51.437794,-0.118083,SW2 3BE,Lambeth,London,51.437794,-0.118083,200,OK
52.636193,-2.445765,TF7 5AX,Telford and Wrekin,West Midlands,52.636193,-2.445765,200,OK
51.725418,-0.531226,HP3 0LP,Dacorum,East of England,51.725418,-0.531226,200,OK
51.91373,-2.063674,GL52 3JG,Cheltenham,South West,51.91373,-2.063674,200,OK
51.593022,-0.3043,HA3 9AE,Harrow,London,51.59303,-0.304228,200,OK
51.573056,0.505187,SS13 3PH,Basildon,East of England,51.573056,0.505187,200,OK
52.398795,0.267039,CB7 4SQ,East Cambridgeshire,East of England,52.398795,0.267039,200,OK
53.387061,-3.046802,CH43 1YA,Wirral,North West,53.387061,-3.046802,200,OK
53.005336,-1.123267,NG5 7FX,Gedling,East Midlands,53.005336,-1.123267,200,OK
53.779219,-1.073517,YO8 9TY,North Yorkshire,Yorkshire and The Humber,53.779219,-1.073517,200,OK
53.016687,-1.348155,DE75 7TR,Amber Valley,East Midlands,53.016687,-1.348155,200,OK
55.92877,-3.49126,EH52 5NH,West Lothian,,55.92877,-3.49126,200,OK
51.499181,-3.152714,CF23 9BZ,Cardiff,,51.499181,-3.152714,200,OK
52.056991,0.399898,CB9 7AT,Braintree,East of England,52.056991,0.399898,200,OK
51.557208,-0.078653,N16 8SQ,Hackney,London,51.557208,-0.078653,200,OK
52.700843,-1.822593,WS13 7TH,Lichfield,West Midlands,52.700843,-1.822593,200,OK
53.795444,-2.701946,PR2 9FJ,Preston,North West,53.795444,-2.701946,200,OK
54.566959,-1.135371,TS6 8AS,Redcar and Cleveland,North East,54.566959,-1.135371,200,OK
51.379101,-0.397006,KT12 3BH,Elmbridge,South East,51.379101,-0.397006,200,OK
53.599857,-1.283636,WF9 2TJ,Wakefield,Yorkshire and The Humber,53.599857,-1.283636,200,OK
53.011325,-1.358877,DE75 7GW,Amber Valley,East Midlands,53.011325,-1.358877,200,OK
50.959089,-2.865385,TA19 0JW,Somerset,South West,50.959089,-2.865385,200,OK
51.613445,-0.29221,HA8 7RG,Harrow,London,51.613445,-0.29221,200,OK
51.36907,0.089976,BR6 9QJ,Bromley,London,51.36907,0.089976,200,OK
53.174831,-2.853369,CH3 6FH,Cheshire West and Chester,North West,53.174831,-2.853369,200,OK
51.668563,-3.926049,SA6 6AE,Swansea,,51.668515,-3.9257,200,OK
51.541163,-0.063348,E8 3HA,Hackney,London,51.541163,-0.063348,200,OK
51.580906,-3.033276,,,,,,200,OK
51.54528,-0.007402,E20 1GQ,Newham,London,51.545254,-0.007866,200,OK
50.835829,-0.124989,BN2 3DH,Brighton and Hove,South East,50.835829,-0.124989,200,OK
51.25359,-1.108276,RG22 6EG,Basingstoke and Deane,South East,51.25359,-1.108276,200,OK
51.947598,-1.216216,OX27 7NZ,Cherwell,South East,51.94774,-1.215995,200,OK
53.109904,-3.039878,LL12 9EU,Flintshire,,53.110002,-3.039851,200,OK
53.349557,-1.435657,S14 1RE,Sheffield,Yorkshire and The Humber,53.349557,-1.435657,200,OK
51.598083,0.604616,SS6 9LB,Rochford,East of England,51.598083,0.604616,200,OK
51.718292,-1.139642,OX44 9JE,South Oxfordshire,South East,51.718292,-1.139642,200,OK
50.676579,-2.218294,BH20 6BY,Dorset,South West,50.676579,-2.218294,200,OK
52.596804,0.476249,PE33 9BE,King's Lynn and West Norfolk,East of England,52.59707,0.476426,200,OK
51.294907,-1.815404,SN9 6FF,Wiltshire,South West,51.294331,-1.815449,200,OK
51.576377,-0.108539,N4 4LB,Haringey,London,51.576377,-0.108539,200,OK
50.337373,-4.740646,PL25 3PL,Cornwall,South West,50.337373,-4.740646,200,OK
52.47621,-1.771752,B33 0JY,Birmingham,West Midlands,52.476272,-1.771266,200,OK
51.140869,0.172863,TN3 0SJ,Sevenoaks,South East,51.140248,0.173349,200,OK
51.547403,-0.070282,E8 2FQ,Hackney,London,51.547403,-0.070282,200,OK
52.707512,-1.332226,LE67 1TD,North West Leicestershire,East Midlands,52.707552,-1.331382,200,OK
53.663863,-1.800956,HD2 2FN,Kirklees,Yorkshire and The Humber,53.663863,-1.800956,200,OK
54.82776,-7.461867,BT82 8DN,Derry City and Strabane,,54.82776,-7.461867,200,OK
51.653817,-4.001191,SA5 4NP,Swansea,,51.653817,-4.001191,200,OK
51.606877,-2.867411,NP18 2AL,Newport,,51.606877,-2.867411,200,OK
53.867321,-1.923716,BD22 6JU,Bradford,Yorkshire and The Humber,53.867321,-1.923716,200,OK
53.464232,-2.984426,L20 6NW,Sefton,North West,53.463611,-2.985345,200,OK
53.274821,-1.774079,SK17 8PU,Derbyshire Dales,East Midlands,53.274821,-1.774079,200,OK
55.132722,-1.569223,NE22 5LT,Northumberland,North East,55.132722,-1.569223,200,OK
53.927052,-1.584238,LS17 0BR,North Yorkshire,Yorkshire and The Humber,53.927052,-1.584238,200,OK
57.20591,-2.191248,AB21 7GL,Aberdeen City,,57.20591,-2.191248,200,OK
57.114115,-2.385694,,,,,,200,OK
51.552605,-0.493195,UB9 4EH,Buckinghamshire,South East,51.552605,-0.493195,200,OK
51.593685,-0.36648,HA5 5SX,Harrow,London,51.593685,-0.36648,200,OK
50.759334,-1.640944,BH25 5AZ,New Forest,South East,50.759334,-1.640944,200,OK
50.629136,-4.405175,PL15 7FA,Cornwall,South West,50.629136,-4.405175,200,OK
51.540629,-2.569028,BS32 4TN,South Gloucestershire,South West,51.5407,-2.569002,200,OK
53.459341,-2.214561,M13 0FF,Manchester,North West,53.459341,-2.214561,200,OK
51.895906,-0.178518,SG2 9DU,Stevenage,East of England,51.895906,-0.178518,200,OK
52.091495,0.49003,CB9 7PS,West Suffolk,East of England,52.091495,0.49003,200,OK
53.405723,-1.53028,S6 6TG,Sheffield,Yorkshire and The Humber,53.405723,-1.53028,200,OK
56.091435,-5.557311,PA31 8SR,Argyll and Bute,,56.091435,-5.557311,200,OK
50.810939,-1.131179,PO12 4LX,Gosport,South East,50.810939,-1.131179,200,OK
50.944013,-1.398205,SO16 3NR,Southampton,South East,50.943951,-1.398462,200,OK
53.607102,-0.956981,DN8 5NT,Doncaster,Yorkshire and The Humber,53.607102,-0.956981,200,OK
50.819247,-0.411055,BN12 6BS,Worthing,South East,50.819247,-0.411055,200,OK
52.490588,-3.002907,SY9 5AR,Shropshire,West Midlands,52.490588,-3.002907,200,OK
51.555558,0.161728,RM10 7DH,Barking and Dagenham,London,51.555558,0.161728,200,OK
52.62742,-1.11392,LE2 1GH,Leicester,East Midlands,52.62742,-1.113883,200,OK
54.742723,-2.219543,DL13 1HN,County Durham,North East,54.742723,-2.219543,200,OK
51.591942,-1.452695,OX12 9SR,Vale of White Horse,South East,51.591942,-1.452695,200,OK
57.126397,-2.132185,AB10 7DJ,Aberdeen City,,57.126388,-2.132202,200,OK
51.520339,-0.042379,E1 3FR,Tower Hamlets,London,51.520339,-0.042379,200,OK
51.456426,-1.026336,RG30 4LG,Reading,South East,51.456445,-1.026301,200,OK
51.520543,-0.157153,W1U 6QQ,Westminster,London,51.520543,-0.157153,200,OK
51.313617,-0.598149,GU21 8SS,Woking,South East,51.313721,-0.597801,200,OK
54.663895,-3.36501,CA13 9LS,Cumberland,North West,54.664114,-3.365436,200,OK
51.829177,-1.303799,OX5 1GG,Cherwell,South East,51.829177,-1.303799,200,OK
53.02357,-3.037487,LL14 4EH,Wrexham,,53.02357,-3.037487,200,OK
57.272116,-2.369143,AB51 3UZ,Aberdeenshire,,57.272107,-2.369143,200,OK
52.261707,-2.160728,WR9 8BN,Wychavon,West Midlands,52.261707,-2.160728,200,OK
51.782085,-0.084609,SG13 8HS,East Hertfordshire,East of England,51.782085,-0.084609,200,OK
52.059015,1.224362,IP5 1HA,East Suffolk,East of England,52.059015,1.224362,200,OK
53.353289,-1.507119,S11 9HF,Sheffield,Yorkshire and The Humber,53.353289,-1.507119,200,OK
54.540183,-6.703014,BT71 4JF,Mid Ulster,,54.540183,-6.703014,200,OK
53.847809,-3.047232,FY2 9NG,Blackpool,North West,53.847809,-3.047232,200,OK
54.103226,-6.563933,BT35 9PF,"Newry, Mourne and Down",,54.103226,-6.563933,200,OK
57.115098,-2.112528,AB12 5JS,Aberdeen City,,57.1151,-2.112537,200,OK
51.520681,-0.561763,SL3 6BB,Buckinghamshire,South East,51.5207,-0.561729,200,OK
51.377163,1.408579,CT9 3XN,Thanet,South East,51.377163,1.408579,200,OK
50.930973,-0.304322,BN5 9RF,Horsham,South East,50.930973,-0.304322,200,OK
51.747975,-2.75759,NP25 4QA,Monmouthshire,,51.748329,-2.757558,200,OK
51.531379,-0.449318,UB10 0LJ,Hillingdon,London,51.531379,-0.449318,200,OK
52.532095,1.285504,NR15 1TP,South Norfolk,East of England,52.532095,1.285504,200,OK
52.472416,-1.464958,CV12 9HL,Nuneaton and Bedworth,West Midlands,52.472416,-1.464958,200,OK
52.526698,-2.10595,DY1 3TG,Dudley,West Midlands,52.526698,-2.10595,200,OK
52.769741,-0.882045,LE13 1UN,Melton,East Midlands,52.769741,-0.882045,200,OK
51.145035,-0.468304,GU6 7DS,Waverley,South East,51.144582,-0.468981,200,OK
51.436926,-2.199921,,,,,,200,OK
52.467933,-2.164138,DY8 4SX,Dudley,West Midlands,52.467933,-2.164138,200,OK
51.201954,-2.177589,BA12 9NF,Wiltshire,South West,51.201954,-2.177589,200,OK
53.539911,-1.381539,S73 9DP,Barnsley,Yorkshire and The Humber,53.539911,-1.381539,200,OK
50.954047,-0.154038,RH15 5BH,Mid Sussex,South East,50.954047,-0.154038,200,OK
51.376532,-2.377727,BA2 3LJ,Bath and North East Somerset,South West,51.376528,-2.377769,200,OK
51.639406,-0.469597,WD3 1EW,Three Rivers,East of England,51.639406,-0.469597,200,OK
51.433339,-0.686559,,,,,,200,OK
52.931586,1.301526,NR27 9HA,North Norfolk,East of England,52.931573,1.301659,200,OK
51.646289,-1.597552,SN7 7RS,Vale of White Horse,South East,51.646289,-1.597552,200,OK
54.643584,-6.745279,BT80 8PZ,Mid Ulster,,54.643584,-6.745279,200,OK
53.866759,-1.904146,BD21 5JA,Bradford,Yorkshire and The Humber,53.866759,-1.904146,200,OK
52.909132,-0.642154,NG31 6DP,South Kesteven,East Midlands,52.909133,-0.642243,200,OK
51.587946,-0.221916,NW4 1WQ,Barnet,London,51.587946,-0.221916,200,OK
53.51543,-2.027996,OL5 9JW,Tameside,North West,53.51543,-2.027996,200,OK
50.872957,0.247056,BN27 3HD,Wealden,South East,50.872957,0.247056,200,OK
51.656282,-3.953619,SA5 9AP,Swansea,,51.656282,-3.953619,200,OK
52.992225,-0.409587,NG34 7GY,North Kesteven,East Midlands,52.992225,-0.409587,200,OK
54.232809,-1.341836,YO7 1ET,North Yorkshire,Yorkshire and The Humber,54.233063,-1.341426,200,OK
55.753291,-2.025242,TD15 2FN,Northumberland,North East,55.753291,-2.025242,200,OK
54.508599,-6.030945,BT27 5BG,Lisburn and Castlereagh,,54.508599,-6.030945,200,OK
54.332844,-1.440922,DL7 8AN,North Yorkshire,Yorkshire and The Humber,54.332865,-1.440839,200,OK
53.61155,-2.148781,OL15 0FH,Rochdale,North West,53.61155,-2.148781,200,OK
51.488766,0.079326,SE18 7PW,Greenwich,London,51.488766,0.079326,200,OK
53.912143,-1.923011,BD20 0NF,Bradford,Yorkshire and The Humber,53.912143,-1.923011,200,OK
51.265131,-1.086654,RG21 7JY,Basingstoke and Deane,South East,51.265242,-1.087024,200,OK
51.12678,-0.147016,RH10 3UA,Crawley,South East,51.12678,-0.147016,200,OK
51.88268,0.340875,,,,,,200,OK
50.90556,-1.394505,SO14 1HZ,Southampton,South East,50.905569,-1.394619,200,OK
57.691636,-2.005102,AB43 9AS,Aberdeenshire,,57.691636,-2.005102,200,OK
54.109942,-3.224778,LA14 2LB,Westmorland and Furness,North West,54.109942,-3.224778,200,OK
53.228129,-1.202819,NG20 9EW,Bassetlaw,East Midlands,53.228355,-1.203055,200,OK
55.92891,-3.208812,EH10 4AB,City of Edinburgh,,55.92891,-3.208812,200,OK
54.937448,-1.42102,NE36 0BX,South Tyneside,North East,54.937448,-1.42102,200,OK
51.12588,-3.286136,TA4 3UB,Somerset,South West,51.12588,-3.286136,200,OK
53.370709,-3.01048,CH42 2BU,Wirral,North West,53.370818,-3.010301,200,OK
53.585882,-0.654585,DN15 5BY,North Lincolnshire,Yorkshire and The Humber,53.585882,-0.654585,200,OK
52.989937,-1.288894,NG16 2TB,Broxtowe,East Midlands,52.989937,-1.288894,200,OK
50.732626,-1.930532,BH12 2DS,"Bournemouth, Christchurch and Poole",South West,50.732626,-1.930532,200,OK
51.801963,-3.223351,NP23 5AJ,Blaenau Gwent,,51.802126,-3.224037,200,OK
53.041289,-1.087934,NG14 6JZ,Gedling,East Midlands,53.041651,-1.087092,200,OK
53.517055,-2.927616,L31 9AF,Sefton,North West,53.517055,-2.927616,200,OK
52.180623,-2.196281,WR5 2JL,Worcester,West Midlands,52.180623,-2.196281,200,OK
51.495227,-0.170218,SW7 2SF,Kensington and Chelsea,London,51.495227,-0.170218,200,OK
53.951674,-0.873491,YO41 5RP,East Riding of Yorkshire,Yorkshire and The Humber,53.951774,-0.873451,200,OK
51.480487,-3.192291,CF11 6JX,Cardiff,,51.480196,-3.1926,200,OK
52.779678,-2.115193,ST17 9WD,Stafford,West Midlands,52.779678,-2.115193,200,OK
51.591174,-3.183639,CF83 8DT,Caerphilly,,51.590996,-3.183504,200,OK
53.791432,-1.482464,LS15 0BB,Leeds,Yorkshire and The Humber,53.791432,-1.482464,200,OK
53.07061,-1.155852,NG15 9HY,Gedling,East Midlands,53.07061,-1.155852,200,OK
51.882331,-0.867156,HP22 4HR,Buckinghamshire,South East,51.882331,-0.867156,200,OK
51.478351,-2.765267,BS20 6UZ,North Somerset,South West,51.478332,-2.76527,200,OK
52.947712,-1.487674,DE22 2AP,Derby,East Midlands,52.947712,-1.487674,200,OK
52.989714,-2.094345,ST3 6NH,Stoke-on-Trent,West Midlands,52.989714,-2.094345,200,OK
52.932812,-1.137215,NG2 7QW,Rushcliffe,East Midlands,52.932812,-1.137215,200,OK
52.777869,-2.373519,TF10 8QF,Telford and Wrekin,West Midlands,52.777896,-2.373504,200,OK
52.303779,-1.882792,B98 0SJ,Redditch,West Midlands,52.303779,-1.882792,200,OK
51.124373,1.315262,CT16 1FL,Dover,South East,51.124411,1.314235,200,OK
52.510555,-1.88687,B6 6TA,Birmingham,West Midlands,52.510555,-1.88687,200,OK
53.368163,-2.22357,SK8 3EZ,Stockport,North West,53.368163,-2.22357,200,OK
51.518744,-2.501925,BS36 1DZ,South Gloucestershire,South West,51.518744,-2.501925,200,OK
53.612868,-2.596594,PR6 9FU,Chorley,North West,53.612868,-2.596594,200,OK
51.555665,-0.08287,N16 8QY,Hackney,London,51.555665,-0.08287,200,OK
56.229474,-5.105771,,,,,,200,OK
51.151617,-0.145206,RH6 9SN,Crawley,South East,51.151617,-0.145206,200,OK
52.43513,-1.597984,CV5 9BX,Coventry,West Midlands,52.43513,-1.597984,200,OK
54.639408,-5.832077,BT18 9DL,Ards and North Down,,54.639408,-5.832077,200,OK
52.016491,-0.647416,MK17 8SN,Central Bedfordshire,East of England,52.016491,-0.647416,200,OK
52.912987,-0.646277,NG31 6PA,South Kesteven,East Midlands,52.912987,-0.646277,200,OK
53.632337,-0.952306,DN8 4TP,Doncaster,Yorkshire and The Humber,53.632337,-0.952306,200,OK
52.414146,-1.529353,CV6 1AH,Coventry,West Midlands,52.414146,-1.529353,200,OK
51.36497,-0.156466,SM5 3DX,Sutton,London,51.364739,-0.157208,200,OK
51.883859,0.087615,SG11 2NB,East Hertfordshire,East of England,51.883859,0.087615,200,OK
52.229667,-2.205824,WR3 7LE,Wychavon,West Midlands,52.229667,-2.205824,200,OK
52.107012,1.245792,IP13 6UU,East Suffolk,East of England,52.107012,1.245792,200,OK
50.758142,-1.924219,BH11 8LQ,"Bournemouth, Christchurch and Poole",South West,50.757827,-1.923979,200,OK
51.631315,-0.095725,N21 3JH,Enfield,London,51.631315,-0.095725,200,OK
53.364915,-1.553646,S10 4GS,Sheffield,Yorkshire and The Humber,53.364959,-1.553644,200,OK
52.923673,-0.652355,,,,,,200,OK
51.419405,-2.630423,BS13 8AZ,"Bristol, City of",South West,51.419405,-2.630423,200,OK
52.611048,-2.471457,TF12 5AX,Shropshire,West Midlands,52.611048,-2.471457,200,OK
54.42359,-6.442417,BT62 1HY,"Armagh City, Banbridge and Craigavon",,54.42359,-6.442417,200,OK
51.942337,-0.275156,SG4 9FE,North Hertfordshire,East of England,51.942337,-0.275156,200,OK
53.253456,-2.833873,,,,,,200,OK
57.699527,-2.902825,AB56 4PQ,Moray,,57.699527,-2.902825,200,OK
51.528906,-0.200599,W9 3HF,Westminster,London,51.528906,-0.200599,200,OK
54.715663,-2.94646,CA11 0XY,Westmorland and Furness,North West,54.715663,-2.94646,200,OK
51.53364,-0.197918,NW6 5AL,Brent,London,51.53364,-0.197918,200,OK
53.735892,-2.497948,BB2 4UX,Blackburn with Darwen,North West,53.735937,-2.497827,200,OK
53.753675,-0.278492,HU9 5SY,"Kingston upon Hull, City of",Yorkshire and The Humber,53.753675,-0.278492,200,OK
51.958109,-0.259238,SG4 0AU,North Hertfordshire,East of England,51.958109,-0.259238,200,OK
51.329595,-0.535554,GU21 5LA,Woking,South East,51.329595,-0.535554,200,OK
53.415178,-3.105796,CH46 3RH,Wirral,North West,53.415329,-3.105965,200,OK
55.829608,-4.199258,,,,,,200,OK
51.46332,-0.115622,SW9 8EG,Lambeth,London,51.463268,-0.115696,200,OK
53.734772,-0.370563,HU3 3SF,"Kingston upon Hull, City of",Yorkshire and The Humber,53.734772,-0.370563,200,OK
53.050594,-1.406254,DE5 3BR,Amber Valley,East Midlands,53.050523,-1.40633,200,OK
52.996912,-1.144044,NG5 6EN,Nottingham,East Midlands,52.99694,-1.14401,200,OK
50.416872,-5.043289,TR7 3DX,Cornwall,South West,50.416872,-5.043289,200,OK
50.63363,-3.600392,,,,,,200,OK
50.322664,-3.72921,TQ9 7RE,South Hams,South West,50.322181,-3.728967,200,OK
54.474687,-6.345291,BT66 6PY,"Armagh City, Banbridge and Craigavon",,54.474687,-6.345291,200,OK
55.987451,-4.579822,G83 0NA,West Dunbartonshire,,55.987451,-4.579822,200,OK
51.076987,1.171749,CT20 2TE,Folkestone and Hythe,South East,51.076987,1.171749,200,OK
52.410063,-1.797423,B91 1SL,Solihull,West Midlands,52.410063,-1.797423,200,OK
53.32008,-2.651934,WA7 3AT,Halton,North West,53.32008,-2.651934,200,OK
52.858269,1.389077,,,,,,200,OK
51.741417,-2.225363,GL5 3RT,Stroud,South West,51.741417,-2.225363,200,OK
52.00908,0.98764,IP7 5LJ,Babergh,East of England,52.009546,0.987715,200,OK
51.573507,0.507507,SS13 3QQ,Basildon,East of England,51.573507,0.507507,200,OK
51.47101,-0.100633,SE5 9BQ,Lambeth,London,51.47101,-0.100633,200,OK
51.067439,-1.29475,SO23 0LZ,Winchester,South East,51.067439,-1.294721,200,OK
52.922574,-3.002613,SY11 3QL,Shropshire,West Midlands,52.922574,-3.002613,200,OK
51.37561,0.508186,ME1 2PA,Medway,South East,51.37561,0.508186,200,OK
51.882357,-2.852935,NP7 8LT,Monmouthshire,,51.882357,-2.852935,200,OK
51.517405,-0.150134,W1U 2AJ,Westminster,London,51.517405,-0.150134,200,OK
55.896247,-3.068971,EH22 1BD,Midlothian,,55.896389,-3.068095,200,OK
51.532765,0.584229,SS8 9FA,Castle Point,East of England,51.532765,0.584229,200,OK
51.428453,0.248211,DA2 6PU,Dartford,South East,51.428453,0.248211,200,OK
56.042013,-3.359835,KY11 9AB,Fife,,56.042104,-3.359806,200,OK
51.407077,-0.859599,RG41 3HT,Wokingham,South East,51.407077,-0.859599,200,OK
52.267494,-0.356102,PE19 5BD,Huntingdonshire,East of England,52.267503,-0.356102,200,OK
51.522183,-0.134037,WC1E 7HE,Camden,London,51.522183,-0.134037,200,OK
51.515958,-1.006721,RG4 9BX,South Oxfordshire,South East,51.515958,-1.006721,200,OK
51.338063,-0.50614,KT14 6DH,Woking,South East,51.338063,-0.50614,200,OK
51.287748,0.20506,TN13 3QY,Sevenoaks,South East,51.287748,0.20506,200,OK
51.052871,-2.408343,BA9 9EW,Somerset,South West,51.052871,-2.408343,200,OK
57.494204,-2.184213,,,,,,200,OK
52.80619,-1.654304,DE14 2AU,East Staffordshire,West Midlands,52.80619,-1.654304,200,OK
53.004585,-3.036644,LL14 2TW,Wrexham,,53.004585,-3.036644,200,OK
52.156137,-0.712901,MK46 5PQ,Milton Keynes,South East,52.156137,-0.712901,200,OK
53.570014,-2.421404,BL2 1HL,Bolton,North West,53.570014,-2.421404,200,OK
54.702928,-1.207001,TS24 0TX,Hartlepool,North East,54.703046,-1.207076,200,OK
54.42603,-7.597705,BT94 2AW,Fermanagh and Omagh,,54.42603,-7.597705,200,OK
52.660696,-2.117018,WV10 7PA,South Staffordshire,West Midlands,52.660696,-2.117018,200,OK
52.604348,-1.14036,LE2 8QY,Leicester,East Midlands,52.604348,-1.14036,200,OK
52.596173,-1.151105,LE2 8UH,Leicester,East Midlands,52.596173,-1.151105,200,OK
52.890097,-1.451077,DE24 9BR,Derby,East Midlands,52.889999,-1.451104,200,OK
50.835346,-0.273107,BN43 5AA,Adur,South East,50.835427,-0.27316,200,OK
55.806847,-4.062698,G71 8TH,South Lanarkshire,,55.806847,-4.062698,200,OK
52.629163,-0.506752,PE9 3LL,North Northamptonshire,East Midlands,52.629163,-0.506752,200,OK
51.420126,-0.079472,SE19 1SG,Lambeth,London,51.420126,-0.079472,200,OK
51.400392,-0.30355,KT1 2HS,Kingston upon Thames,London,51.400392,-0.30355,200,OK
51.410378,0.460287,ME3 7NY,Gravesham,South East,51.410026,0.459937,200,OK
52.163676,-1.860134,B50 4JJ,Stratford-on-Avon,West Midlands,52.163676,-1.860134,200,OK
54.085628,-0.190155,YO15 2EG,East Riding of Yorkshire,Yorkshire and The Humber,54.085628,-0.190155,200,OK
51.388472,-0.0789,CR0 6HT,Croydon,London,51.388472,-0.0789,200,OK
52.531874,-1.040277,,,,,,200,OK
52.588305,1.734819,NR30 3QL,Great Yarmouth,East of England,52.58819,1.734751,200,OK
51.451579,-0.366361,TW2 7BL,Richmond upon Thames,London,51.451579,-0.366361,200,OK
51.76989,0.603902,CM3 2LE,Braintree,East of England,51.769799,0.603909,200,OK
51.751358,-0.339979,AL3 5US,St Albans,East of England,51.751358,-0.339979,200,OK
53.52012,-2.183211,M40 5QT,Manchester,North West,53.52012,-2.183211,200,OK
51.413843,0.798533,ME12 3FH,Swale,South East,51.413629,0.798289,200,OK
51.530486,-0.09947,EC1V 1LA,Islington,London,51.530479,-0.099459,200,OK
53.995195,-1.287013,YO26 8DG,North Yorkshire,Yorkshire and The Humber,53.995106,-1.287342,200,OK
53.836268,-1.335287,LS25 3AG,Leeds,Yorkshire and The Humber,53.836268,-1.335287,200,OK
57.135425,-2.123692,AB10 6PP,Aberdeen City,,57.135425,-2.123692,200,OK
53.594902,-2.287391,,,,,,200,OK
51.453836,-1.004832,RG30 2RR,Reading,South East,51.453836,-1.004832,200,OK
52.681892,1.20293,NR8 6NB,Broadland,East of England,52.681892,1.20293,200,OK
53.711405,-1.675058,WF16 9HT,Kirklees,Yorkshire and The Humber,53.711405,-1.675058,200,OK
52.17894,-2.236257,WR2 4NN,Worcester,West Midlands,52.17894,-2.236257,200,OK
51.626496,-0.387811,WD19 7FR,Three Rivers,East of England,51.626367,-0.387923,200,OK
53.562852,-2.870325,L39 4XL,West Lancashire,North West,53.562852,-2.870325,200,OK
53.395796,-2.970559,L8 7LA,Liverpool,North West,53.395796,-2.970559,200,OK
56.191465,-3.515135,KY13 0PN,Perth and Kinross,,56.191465,-3.515151,200,OK
51.238228,-0.555503,GU1 2BN,Guildford,South East,51.238228,-0.555503,200,OK
53.029483,-1.210737,NG15 6FE,Ashfield,East Midlands,53.029483,-1.210737,200,OK
54.402745,-1.735999,DL10 4JL,North Yorkshire,Yorkshire and The Humber,54.402745,-1.735999,200,OK
53.708515,-1.72727,WF15 8ER,Kirklees,Yorkshire and The Humber,53.708515,-1.72727,200,OK
51.541477,0.148947,RM10 8RF,Barking and Dagenham,London,51.541477,0.148947,200,OK
53.322079,-0.82417,DN22 0DB,Bassetlaw,East Midlands,53.322079,-0.82417,200,OK
53.260493,-1.458371,S41 8BW,Chesterfield,East Midlands,53.260493,-1.458371,200,OK
52.709331,-2.523462,TF1 3LW,Telford and Wrekin,West Midlands,52.709331,-2.523462,200,OK
51.892627,-2.092271,GL51 6DZ,Cheltenham,South West,51.892627,-2.092271,200,OK
50.829359,-0.549429,BN17 7RY,Arun,South East,50.829359,-0.549429,200,OK
56.490298,-2.93543,DD4 9LJ,Dundee City,,56.490298,-2.93543,200,OK
51.791601,-0.080378,SG13 8EJ,East Hertfordshire,East of England,51.791601,-0.080378,200,OK
53.228922,-0.528246,LN2 5EG,Lincoln,East Midlands,53.228922,-0.528246,200,OK
52.537847,-1.979773,B71 3RP,Sandwell,West Midlands,52.537847,-1.979773,200,OK
51.644572,-2.689313,NP16 6BE,Monmouthshire,,51.644255,-2.690022,200,OK
51.360411,-0.346989,KT10 0PE,Elmbridge,South East,51.360637,-0.346961,200,OK
53.34602,-1.335063,S20 1HA,Sheffield,Yorkshire and The Humber,53.34602,-1.335063,200,OK
55.798777,-4.298723,G46 7NJ,East Renfrewshire,,55.798993,-4.29893,200,OK
52.924744,-3.190465,LL20 7NR,Wrexham,,52.924744,-3.190465,200,OK
53.399637,-2.316771,WA15 6XP,Trafford,North West,53.399637,-2.316771,200,OK
51.497805,-0.068529,SE16 4SX,Southwark,London,51.497805,-0.068529,200,OK
51.437835,-0.423209,TW13 4QP,Hounslow,London,51.437835,-0.423209,200,OK
53.824719,-1.452978,LS14 5DE,Leeds,Yorkshire and The Humber,53.824719,-1.452978,200,OK
51.901895,1.185785,CO12 5AX,Tendring,East of England,51.901895,1.185785,200,OK
54.656158,-5.630304,BT19 6EG,Ards and North Down,,54.65624,-5.630361,200,OK
54.138205,-3.214748,LA14 4NW,Westmorland and Furness,North West,54.138205,-3.214748,200,OK
54.923057,-1.412645,SR5 5AQ,Sunderland,North East,54.923057,-1.412645,200,OK
52.047925,0.948514,IP7 6RW,Babergh,East of England,52.04796,0.947672,200,OK
51.63329,-0.748905,HP13 6TE,Buckinghamshire,South East,51.63329,-0.748905,200,OK
53.915945,-2.144292,BB18 6QT,Pendle,North West,53.915882,-2.144307,200,OK
53.947801,-1.075835,YO10 4DH,York,Yorkshire and The Humber,53.94782,-1.075843,200,OK
55.964377,-3.193882,EH7 4GP,City of Edinburgh,,55.964275,-3.194616,200,OK
52.97851,-2.098923,ST3 6DG,Stoke-on-Trent,West Midlands,52.97851,-2.098923,200,OK
54.882415,-4.188627,DG7 2JZ,Dumfries and Galloway,,54.882415,-4.188627,200,OK
53.599201,-2.850446,L40 7SB,West Lancashire,North West,53.598993,-2.850638,200,OK
53.529796,-1.307237,S63 9EP,Barnsley,Yorkshire and The Humber,53.529796,-1.307237,200,OK
51.928221,0.759414,CO6 2DR,Colchester,East of England,51.928221,0.759414,200,OK
51.631908,-3.235934,CF82 7FG,Caerphilly,,51.631908,-3.235934,200,OK
53.664345,-1.78862,HD2 2PW,Kirklees,Yorkshire and The Humber,53.664345,-1.78862,200,OK
56.120467,-3.94162,FK8 1BS,Stirling,,56.120467,-3.94162,200,OK
54.665449,-5.959408,BT36 7SZ,Antrim and Newtownabbey,,54.665449,-5.959408,200,OK
51.896879,-2.173111,GL2 9QG,Tewkesbury,South West,51.896879,-2.173111,200,OK
53.581509,-1.376295,S72 7HA,Barnsley,Yorkshire and The Humber,53.581509,-1.376295,200,OK
54.563464,-1.183402,TS3 9JN,Middlesbrough,North East,54.563464,-1.183402,200,OK
50.957038,-0.143339,RH15 9PA,Mid Sussex,South East,50.957038,-0.143339,200,OK
51.570606,-1.758462,,,,,,200,OK
51.489006,-0.09964,SE17 3AQ,Southwark,London,51.489006,-0.09964,200,OK
53.904469,-2.170797,BB18 5TS,Pendle,North West,53.904469,-2.170797,200,OK
53.295118,-1.373796,S21 4EJ,Chesterfield,East Midlands,53.295118,-1.373796,200,OK
53.347666,-3.021577,CH63 2NG,Wirral,North West,53.347666,-3.021577,200,OK
53.431802,-2.967677,L4 0RW,Liverpool,North West,53.431802,-2.967677,200,OK
54.692168,-5.869003,BT38 8XB,Mid and East Antrim,,54.692168,-5.869003,200,OK
51.401131,-3.264415,CF63 4QT,Vale of Glamorgan,,51.400897,-3.264409,200,OK
54.008532,-1.075811,YO32 3YW,York,Yorkshire and The Humber,54.008532,-1.075811,200,OK
52.55471,-1.807673,B76 1ET,Birmingham,West Midlands,52.55471,-1.807673,200,OK
55.829259,-4.248355,G42 0NL,Glasgow City,,55.829259,-4.248355,200,OK
53.76035,-2.752979,PR2 2XU,Preston,North West,53.76035,-2.752979,200,OK
54.657858,-3.355725,CA13 9FE,Cumberland,North West,54.657858,-3.355725,200,OK
57.158346,-2.308457,AB32 6AT,Aberdeenshire,,57.158269,-2.307984,200,OK
52.083618,-1.934912,WR11 1YN,Wychavon,West Midlands,52.082755,-1.935278,200,OK
53.368597,-2.905255,L18 9SQ,Liverpool,North West,53.368597,-2.905255,200,OK
52.69555,-0.393355,PE9 4PR,South Kesteven,East Midlands,52.69555,-0.393355,200,OK
57.161114,-2.117231,AB25 3AW,Aberdeen City,,57.161114,-2.117231,200,OK
51.607726,-3.383601,CF37 2NT,Rhondda Cynon Taf,,51.607726,-3.383601,200,OK
52.020772,-0.26527,SG15 6UG,Central Bedfordshire,East of England,52.020772,-0.26527,200,OK
53.712802,-1.865103,HX1 2NW,Calderdale,Yorkshire and The Humber,53.712802,-1.865103,200,OK
51.513239,-0.118492,WC2B 4AQ,Westminster,London,51.513239,-0.118492,200,OK
52.733527,-2.110816,ST19 5RD,South Staffordshire,West Midlands,52.733805,-2.111646,200,OK
52.767978,-1.248258,LE11 4WD,Charnwood,East Midlands,52.767987,-1.248243,200,OK
50.528021,-3.611431,TQ12 1EU,Teignbridge,South West,50.528021,-3.611431,200,OK
52.474197,-1.112171,LE17 5RW,Harborough,East Midlands,52.474197,-1.112171,200,OK
53.514506,-2.601004,WN2 5LJ,Wigan,North West,53.514506,-2.601004,200,OK
51.550073,-1.755571,SN3 2BU,Swindon,South West,51.550073,-1.755571,200,OK
55.901475,-4.192463,G64 1GL,East Dunbartonshire,,55.901475,-4.192463,200,OK
51.343398,1.404778,CT12 6DD,Thanet,South East,51.343398,1.404778,200,OK
53.650919,-1.817644,HD3 4DH,Kirklees,Yorkshire and The Humber,53.650919,-1.817644,200,OK
56.012882,-3.619106,EH51 0EW,Falkirk,,56.012882,-3.619106,200,OK
53.384442,-1.479232,S3 7BP,Sheffield,Yorkshire and The Humber,53.384442,-1.479232,200,OK
51.274022,-0.361828,KT23 4PL,Mole Valley,South East,51.274022,-0.361828,200,OK
50.826194,-0.169506,BN3 2NG,Brighton and Hove,South East,50.826194,-0.169506,200,OK
54.502019,-1.763603,DL11 7PU,North Yorkshire,Yorkshire and The Humber,54.502019,-1.763603,200,OK
53.396573,-2.357623,WA14 4FD,Trafford,North West,53.396573,-2.357623,200,OK
54.545003,-1.516043,DL1 3HH,Darlington,North East,54.545003,-1.516043,200,OK
55.915255,-4.413943,G81 3NH,West Dunbartonshire,,55.915255,-4.413943,200,OK
52.580677,-4.097473,LL36 0DQ,Gwynedd,,52.580677,-4.097473,200,OK
54.964533,-3.931971,DG7 3AF,Dumfries and Galloway,,54.964533,-3.931971,200,OK
51.492377,-0.151907,SW1W 8TH,Westminster,London,51.492377,-0.151907,200,OK
51.599001,-2.930715,NP19 9GQ,Newport,,51.599001,-2.930715,200,OK
51.460986,-0.001261,SE13 5FW,Lewisham,London,51.460986,-0.001261,200,OK
55.865747,-3.503417,EH54 9AZ,West Lothian,,55.865747,-3.503417,200,OK
51.84781,-0.021785,SG11 1BQ,East Hertfordshire,East of England,51.84781,-0.021785,200,OK
51.126546,0.2581,TN2 5BF,Tunbridge Wells,South East,51.126546,0.2581,200,OK
53.373262,-3.165285,CH48 6BD,Wirral,North West,53.373478,-3.165291,200,OK
51.248641,-1.087983,RG22 4BY,Basingstoke and Deane,South East,51.248587,-1.087913,200,OK
51.573722,-0.778117,SL7 3AP,Buckinghamshire,South East,51.573722,-0.778117,200,OK
53.70285,-2.690342,PR25 3EF,South Ribble,North West,53.702811,-2.690917,200,OK
51.52049,-0.205342,W10 5YU,Kensington and Chelsea,London,51.52049,-0.205342,200,OK
52.774454,-1.246071,LE11 4SG,Charnwood,East Midlands,52.774544,-1.246025,200,OK
51.615625,-0.25817,NW7 3SA,Barnet,London,51.615625,-0.25817,200,OK
53.389591,-2.181807,SK8 5QH,Stockport,North West,53.389591,-2.181807,200,OK
52.05082,1.376163,IP12 3EN,East Suffolk,East of England,52.050801,1.376133,200,OK
54.995589,-1.61677,NE2 3NH,Newcastle upon Tyne,North East,54.995589,-1.61677,200,OK
50.537592,-3.631317,TQ12 1QQ,Teignbridge,South West,50.537592,-3.631317,200,OK
53.503543,-1.073868,DN4 6DG,Doncaster,Yorkshire and The Humber,53.503543,-1.073868,200,OK
51.73587,-3.50699,CF44 9NE,Rhondda Cynon Taf,,51.73587,-3.50699,200,OK
57.590952,-4.435869,IV15 9TH,Highland,,57.590952,-4.435869,200,OK
53.836074,-1.583543,LS16 5PA,Leeds,Yorkshire and The Humber,53.83609,-1.583548,200,OK
51.521214,-0.177061,W2 1SG,Westminster,London,51.521214,-0.177061,200,OK
51.140209,0.872749,TN23 7TA,Ashford,South East,51.140209,0.87278,200,OK
51.590866,-1.763941,SN2 7RS,Swindon,South West,51.590866,-1.763941,200,OK
57.560473,-2.630574,AB54 7TH,Aberdeenshire,,57.560537,-2.630492,200,OK
51.672812,-0.734136,HP15 6DN,Buckinghamshire,South East,51.672812,-0.734136,200,OK
51.148216,-0.965739,GU34 2LZ,East Hampshire,South East,51.148216,-0.965739,200,OK
50.918703,-1.435078,SO15 8PS,Southampton,South East,50.918703,-1.435078,200,OK
52.456314,1.691081,NR33 8GW,East Suffolk,East of England,52.456314,1.691081,200,OK
51.760602,-3.792302,SA9 2BS,Neath Port Talbot,,51.761238,-3.793067,200,OK
53.097784,-4.225781,LL54 7HF,Gwynedd,,53.097784,-4.225781,200,OK
52.357044,1.008129,IP22 1RT,Mid Suffolk,East of England,52.357044,1.008129,200,OK
52.502846,-1.881498,B6 5UJ,Birmingham,West Midlands,52.502846,-1.881498,200,OK
52.900719,-1.183003,NG11 9LZ,Nottingham,East Midlands,52.900719,-1.183003,200,OK
52.901894,-1.441904,DE24 8SZ,Derby,East Midlands,52.901966,-1.441933,200,OK
50.77468,0.262923,BN21 1SG,Eastbourne,South East,50.77468,0.262923,200,OK
52.952411,-1.147048,NG1 2GR,Nottingham,East Midlands,52.952348,-1.147049,200,OK
52.029524,-1.146379,NN13 5FF,West Northamptonshire,East Midlands,52.029515,-1.14638,200,OK
50.848325,-0.906685,PO10 8LW,Chichester,South East,50.848325,-0.906685,200,OK
50.931421,-0.274973,BN5 9PG,Horsham,South East,50.931421,-0.274973,200,OK
50.366175,-4.447284,PL13 1FA,Cornwall,South West,50.366175,-4.447284,200,OK
52.698759,-2.515078,TF1 1JP,Telford and Wrekin,West Midlands,52.698864,-2.51518,200,OK
51.328089,-2.872143,BS29 6BA,North Somerset,South West,51.328035,-2.872084,200,OK
54.539926,-1.527448,DL1 2DN,Darlington,North East,54.539926,-1.527448,200,OK
54.449331,-6.68913,BT71 7JR,Mid Ulster,,54.449331,-6.68913,200,OK
51.667782,-3.0333,NP44 1DB,Torfaen,,51.667782,-3.0333,200,OK
52.693731,-2.773641,SY3 6BW,Shropshire,West Midlands,52.693731,-2.773641,200,OK
53.277062,-1.413337,S41 9TE,Chesterfield,East Midlands,53.27708,-1.413337,200,OK
54.484496,-6.720269,,,,,,200,OK
50.84489,0.446139,TN39 3GH,Rother,South East,50.84494,0.446355,200,OK
52.972599,-1.087802,NG4 3JQ,Gedling,East Midlands,52.97277,-1.087724,200,OK
51.352448,-2.632892,BS40 8XX,Bath and North East Somerset,South West,51.352448,-2.632892,200,OK
51.996714,-0.720186,MK2 2NQ,Milton Keynes,South East,51.996714,-0.720186,200,OK
51.521375,-0.122686,WC1N 3AR,Camden,London,51.521375,-0.122686,200,OK
53.824591,-1.579586,LS6 4AG,Leeds,Yorkshire and The Humber,53.824591,-1.579586,200,OK
51.579902,-0.10053,N4 1BQ,Haringey,London,51.579902,-0.10053,200,OK
50.6119,-2.470764,DT4 0LT,Dorset,South West,50.6119,-2.470764,200,OK
52.621166,-1.996545,WS3 3NF,Walsall,West Midlands,52.621166,-1.996545,200,OK
51.501207,-0.160425,SW1X 9LA,Kensington and Chelsea,London,51.501253,-0.160399,200,OK
51.772187,0.434215,CM1 4SY,Chelmsford,East of England,51.772187,0.434215,200,OK
54.324425,-0.44694,YO13 0HZ,North Yorkshire,Yorkshire and The Humber,54.324425,-0.44694,200,OK
51.618471,-0.262756,HA8 9PS,Barnet,London,51.618471,-0.262756,200,OK
51.319802,-0.140815,CR5 9DN,Croydon,London,51.319802,-0.140815,200,OK
53.5705,-2.894885,L39 3QN,West Lancashire,North West,53.5705,-2.894885,200,OK
51.718551,-0.389018,WD5 0SB,St Albans,East of England,51.718467,-0.389455,200,OK
53.810686,-1.491127,LS9 6QR,Leeds,Yorkshire and The Humber,53.810686,-1.491127,200,OK
53.412202,-2.195985,SK4 3JD,Stockport,North West,53.412202,-2.195985,200,OK
55.844277,-3.948094,ML6 8RX,North Lanarkshire,,55.8442,-3.947308,200,OK
52.23344,0.115812,CB4 2GR,South Cambridgeshire,East of England,52.23344,0.115812,200,OK
55.752579,-4.199653,G75 9BZ,South Lanarkshire,,55.752579,-4.199653,200,OK
53.780423,-2.691558,PR2 8BY,Preston,North West,53.780414,-2.691558,200,OK
51.908474,-2.588101,HR9 5PN,"Herefordshire, County of",West Midlands,51.908474,-2.588101,200,OK
50.428095,-4.129102,PL6 6QJ,Plymouth,South West,50.428095,-4.129102,200,OK
56.715091,-2.456779,DD10 8SN,Angus,,56.715091,-2.456779,200,OK
50.478311,-3.570769,TQ2 7NA,Torbay,South West,50.478311,-3.570769,200,OK
53.371179,-2.840996,L26 7ZZ,Knowsley,North West,53.371179,-2.840996,200,OK
52.03812,0.743971,CO10 2SA,Babergh,East of England,52.038024,0.744213,200,OK
51.526057,-3.166439,CF23 6SA,Cardiff,,51.526057,-3.166439,200,OK
51.681159,0.042951,EN9 3RF,Epping Forest,East of England,51.681159,0.042951,200,OK
51.250695,-1.113061,RG22 6HD,Basingstoke and Deane,South East,51.250695,-1.113061,200,OK
51.406833,-0.128255,SW16 4SZ,Croydon,London,51.406833,-0.128255,200,OK
52.422217,-0.799739,NN14 6BX,North Northamptonshire,East Midlands,52.422217,-0.799739,200,OK
55.03896,-1.470929,NE25 8NF,North Tyneside,North East,55.03896,-1.470929,200,OK
51.555186,-0.400128,HA4 6TJ,Hillingdon,London,51.555186,-0.400128,200,OK
53.383657,-2.860937,L25 2PY,Liverpool,North West,53.383657,-2.860937,200,OK
52.483458,-0.704061,NN18 9LQ,North Northamptonshire,East Midlands,52.483458,-0.704061,200,OK
54.821207,-7.280776,,,,,,200,OK
51.299197,0.03883,TN16 2NJ,Tandridge,South East,51.299197,0.03883,200,OK
52.345368,-1.568676,CV8 2BN,Warwick,West Midlands,52.345368,-1.568676,200,OK
52.588178,-1.207799,LE19 4NG,Blaby,East Midlands,52.588178,-1.207799,200,OK
51.578437,-0.244553,NW9 7QB,Barnet,London,51.578504,-0.243992,200,OK
53.704577,-1.656826,WF13 4PL,Kirklees,Yorkshire and The Humber,53.704577,-1.656826,200,OK
53.194983,-2.88607,CH1 3DZ,Cheshire West and Chester,North West,53.194981,-2.886309,200,OK
51.5385,-3.459812,CF72 9QZ,Rhondda Cynon Taf,,51.538518,-3.459798,200,OK
51.671504,-2.914168,,,,,,200,OK
53.438565,-2.201134,M19 2JD,Manchester,North West,53.438565,-2.201134,200,OK
53.83944,-0.981429,YO8 5DE,North Yorkshire,Yorkshire and The Humber,53.83944,-0.981429,200,OK
54.377036,-2.989857,LA22 0JS,Westmorland and Furness,North West,54.376483,-2.989335,200,OK
56.126392,-3.287828,KY5 9HG,Fife,,56.126392,-3.287828,200,OK
54.741039,-3.05058,CA7 8EX,Cumberland,North West,54.741039,-3.05058,200,OK
51.408622,-0.277148,KT1 3SB,Kingston upon Thames,London,51.408622,-0.277148,200,OK
51.412359,-3.2581,CF63 1BU,Vale of Glamorgan,,51.412458,-3.258132,200,OK
51.529682,-0.104233,EC1V 7NR,Islington,London,51.529459,-0.103795,200,OK
54.616292,-1.293855,TS23 2TB,Stockton-on-Tees,North East,54.616202,-1.295312,200,OK
54.981501,-1.622718,NE2 4AZ,Newcastle upon Tyne,North East,54.981501,-1.622718,200,OK
51.748553,-2.248908,GL5 4RF,Stroud,South West,51.748553,-2.248908,200,OK
51.472887,-2.526632,BS16 3QS,"Bristol, City of",South West,51.47284,-2.526575,200,OK
51.549817,0.073282,IG1 2HY,Redbridge,London,51.549817,0.073282,200,OK
50.896674,-1.389037,SO14 3QF,Southampton,South East,50.896674,-1.389037,200,OK
52.486678,-1.161888,LE17 5LU,Harborough,East Midlands,52.486678,-1.161888,200,OK
56.467412,-2.879277,DD5 1HD,Dundee City,,56.467412,-2.879277,200,OK
51.993015,-0.07983,SG9 0QU,North Hertfordshire,East of England,51.993015,-0.07983,200,OK
55.809858,-4.381109,G78 1FG,East Renfrewshire,,55.809867,-4.381094,200,OK
54.987707,-1.535833,NE28 6RQ,North Tyneside,North East,54.988218,-1.535452,200,OK
50.705177,-3.080135,EX12 2JX,East Devon,South West,50.705177,-3.080135,200,OK
51.801055,-1.074585,HP18 9QY,Buckinghamshire,South East,51.801055,-1.074585,200,OK
54.006257,-0.439676,YO25 6UH,East Riding of Yorkshire,Yorkshire and The Humber,54.006257,-0.439676,200,OK
53.082826,-2.200888,ST7 4QH,Stoke-on-Trent,West Midlands,53.082826,-2.200888,200,OK
51.467119,-3.180425,CF11 7AX,Cardiff,,51.466976,-3.180393,200,OK
51.14656,0.875648,TN23 9AB,Ashford,South East,51.14656,0.875648,200,OK
51.896151,-1.200035,OX26 1TD,Cherwell,South East,51.896561,-1.199748,200,OK
53.242146,-4.140097,LL59 5UD,Isle of Anglesey,,53.242146,-4.140097,200,OK
51.693515,-0.41036,WD25 7BX,Three Rivers,East of England,51.693941,-0.409969,200,OK
51.744406,-1.229614,OX4 3BS,Oxford,South East,51.74413,-1.23001,200,OK
54.562123,-0.985819,TS12 2HS,Redcar and Cleveland,North East,54.562123,-0.985819,200,OK
52.886128,-1.412532,DE24 0UW,Derby,East Midlands,52.886128,-1.412532,200,OK
51.819095,-2.264846,GL2 2GY,Gloucester,South West,51.819095,-2.264846,200,OK
51.281065,-0.866562,GU51 5EF,Hart,South East,51.281204,-0.866028,200,OK
51.692735,-3.900625,SA6 5EH,Swansea,,51.692735,-3.900625,200,OK
54.693336,-1.366941,TS28 5NS,County Durham,North East,54.693336,-1.366941,200,OK
50.739605,-1.876372,BH9 1AB,"Bournemouth, Christchurch and Poole",South West,50.739605,-1.876372,200,OK
56.065146,-3.244168,KY3 0JW,Fife,,56.065146,-3.244168,200,OK
55.971979,-3.224992,EH5 2GH,City of Edinburgh,,55.971979,-3.224992,200,OK
53.538917,-2.08446,OL4 3BA,Oldham,North West,53.538953,-2.084113,200,OK
50.150208,-5.071158,TR11 4QS,Cornwall,South West,50.150208,-5.071158,200,OK
52.606435,-1.940994,WS9 8ER,Walsall,West Midlands,52.606444,-1.94098,200,OK
51.632767,-3.355985,CF37 3ED,Rhondda Cynon Taf,,51.632767,-3.355985,200,OK
52.764626,-2.382209,TF10 7HQ,Telford and Wrekin,West Midlands,52.764626,-2.382209,200,OK
51.137672,-0.876496,GU35 9ND,East Hampshire,South East,51.137559,-0.876353,200,OK
53.866362,-1.433807,LS14 3AH,Leeds,Yorkshire and The Humber,53.866362,-1.433807,200,OK
52.394251,-1.45039,CV3 2LP,Coventry,West Midlands,52.394251,-1.45039,200,OK
55.876372,-5.40727,PA29 6AA,Argyll and Bute,,55.876372,-5.40727,200,OK
51.595418,-1.236294,OX11 9JZ,South Oxfordshire,South East,51.595418,-1.236294,200,OK
51.603226,-0.173056,N12 0AH,Barnet,London,51.603226,-0.173056,200,OK
51.062008,-4.011786,EX32 0JB,North Devon,South West,51.062008,-4.011786,200,OK
53.866789,-0.667351,YO43 3BA,East Riding of Yorkshire,Yorkshire and The Humber,53.866609,-0.66725,200,OK
51.627792,-0.579385,HP8 4DE,Buckinghamshire,South East,51.627792,-0.579385,200,OK
54.526118,-1.556664,DL3 7JE,Darlington,North East,54.526054,-1.556526,200,OK
53.537778,-2.139546,OL9 8QS,Oldham,North West,53.537778,-2.139546,200,OK
51.461285,-2.605393,BS8 1TA,"Bristol, City of",South West,51.461285,-2.605393,200,OK
53.336645,-1.003343,DN22 8JW,Bassetlaw,East Midlands,53.336645,-1.003343,200,OK
52.895315,-2.870741,SY12 0HS,Shropshire,West Midlands,52.895315,-2.870741,200,OK
50.342366,-5.11006,TR4 9QD,Cornwall,South West,50.342366,-5.11006,200,OK
52.695917,-2.560974,TF6 5DW,Telford and Wrekin,West Midlands,52.695917,-2.560974,200,OK
51.961319,0.992599,CO7 6DJ,Colchester,East of England,51.961376,0.99317,200,OK
51.003195,-0.106576,RH16 1BG,Mid Sussex,South East,51.003195,-0.106576,200,OK
53.72598,-2.508761,BB2 4QU,Blackburn with Darwen,North West,53.72598,-2.508761,200,OK
52.954119,0.855543,NR23 1FE,North Norfolk,East of England,52.954119,0.855543,200,OK
51.040574,-3.653945,EX36 3NZ,North Devon,South West,51.040574,-3.653945,200,OK
50.709646,-1.308783,PO30 5SD,Isle of Wight,South East,50.709646,-1.308783,200,OK
51.693726,-0.734016,HP16 0SU,Buckinghamshire,South East,51.693437,-0.734762,200,OK
52.039174,1.091909,IP8 3JE,Babergh,East of England,52.038739,1.090873,200,OK
52.481124,-2.124799,DY5 3EU,Dudley,West Midlands,52.48072,-2.124665,200,OK
51.51109,-0.154162,W1K 2DS,Westminster,London,51.51109,-0.154162,200,OK
53.772922,-2.707439,PR1 1US,Preston,North West,53.772922,-2.707439,200,OK
51.168607,-1.763555,SP4 7SB,Wiltshire,South West,51.168607,-1.763555,200,OK
50.894706,-2.240016,DT11 0SY,Dorset,South West,50.894706,-2.240016,200,OK
52.473566,-1.80121,,,,,,200,OK
51.210205,-3.475875,TA24 5PH,Somerset,South West,51.210134,-3.475773,200,OK
51.507631,-0.131087,SW1Y 5EA,Westminster,London,51.507369,-0.131461,200,OK
51.831392,-1.30101,OX5 1BF,Cherwell,South East,51.831392,-1.30101,200,OK
51.596189,-1.24581,OX11 8SU,South Oxfordshire,South East,51.596189,-1.24581,200,OK
55.959709,-2.964651,EH32 9RL,East Lothian,,55.959709,-2.964651,200,OK
55.661452,-3.527701,ML12 6RD,South Lanarkshire,,55.661452,-3.527701,200,OK
50.782731,-1.965664,BH21 1TW,"Bournemouth, Christchurch and Poole",South West,50.782731,-1.965664,200,OK
54.626212,-5.934475,BT15 3SN,Belfast,,54.626212,-5.934475,200,OK
51.164748,-1.767193,SP4 7YE,Wiltshire,South West,51.164748,-1.767193,200,OK
51.510089,-0.138624,W1S 3DS,Westminster,London,51.510089,-0.138624,200,OK
50.902255,-2.254588,DT11 0QS,Dorset,South West,50.902255,-2.254588,200,OK
52.231398,0.123126,CB4 2XL,Cambridge,East of England,52.231398,0.123126,200,OK
51.770571,0.497904,CM3 3GH,Chelmsford,East of England,51.770649,0.498024,200,OK
51.65456,-0.409598,WD18 7DT,Watford,East of England,51.65456,-0.409598,200,OK
53.195471,-0.025097,LN9 6PB,East Lindsey,East Midlands,53.195471,-0.025097,200,OK
55.092093,-3.579528,,,,,,200,OK
53.600529,-2.865825,L40 8JU,West Lancashire,North West,53.600453,-2.866079,200,OK
52.573711,-2.14397,WV3 0LW,Wolverhampton,West Midlands,52.573711,-2.14397,200,OK
55.91227,-4.353971,G15 7QW,Glasgow City,,55.91227,-4.353971,200,OK
53.209959,-0.550728,LN5 8NX,Lincoln,East Midlands,53.209959,-0.550728,200,OK
53.839288,-0.408745,HU17 0UH,East Riding of Yorkshire,Yorkshire and The Humber,53.839288,-0.408745,200,OK
51.447983,0.108559,DA15 9HH,Bexley,London,51.447983,0.108559,200,OK
52.622481,-2.353227,TF11 9JL,Shropshire,West Midlands,52.622481,-2.353227,200,OK
52.398791,-1.456089,CV3 2FX,Coventry,West Midlands,52.398791,-1.456089,200,OK
52.590743,-1.819782,B75 5LE,Birmingham,West Midlands,52.590785,-1.819671,200,OK
51.467302,-0.278048,TW9 4QR,Richmond upon Thames,London,51.467302,-0.278048,200,OK
53.67357,-2.945342,PR9 8RL,Sefton,North West,53.67357,-2.945342,200,OK
53.54911,-2.665699,WN5 0QJ,Wigan,North West,53.54911,-2.665699,200,OK
51.757171,-0.55987,HP4 2JS,Dacorum,East of England,51.757171,-0.55987,200,OK
51.605005,-1.774642,SN25 5DL,Swindon,South West,51.605086,-1.774974,200,OK
55.933907,-3.112315,EH15 3HH,City of Edinburgh,,55.933907,-3.112315,200,OK
51.42504,0.097158,DA14 6FG,Bexley,London,51.42504,0.097158,200,OK
51.396609,-2.449445,BS31 3JU,Bath and North East Somerset,South West,51.396439,-2.448969,200,OK
53.752309,-2.71574,PR1 8HB,Preston,North West,53.752309,-2.71574,200,OK
51.522596,-0.066226,E1 5FA,Tower Hamlets,London,51.522596,-0.066226,200,OK
51.581223,-0.568281,SL9 7PB,Buckinghamshire,South East,51.581718,-0.568323,200,OK
54.840693,-1.464571,DH5 8GZ,Sunderland,North East,54.840693,-1.464571,200,OK
53.059346,-0.813385,NG24 4NA,Newark and Sherwood,East Midlands,53.059346,-0.813385,200,OK
51.546443,-0.087585,N1 2QH,Islington,London,51.546443,-0.087585,200,OK
53.542323,-2.117227,OL1 9SB,Oldham,North West,53.542323,-2.117227,200,OK
52.224627,-0.675199,NN29 7NA,North Northamptonshire,East Midlands,52.224627,-0.675199,200,OK
53.261839,-1.896296,SK17 7LD,High Peak,East Midlands,53.261839,-1.896296,200,OK
53.795824,-1.229054,LS25 6QX,North Yorkshire,Yorkshire and The Humber,53.796381,-1.229059,200,OK
53.235963,-1.442964,S40 1BP,Chesterfield,East Midlands,53.235963,-1.442964,200,OK
54.528427,-1.579792,DL3 9BD,Darlington,North East,54.528427,-1.579792,200,OK
51.323033,-0.597446,GU21 3RX,Woking,South East,51.323033,-0.597446,200,OK
53.576698,-1.777232,HD9 1AL,Kirklees,Yorkshire and The Humber,53.576731,-1.777202,200,OK
54.513031,-1.17321,TS7 0GD,Middlesbrough,North East,54.513031,-1.17321,200,OK
51.419921,-0.758176,RG42 1PX,Bracknell Forest,South East,51.419921,-0.758176,200,OK
50.910722,-3.47638,EX16 6HJ,Mid Devon,South West,50.911111,-3.476336,200,OK
51.472946,-0.347801,TW7 4HB,Hounslow,London,51.472946,-0.347801,200,OK
50.976306,-1.332013,SO50 6ET,Eastleigh,South East,50.976306,-1.332013,200,OK
50.822409,-0.422718,BN12 6HU,Worthing,South East,50.822409,-0.422718,200,OK
51.645874,-0.027856,EN3 7SR,Enfield,London,51.646435,-0.027964,200,OK
52.132758,-0.470281,MK42 5SA,Bedford,East of England,52.132758,-0.470281,200,OK
51.454921,-2.561715,BS5 9SX,"Bristol, City of",South West,51.454921,-2.561715,200,OK
51.509738,-0.598807,SL1 2JS,Slough,South East,51.509738,-0.598807,200,OK
51.433142,-0.042685,SE23 2QH,Lewisham,London,51.433142,-0.042685,200,OK
52.613314,-1.107913,LE2 3HL,Leicester,East Midlands,52.613464,-1.108655,200,OK
52.907558,-1.259524,NG9 6FF,Broxtowe,East Midlands,52.907558,-1.259524,200,OK
51.366416,-2.544385,BS39 4AY,Bath and North East Somerset,South West,51.366407,-2.544384,200,OK
51.668688,-1.044452,OX49 5AZ,South Oxfordshire,South East,51.668688,-1.044452,200,OK
51.910447,-0.636476,LU7 4ED,Central Bedfordshire,East of England,51.91043,-0.636492,200,OK
51.614689,-0.708441,HP11 1HQ,Buckinghamshire,South East,51.614689,-0.708441,200,OK
51.379378,0.52867,ME4 4HJ,Medway,South East,51.379378,0.52867,200,OK
52.439776,-1.845744,B28 8AY,Birmingham,West Midlands,52.439736,-1.845694,200,OK
51.123805,-0.006303,RH19 3AX,Mid Sussex,South East,51.123805,-0.006303,200,OK
52.883005,-1.395604,DE72 3EY,South Derbyshire,East Midlands,52.883005,-1.395604,200,OK
51.459192,0.090765,DA16 2QD,Bexley,London,51.459192,0.090765,200,OK
57.647859,-3.31114,IV30 1LF,Moray,,57.647784,-3.311388,200,OK
52.203738,-2.230492,WR1 3JF,Worcester,West Midlands,52.203738,-2.230492,200,OK
54.005175,-1.301291,YO26 8WQ,North Yorkshire,Yorkshire and The Humber,54.005147,-1.301139,200,OK
51.392611,0.473766,ME2 2YT,Medway,South East,51.392611,0.473766,200,OK
53.338807,-2.691794,WA7 2ST,Halton,North West,53.338823,-2.691795,200,OK
55.904599,-4.195695,G64 1GW,East Dunbartonshire,,55.904599,-4.195695,200,OK
51.464696,-2.108749,SN15 3SL,Wiltshire,South West,51.464696,-2.108749,200,OK
51.655022,-0.200846,EN5 5FZ,Barnet,London,51.655022,-0.200846,200,OK
51.408213,-2.50553,BS31 2PW,Bath and North East Somerset,South West,51.408204,-2.505544,200,OK
52.278092,-0.647074,NN29 7BW,North Northamptonshire,East Midlands,52.278384,-0.646699,200,OK
52.45278,-2.05104,B63 3SL,Dudley,West Midlands,52.45278,-2.05104,200,OK
55.545213,-2.015789,NE71 6NA,Northumberland,North East,55.545213,-2.015789,200,OK
50.786495,-0.985925,PO11 9AB,Havant,South East,50.786495,-0.985925,200,OK
53.991922,-1.534236,HG1 5PG,North Yorkshire,Yorkshire and The Humber,53.991929,-1.534348,200,OK
51.514173,-0.146673,W1S 1SJ,Westminster,London,51.514129,-0.146732,200,OK
53.763531,-3.018312,FY8 3EP,Fylde,North West,53.763531,-3.018312,200,OK
54.601792,-5.928268,BT1 2FG,Belfast,,54.601655,-5.928104,200,OK
51.50579,0.117942,SE28 8LQ,Greenwich,London,51.505678,0.11772,200,OK
57.507351,-1.806879,AB42 1WW,Aberdeenshire,,57.507351,-1.806879,200,OK
53.376044,-1.229164,S25 3QF,Rotherham,Yorkshire and The Humber,53.376044,-1.229164,200,OK
51.461591,-0.061421,SE15 3UH,Southwark,London,51.461592,-0.061395,200,OK
51.302111,-0.691742,,,,,,200,OK
51.389221,0.106171,BR5 2FH,Bromley,London,51.389221,0.106171,200,OK
51.476438,-0.105952,SW9 6SE,Lambeth,London,51.476438,-0.105952,200,OK
52.475139,-1.966654,B66 4AJ,Sandwell,West Midlands,52.475139,-1.966654,200,OK
52.479328,-1.470749,CV12 8HY,Nuneaton and Bedworth,West Midlands,52.479328,-1.470749,200,OK
57.504246,-1.781398,AB42 1EB,Aberdeenshire,,57.504246,-1.781398,200,OK
55.554405,-3.841528,ML11 0RF,South Lanarkshire,,55.554405,-3.841528,200,OK
53.416221,-2.225734,M20 6RY,Manchester,North West,53.416221,-2.225734,200,OK
52.618454,-1.960933,WS4 1DF,Walsall,West Midlands,52.618454,-1.960933,200,OK
52.390178,-1.420199,CV3 2JX,Rugby,West Midlands,52.390178,-1.420199,200,OK
54.058154,-0.87707,YO60 7PB,North Yorkshire,Yorkshire and The Humber,54.058154,-0.87707,200,OK
53.443318,-1.504588,S35 8NQ,Sheffield,Yorkshire and The Humber,53.443309,-1.504544,200,OK
51.396942,-0.735886,RG12 0PE,Bracknell Forest,South East,51.396911,-0.735527,200,OK
51.808702,0.752395,CO5 0AB,Colchester,East of England,51.808702,0.752395,200,OK
53.006509,-1.196417,NG6 8GL,Nottingham,East Midlands,53.006546,-1.196383,200,OK
53.672223,-1.883714,HX4 9EB,Calderdale,Yorkshire and The Humber,53.672223,-1.883714,200,OK
53.517345,-2.027455,OL5 9JU,Tameside,North West,53.517345,-2.027455,200,OK
53.463123,-2.755269,WA10 6TQ,St. Helens,North West,53.463123,-2.755269,200,OK
52.913015,-1.486017,DE22 3TW,Derby,East Midlands,52.913051,-1.486072,200,OK
53.767186,-1.783098,BD6 3QA,Bradford,Yorkshire and The Humber,53.767186,-1.783098,200,OK
55.8907,-4.320358,G12 0FB,Glasgow City,,55.8907,-4.320358,200,OK
53.402871,-3.075394,CH43 7QS,Wirral,North West,53.402039,-3.074982,200,OK
54.530975,-6.075257,BT28 3AZ,Lisburn and Castlereagh,,54.530975,-6.075257,200,OK
51.487262,-0.977027,RG4 8QW,Reading,South East,51.487262,-0.977027,200,OK
51.437114,-0.053321,SE23 1NS,Lewisham,London,51.437114,-0.053321,200,OK
51.393754,-2.866463,BS21 6XG,North Somerset,South West,51.393754,-2.866463,200,OK
51.824567,-1.281397,OX5 2EJ,Cherwell,South East,51.824567,-1.281397,200,OK
51.799238,-0.190509,AL7 1LP,Welwyn Hatfield,East of England,51.799238,-0.190509,200,OK
52.46244,-1.742607,B37 7FZ,Solihull,West Midlands,52.46244,-1.742607,200,OK
52.570561,0.517362,PE33 9SY,King's Lynn and West Norfolk,East of England,52.570561,0.517362,200,OK
52.342337,-2.058361,B61 0AL,Bromsgrove,West Midlands,52.342337,-2.058361,200,OK
50.708436,-1.29926,PO30 5TB,Isle of Wight,South East,50.708616,-1.299229,200,OK
53.164372,0.343846,PE25 1EY,East Lindsey,East Midlands,53.164372,0.343846,200,OK
51.845879,-2.354208,GL2 8BT,Forest of Dean,South West,51.845086,-2.354783,200,OK
52.396539,-1.943581,B38 9SF,Birmingham,West Midlands,52.396539,-1.943581,200,OK
51.757842,0.621946,CM9 6QP,Maldon,East of England,51.757842,0.621946,200,OK
55.793787,-4.301699,G46 6RE,East Renfrewshire,,55.793787,-4.301699,200,OK
52.708731,-2.489087,TF1 6PT,Telford and Wrekin,West Midlands,52.708498,-2.488921,200,OK
51.400313,-0.25706,KT3 3PT,Kingston upon Thames,London,51.400313,-0.25706,200,OK
51.697378,-0.392268,WD25 7HN,Watford,East of England,51.697378,-0.392268,200,OK
52.053622,-0.84492,MK11 1ER,Milton Keynes,South East,52.053609,-0.84543,200,OK
53.781795,-1.071897,YO8 4AD,North Yorkshire,Yorkshire and The Humber,53.781759,-1.071913,200,OK
51.453056,-1.058559,RG31 5ND,West Berkshire,South East,51.453056,-1.058559,200,OK
51.251605,-0.952231,RG29 1PG,Hart,South East,51.251614,-0.95223,200,OK
52.012598,-0.72645,MK1 1FA,Milton Keynes,South East,52.012598,-0.72643,200,OK
51.361108,-1.139627,,,,,,200,OK
52.238719,-0.92799,NN5 5AF,West Northamptonshire,East Midlands,52.239239,-0.927129,200,OK
53.829021,-1.758394,BD18 1HU,Bradford,Yorkshire and The Humber,53.828958,-1.758319,200,OK
52.258732,-0.027608,CB23 4LS,South Cambridgeshire,East of England,52.258732,-0.027608,200,OK
51.10106,1.214003,CT18 7LA,Dover,South East,51.10106,1.214003,200,OK
51.467767,-0.110875,SW9 7BP,Lambeth,London,51.467767,-0.110875,200,OK
57.617345,-2.105325,,,,,,200,OK
51.582837,-0.005949,E17 9EY,Waltham Forest,London,51.582837,-0.005934,200,OK
50.356316,-4.122458,PL9 9TP,Plymouth,South West,50.356316,-4.122458,200,OK
52.496733,-2.033776,B69 1HY,Sandwell,West Midlands,52.496733,-2.033776,200,OK
50.434945,-4.115046,PL6 7EN,Plymouth,South West,50.434945,-4.115046,200,OK
51.587215,-2.996164,NP20 1JN,Newport,,51.587215,-2.996164,200,OK
54.537994,-1.576031,DL3 0LQ,Darlington,North East,54.537994,-1.576031,200,OK
52.058488,1.118601,IP2 0DG,Babergh,East of England,52.058488,1.118601,200,OK
50.420988,-4.129192,PL6 6AF,Plymouth,South West,50.420988,-4.129192,200,OK
54.926952,-7.129398,,,,,,200,OK
51.762908,-2.528568,GL15 4TF,Forest of Dean,South West,51.763052,-2.528685,200,OK
51.470326,-0.084549,SE5 8PP,Southwark,London,51.470326,-0.084549,200,OK
53.467049,-1.49199,S35 4NS,Sheffield,Yorkshire and The Humber,53.467049,-1.491929,200,OK
52.432975,-1.842664,B28 9AS,Birmingham,West Midlands,52.432975,-1.842664,200,OK
52.586328,-1.808184,B75 6NB,Birmingham,West Midlands,52.586328,-1.808184,200,OK
52.305197,-1.938358,B97 9ZR,Redditch,West Midlands,52.305212,-1.93835,200,OK
51.418556,0.564993,ME3 9AZ,Medway,South East,51.418556,0.564993,200,OK
52.749216,0.404091,PE30 5RU,King's Lynn and West Norfolk,East of England,52.749216,0.404091,200,OK
52.149749,1.463847,IP12 2JY,East Suffolk,East of England,52.149749,1.463847,200,OK
51.467015,-3.586251,CF32 0TA,Vale of Glamorgan,,51.467015,-3.586251,200,OK
51.6482,-2.42272,GL12 8HA,Stroud,South West,51.6482,-2.42272,200,OK
51.229121,-1.477217,SP10 5ND,Test Valley,South East,51.228694,-1.478095,200,OK
51.44662,0.023112,SE12 9BE,Greenwich,London,51.44662,0.023112,200,OK
53.554918,-1.485233,S70 2JT,Barnsley,Yorkshire and The Humber,53.554759,-1.485793,200,OK
53.503761,-2.453101,M29 7UZ,Wigan,North West,53.503743,-2.453085,200,OK
53.751513,-1.469397,LS26 0EU,Leeds,Yorkshire and The Humber,53.752296,-1.469554,200,OK
52.370226,-2.71899,SY8 1DA,Shropshire,West Midlands,52.370226,-2.71899,200,OK
55.005144,-1.715333,NE5 1YL,Newcastle upon Tyne,North East,55.005144,-1.715333,200,OK
51.695557,-3.893509,SA6 5LJ,Swansea,,51.695571,-3.893541,200,OK
53.53321,-2.681623,WN5 8BN,Wigan,North West,53.53321,-2.681623,200,OK
53.281772,-3.79983,,,,,,200,OK
50.909568,-1.290225,SO30 2NX,Eastleigh,South East,50.909568,-1.290225,200,OK
52.57485,-1.01868,,,,,,200,OK
55.497165,-1.63802,NE66 3XL,Northumberland,North East,55.497165,-1.63802,200,OK
51.563003,0.697427,SS2 6SX,Southend-on-Sea,East of England,51.563057,0.69743,200,OK
50.924308,-1.456352,SO16 9DH,Southampton,South East,50.924308,-1.456352,200,OK
57.152958,-2.125685,AB25 2HW,Aberdeen City,,57.152958,-2.125685,200,OK
52.134128,-0.483706,MK40 4LN,Bedford,East of England,52.134157,-0.483596,200,OK
51.209624,-2.645233,BA5 2RF,Somerset,South West,51.209624,-2.645233,200,OK
53.495596,-2.27415,M6 6BB,Salford,North West,53.495596,-2.27415,200,OK
51.803144,-2.449447,GL14 1BA,Forest of Dean,South West,51.803144,-2.449447,200,OK
51.211584,0.287501,TN10 4QZ,Tonbridge and Malling,South East,51.211584,0.287501,200,OK
53.667474,-2.603845,PR6 9AZ,Chorley,North West,53.667474,-2.603845,200,OK
51.026012,-4.218796,EX39 3NR,Torridge,South West,51.026012,-4.218796,200,OK
50.719336,-1.869045,BH1 3AU,"Bournemouth, Christchurch and Poole",South West,50.719336,-1.869045,200,OK
51.766728,-3.712605,SA10 9DN,Neath Port Talbot,,51.766697,-3.712646,200,OK
54.045646,-1.605796,HG3 3EF,North Yorkshire,Yorkshire and The Humber,54.045646,-1.605796,200,OK
51.24055,1.188282,CT3 3JW,Canterbury,South East,51.24059,1.188357,200,OK
53.576875,-2.435654,BL1 4TU,Bolton,North West,53.576875,-2.435654,200,OK
52.221706,-0.952013,NN4 9EL,West Northamptonshire,East Midlands,52.221969,-0.952314,200,OK
51.25542,-1.602418,SP11 9PL,Wiltshire,South West,51.25542,-1.602418,200,OK
53.796135,-1.763289,BD1 2HF,Bradford,Yorkshire and The Humber,53.796207,-1.763441,200,OK
51.765947,-1.268677,OX2 6RN,Oxford,South East,51.765947,-1.268677,200,OK
53.78693,-1.512754,LS9 0SD,Leeds,Yorkshire and The Humber,53.787236,-1.512811,200,OK
55.615646,-4.273952,KA17 0BH,East Ayrshire,,55.615646,-4.273952,200,OK
53.466513,-2.256052,M15 5JF,Manchester,North West,53.466513,-2.256052,200,OK
51.615616,-0.06525,N18 2UB,Enfield,London,51.615616,-0.06525,200,OK
50.352668,-4.939623,TR2 4HB,Cornwall,South West,50.352668,-4.939623,200,OK
51.729832,-0.341926,AL2 2NN,St Albans,East of England,51.729832,-0.341926,200,OK
52.345928,-1.735685,B94 6HP,Warwick,West Midlands,52.345928,-1.735685,200,OK
51.944539,0.038342,,,,,,200,OK
50.619327,-2.516188,DT3 4EE,Dorset,South West,50.619327,-2.516188,200,OK
52.218964,0.932896,IP14 3JY,Mid Suffolk,East of England,52.218964,0.932896,200,OK
52.683423,-1.912578,WS7 9LQ,Lichfield,West Midlands,52.683423,-1.912578,200,OK
51.442239,-0.403099,TW13 7EA,Hounslow,London,51.441989,-0.40259,200,OK
51.662462,-0.400169,WD17 1RN,Watford,East of England,51.662453,-0.400184,200,OK
51.43813,-2.845123,BS21 6BN,North Somerset,South West,51.43813,-2.845123,200,OK
51.722689,-2.229743,GL5 5PN,Stroud,South West,51.722689,-2.229743,200,OK
51.325226,-0.95453,RG27 8JJ,Hart,South East,51.325226,-0.95453,200,OK
51.556608,-0.123973,N7 0NQ,Islington,London,51.556656,-0.124003,200,OK
51.113812,0.186523,TN3 9RA,Wealden,South East,51.113839,0.186496,200,OK
52.630171,-1.129762,LE1 6HW,Leicester,East Midlands,52.630171,-1.129762,200,OK
53.214842,-0.600059,LN6 3QQ,Lincoln,East Midlands,53.214842,-0.600059,200,OK
53.055332,-0.897929,NG25 0UJ,Newark and Sherwood,East Midlands,53.055332,-0.897929,200,OK
53.902192,-1.5128,LS17 9LJ,Leeds,Yorkshire and The Humber,53.902318,-1.513185,200,OK
55.168079,-1.59454,NE62 5YP,Northumberland,North East,55.168079,-1.59454,200,OK
51.591968,-0.678698,HP10 0AU,Buckinghamshire,South East,51.592305,-0.677504,200,OK
53.520572,-1.414519,S73 8PP,Barnsley,Yorkshire and The Humber,53.520572,-1.414519,200,OK
51.540113,-0.395999,UB5 5JW,Ealing,London,51.540113,-0.395999,200,OK
52.374897,-0.093028,PE28 3BB,Huntingdonshire,East of England,52.374897,-0.093028,200,OK
53.529698,-2.092271,OL8 2HY,Oldham,North West,53.529698,-2.092271,200,OK
51.586755,0.43487,SS15 4ET,Basildon,East of England,51.586755,0.43487,200,OK
53.474339,-1.082158,DN11 0LJ,Doncaster,Yorkshire and The Humber,53.474339,-1.082158,200,OK
51.832589,-0.803372,HP19 0GE,Buckinghamshire,South East,51.83258,-0.803387,200,OK
54.607185,-5.879082,BT4 1QT,Belfast,,54.607185,-5.879082,200,OK
53.698796,-1.718276,WF15 8AZ,Kirklees,Yorkshire and The Humber,53.698796,-1.718276,200,OK
51.297195,-0.356614,KT22 9JF,Mole Valley,South East,51.297195,-0.356614,200,OK
53.420485,-2.914166,L13 6QQ,Liverpool,North West,53.420485,-2.914166,200,OK
51.551852,0.545842,SS7 5DT,Castle Point,East of England,51.551758,0.545835,200,OK
51.735406,-3.146856,,,,,,200,OK
53.513843,-2.128638,OL8 3PQ,Oldham,North West,53.51387,-2.128548,200,OK
51.503998,-3.196089,CF14 3JR,Cardiff,,51.504017,-3.19617,200,OK
50.605282,-2.468324,DT4 0DW,Dorset,South West,50.605282,-2.468324,200,OK
53.824546,-2.240382,BB9 5PX,Pendle,North West,53.82447,-2.240748,200,OK
53.305683,-3.245956,CH8 9EF,Flintshire,,53.305683,-3.245956,200,OK
54.088221,-0.182549,YO15 2LD,East Riding of Yorkshire,Yorkshire and The Humber,54.088221,-0.182549,200,OK
52.656397,-1.934511,WS8 7NY,Walsall,West Midlands,52.656397,-1.934511,200,OK
52.725682,-1.034696,LE7 4YX,Charnwood,East Midlands,52.725682,-1.034696,200,OK
51.557765,-0.144685,NW5 1BX,Camden,London,51.55787,-0.144522,200,OK
51.175642,0.384915,TN12 6DZ,Tunbridge Wells,South East,51.175642,0.384915,200,OK
51.317461,-0.151297,CR5 3DS,Croydon,London,51.317461,-0.151297,200,OK
51.329015,-0.770491,GU15 3DT,Surrey Heath,South East,51.329161,-0.770688,200,OK
52.578566,-0.207513,PE1 5FL,Peterborough,East of England,52.578566,-0.207513,200,OK
51.425641,-0.012165,SE6 3NX,Lewisham,London,51.425586,-0.013203,200,OK
51.638215,-0.473142,WD3 1BN,Three Rivers,East of England,51.638215,-0.473142,200,OK
53.107491,-2.455256,CW1 3ZD,Cheshire East,North West,53.107491,-2.455256,200,OK
53.475769,-1.078737,DN11 0SP,Doncaster,Yorkshire and The Humber,53.475769,-1.078737,200,OK
51.595892,-1.802721,SN25 4WX,Swindon,South West,51.595892,-1.802721,200,OK
55.016729,-7.319925,BT48 7QU,Derry City and Strabane,,55.016729,-7.319925,200,OK
53.325434,-2.240312,SK9 5EU,Cheshire East,North West,53.325434,-2.240312,200,OK
54.557773,-2.717161,CA10 2QU,Westmorland and Furness,North West,54.557998,-2.716921,200,OK
53.536238,-2.125826,OL8 1TS,Oldham,North West,53.536238,-2.125826,200,OK
51.448705,-0.024767,SE6 4EA,Lewisham,London,51.448787,-0.024332,200,OK
52.888748,-1.472838,DE24 9BD,Derby,East Midlands,52.888748,-1.472838,200,OK
53.539719,-2.722651,WN8 0NL,West Lancashire,North West,53.539719,-2.722651,200,OK
50.789585,-0.974125,PO11 9BP,Havant,South East,50.789585,-0.974125,200,OK
51.481438,-0.208431,SW6 7HD,Hammersmith and Fulham,London,51.481438,-0.208431,200,OK
53.541255,-2.304775,M45 7PY,Bury,North West,53.54117,-2.305768,200,OK
57.266212,-2.17954,AB21 0UQ,Aberdeenshire,,57.266239,-2.179458,200,OK
53.366755,-2.848889,L25 9RE,Knowsley,North West,53.36721,-2.848101,200,OK
54.891812,-3.362714,CA7 4QZ,Cumberland,North West,54.891812,-3.362714,200,OK
54.1008,-6.246703,BT34 3NW,"Newry, Mourne and Down",,54.10077,-6.246521,200,OK
51.417799,-0.158009,CR4 2BL,Merton,London,51.417799,-0.158009,200,OK
55.771117,-3.920018,ML2 8AZ,North Lanarkshire,,55.771117,-3.920018,200,OK
53.586,-1.185726,DN6 8QE,Doncaster,Yorkshire and The Humber,53.586,-1.185726,200,OK
52.887843,-1.533765,DE23 3AN,South Derbyshire,East Midlands,52.887843,-1.533765,200,OK
53.367576,-2.999359,CH42 1PU,Wirral,North West,53.367205,-2.999621,200,OK
57.167648,-2.181906,AB16 7AG,Aberdeen City,,57.167639,-2.181906,200,OK
52.244768,-0.262787,PE19 6NU,Huntingdonshire,East of England,52.244768,-0.262787,200,OK
53.708644,-2.662792,PR5 6BY,Chorley,North West,53.708644,-2.662792,200,OK
53.448899,-1.396804,S61 3AD,Rotherham,Yorkshire and The Humber,53.448899,-1.396804,200,OK
53.570814,-2.636684,WN1 2SW,Wigan,North West,53.570694,-2.636651,200,OK
52.818667,-1.887688,WS15 3DE,East Staffordshire,West Midlands,52.818667,-1.887688,200,OK
56.122017,-3.346717,KY4 9EZ,Fife,,56.122017,-3.346717,200,OK
51.518879,-0.085799,EC2M 7LS,City of London,London,51.518717,-0.085679,200,OK
51.682143,-0.32579,WD7 8BT,Hertsmere,East of England,51.682824,-0.32562,200,OK
57.129405,-2.142024,AB15 7RY,Aberdeen City,,57.129405,-2.142024,200,OK
54.488322,-0.612452,YO22 4DJ,North Yorkshire,Yorkshire and The Humber,54.488322,-0.612452,200,OK
52.264355,-1.170701,NN11 9BX,West Northamptonshire,East Midlands,52.264355,-1.170701,200,OK
54.87085,-2.892643,CA1 3UA,Cumberland,North West,54.870542,-2.892933,200,OK
53.395504,-1.429335,S9 3TG,Sheffield,Yorkshire and The Humber,53.395396,-1.429306,200,OK
52.652887,1.269766,NR3 2PS,Norwich,East of England,52.652887,1.269766,200,OK
51.789522,-1.871992,GL54 3JZ,Cotswold,South West,51.789522,-1.871992,200,OK
53.026336,-1.465928,DE56 1RU,Amber Valley,East Midlands,53.026336,-1.465928,200,OK
53.918785,-1.101545,YO23 2RX,York,Yorkshire and The Humber,53.918785,-1.101545,200,OK
51.676393,-3.027537,NP4 5DD,Torfaen,,51.676393,-3.027537,200,OK
52.593028,0.953987,IP25 7TL,Breckland,East of England,52.593028,0.953987,200,OK
54.706641,-1.800184,DL15 8DP,County Durham,North East,54.706641,-1.800184,200,OK
53.922746,-2.179627,BB18 6EH,Pendle,North West,53.922782,-2.179643,200,OK
51.561919,0.184522,RM12 4DX,Havering,London,51.561919,0.184522,200,OK
50.717254,-1.110912,PO34 5HW,Isle of Wight,South East,50.717254,-1.110912,200,OK
55.862682,-3.998011,ML6 9AR,North Lanarkshire,,55.862682,-3.998011,200,OK
51.518081,-3.209127,CF14 6BQ,Cardiff,,51.518215,-3.209159,200,OK
55.708582,-4.731765,KA24 5ER,North Ayrshire,,55.708582,-4.731765,200,OK
53.780144,-2.236729,BB11 2HU,Burnley,North West,53.780144,-2.236729,200,OK
55.886956,-4.311741,G12 0BN,Glasgow City,,55.886809,-4.311924,200,OK
51.575613,-3.021611,NP20 3JB,Newport,,51.575592,-3.020889,200,OK
53.369479,-2.313707,WA15 8SS,Trafford,North West,53.369479,-2.313707,200,OK
51.370415,-0.793001,RG45 6LZ,Bracknell Forest,South East,51.370415,-0.793001,200,OK
51.460854,-0.059264,SE15 3UF,Southwark,London,51.460854,-0.059264,200,OK
54.945766,-1.647656,NE11 9XD,Gateshead,North East,54.945766,-1.647656,200,OK
51.927112,-2.442293,GL18 1NJ,Forest of Dean,South West,51.927112,-2.442293,200,OK
52.625228,1.29163,NR1 3SH,Norwich,East of England,52.625177,1.291455,200,OK
50.968114,0.109528,TN22 5HA,Wealden,South East,50.968101,0.109568,200,OK
55.820361,-3.931718,ML1 5TZ,North Lanarkshire,,55.820361,-3.931718,200,OK
50.79116,0.315014,BN23 6AD,Eastbourne,South East,50.79116,0.315014,200,OK
55.959389,-3.265104,EH4 3ST,City of Edinburgh,,55.959389,-3.265104,200,OK
51.168671,-2.930542,TA7 8DU,Somerset,South West,51.168671,-2.930542,200,OK
53.495393,-0.781307,DN9 1AS,North Lincolnshire,Yorkshire and The Humber,53.49504,-0.781905,200,OK
50.84012,-3.245641,EX14 3PX,East Devon,South West,50.84012,-3.245641,200,OK
51.380603,-2.358406,BA1 1ND,Bath and North East Somerset,South West,51.380603,-2.358406,200,OK
52.43757,-2.130957,DY9 0SW,Dudley,West Midlands,52.43757,-2.130957,200,OK
52.152098,1.600926,IP15 5AA,East Suffolk,East of England,52.152098,1.600926,200,OK
56.462231,-2.993166,DD1 5QA,Dundee City,,56.462231,-2.993166,200,OK
51.264003,0.53473,ME15 7AE,Maidstone,South East,51.264003,0.53473,200,OK
50.713582,-3.531495,EX2 8FE,Exeter,South West,50.713582,-3.531495,200,OK
51.829138,-2.502613,GL14 2TD,Forest of Dean,South West,51.829138,-2.502613,200,OK
51.543856,-0.269017,NW10 0RB,Brent,London,51.543856,-0.269017,200,OK
51.741712,-1.169279,OX33 1RL,South Oxfordshire,South East,51.741712,-1.169279,200,OK
51.58734,-0.002228,E17 3LA,Waltham Forest,London,51.587786,-0.003074,200,OK
50.83374,-0.232564,BN42 4AA,Adur,South East,50.83374,-0.232564,200,OK
51.35625,0.510532,ME4 6BU,Medway,South East,51.356193,0.5103,200,OK
54.996064,-3.251319,DG12 5HF,Dumfries and Galloway,,54.996064,-3.251319,200,OK
51.572536,0.259629,RM14 1PY,Havering,London,51.572536,0.259629,200,OK
55.995956,-3.810699,FK1 5DF,Falkirk,,55.995956,-3.810699,200,OK
51.913643,-0.205775,SG1 3QZ,Stevenage,East of England,51.913643,-0.205775,200,OK
53.02289,0.081899,PE22 9LP,Boston,East Midlands,53.02289,0.081899,200,OK
52.43793,-1.001793,LE16 9BF,West Northamptonshire,East Midlands,52.437769,-1.001973,200,OK
51.091003,-0.730764,GU27 1JQ,Waverley,South East,51.091423,-0.731324,200,OK
51.365008,1.116246,CT6 8QN,Canterbury,South East,51.365008,1.116246,200,OK
51.757626,-1.593071,OX18 1XZ,West Oxfordshire,South East,51.757626,-1.593071,200,OK
51.592235,-0.394929,HA5 2BD,Harrow,London,51.592207,-0.395356,200,OK
52.668054,-1.144552,LE4 2NF,Leicester,East Midlands,52.668054,-1.144552,200,OK
51.771962,-1.218822,OX3 9FW,Oxford,South East,51.771962,-1.218822,200,OK
52.698908,-2.530218,TF1 2BA,Telford and Wrekin,West Midlands,52.698908,-2.530218,200,OK
53.599865,-1.9253,HD7 6EU,Kirklees,Yorkshire and The Humber,53.599865,-1.9253,200,OK
51.31092,-0.563323,GU22 7TN,Woking,South East,51.31092,-0.563323,200,OK
54.527451,-1.548374,DL1 1SZ,Darlington,North East,54.527451,-1.548374,200,OK
54.974705,-1.519798,NE31 1NX,South Tyneside,North East,54.974705,-1.519798,200,OK
53.907491,-1.690465,LS21 1AJ,Leeds,Yorkshire and The Humber,53.907491,-1.690465,200,OK
51.585701,-2.998744,NP20 4DL,Newport,,51.585573,-2.999108,200,OK
52.448115,0.628399,IP27 0EA,West Suffolk,East of England,52.448115,0.628399,200,OK
51.505145,-3.121944,CF3 3HQ,Cardiff,,51.505145,-3.121944,200,OK
51.455373,-1.025135,RG30 4LJ,Reading,South East,51.455373,-1.025135,200,OK
51.397095,-0.281505,KT5 8LR,Kingston upon Thames,London,51.397095,-0.281505,200,OK
53.551656,-2.09333,OL1 4LG,Oldham,North West,53.551656,-2.09333,200,OK
51.512049,-0.132362,W1D 6LE,Westminster,London,51.512049,-0.132362,200,OK
50.14236,-5.305966,TR13 0BN,Cornwall,South West,50.141987,-5.305152,200,OK
51.203137,-2.645929,BA5 1FF,Somerset,South West,51.203033,-2.645355,200,OK
54.906839,-1.732995,NE16 6HW,County Durham,North East,54.906839,-1.732995,200,OK
53.524252,-2.494513,M46 0FD,Wigan,North West,53.524252,-2.494513,200,OK
51.780171,-0.005203,SG12 8EN,East Hertfordshire,East of England,51.780171,-0.005203,200,OK
53.749407,-1.897892,HX2 8LJ,Calderdale,Yorkshire and The Humber,53.749407,-1.897892,200,OK
51.460931,-2.115246,SN15 9TY,Wiltshire,South West,51.460931,-2.115246,200,OK
51.264405,-1.075503,RG21 4DF,Basingstoke and Deane,South East,51.264542,-1.075787,200,OK
50.947492,-3.762653,EX36 4NL,North Devon,South West,50.947492,-3.762653,200,OK
52.740777,-1.363875,LE67 5GD,North West Leicestershire,East Midlands,52.740777,-1.363875,200,OK
54.314014,-5.712094,BT30 6QJ,"Newry, Mourne and Down",,54.314014,-5.712094,200,OK
52.088561,-1.931723,WR11 3FA,Wychavon,West Midlands,52.088561,-1.931723,200,OK
52.526039,-1.863867,B23 7EQ,Birmingham,West Midlands,52.526039,-1.863867,200,OK
55.911551,-3.209599,EH10 6NZ,City of Edinburgh,,55.911491,-3.210253,200,OK
52.635414,1.356463,NR7 0XQ,Broadland,East of England,52.635457,1.356473,200,OK
51.690018,-0.931913,OX39 4RU,South Oxfordshire,South East,51.690018,-0.931913,200,OK
51.50522,-3.571182,CF31 9AL,Bridgend,,51.50522,-3.571182,200,OK
51.546921,0.710524,SS2 6LZ,Southend-on-Sea,East of England,51.546921,0.710524,200,OK
51.661987,-0.052576,EN1 4HB,Enfield,London,51.661987,-0.052576,200,OK
51.426702,-1.426063,,,,,,200,OK
52.585222,-0.228615,PE1 4AW,Peterborough,East of England,52.585222,-0.228615,200,OK
51.801576,-1.6345,OX18 4PH,West Oxfordshire,South East,51.801881,-1.634396,200,OK
52.296877,-0.005323,CB24 4RY,South Cambridgeshire,East of England,52.296868,-0.005324,200,OK
51.706985,-0.914834,OX39 4FB,South Oxfordshire,South East,51.706985,-0.914834,200,OK
51.528295,-0.896995,RG9 1ES,South Oxfordshire,South East,51.528295,-0.896995,200,OK
51.508229,-0.123454,WC2N 6DF,Westminster,London,51.508229,-0.123454,200,OK
52.272587,-0.754318,NN6 0JX,North Northamptonshire,East Midlands,52.272587,-0.754318,200,OK
53.420534,-2.317288,M33 3DG,Trafford,North West,53.420534,-2.317288,200,OK
52.686895,0.126617,PE13 5FL,Fenland,East of England,52.686944,0.126397,200,OK
51.431705,-0.500139,TW18 2BT,Spelthorne,South East,51.431705,-0.500139,200,OK
52.815555,-0.809143,LE14 4AW,Melton,East Midlands,52.815555,-0.809143,200,OK
54.577311,-5.95435,BT9 7GA,Belfast,,54.577311,-5.95435,200,OK
51.752728,-1.199369,OX3 8QL,Oxford,South East,51.752728,-1.199369,200,OK
51.806999,-0.02408,SG12 9PZ,East Hertfordshire,East of England,51.806999,-0.02408,200,OK
51.590651,-0.149336,N10 3BG,Haringey,London,51.590696,-0.148728,200,OK
51.728062,0.420576,CM1 3JP,Chelmsford,East of England,51.728062,0.420576,200,OK
51.532109,-0.201843,W9 3JU,Westminster,London,51.532109,-0.201843,200,OK
52.763371,1.111408,NR10 4LX,Broadland,East of England,52.763371,1.111423,200,OK
51.727147,-2.16651,GL6 8AE,Stroud,South West,51.727147,-2.16651,200,OK
52.434281,-1.813198,B92 7ED,Solihull,West Midlands,52.434281,-1.813198,200,OK
55.457454,-1.760759,NE66 2LU,Northumberland,North East,55.457454,-1.760759,200,OK
51.036946,-2.283822,SP8 4QN,Dorset,South West,51.036946,-2.283822,200,OK
52.408413,-1.92808,B30 3EX,Birmingham,West Midlands,52.407819,-1.92808,200,OK
51.302138,-0.90667,RG27 8TZ,Hart,South East,51.3021,-0.907359,200,OK
53.323078,-1.983356,SK23 7LA,High Peak,East Midlands,53.323103,-1.983326,200,OK
52.483747,-3.982944,SY24 5EX,Ceredigion,,52.483747,-3.982944,200,OK
51.545959,-0.144199,NW1 8SJ,Camden,London,51.545959,-0.144199,200,OK
50.92739,-2.912697,TA19 0DR,Somerset,South West,50.927318,-2.91278,200,OK
51.595915,-0.286977,HA8 6AX,Harrow,London,51.595915,-0.286977,200,OK
53.330518,-1.983608,SK23 7LT,High Peak,East Midlands,53.330518,-1.983608,200,OK
50.904743,-1.403438,SO14 1NA,Southampton,South East,50.904806,-1.403603,200,OK
53.805964,-1.553533,,,,,,200,OK
51.712603,-3.052804,NP4 8NS,Torfaen,,51.712603,-3.052804,200,OK
51.348245,1.043321,CT5 3EF,Canterbury,South East,51.348245,1.043321,200,OK
53.808829,-1.626607,LS13 3RR,Leeds,Yorkshire and The Humber,53.808829,-1.626607,200,OK
53.399773,-0.778593,DN21 2NQ,West Lindsey,East Midlands,53.400068,-0.778434,200,OK
54.209479,-0.287486,YO14 9DA,North Yorkshire,Yorkshire and The Humber,54.209399,-0.287535,200,OK
52.804901,-1.638017,DE14 1EG,East Staffordshire,West Midlands,52.804693,-1.637643,200,OK
53.411181,-1.487029,S5 8TW,Sheffield,Yorkshire and The Humber,53.411479,-1.487237,200,OK
51.571434,-0.123796,N19 3YQ,Islington,London,51.571434,-0.123796,200,OK
51.363147,-2.317706,BA2 7HU,Bath and North East Somerset,South West,51.363147,-2.317706,200,OK
51.400848,-0.431841,TW17 8RY,Spelthorne,South East,51.400848,-0.431841,200,OK
55.714943,-2.742899,TD2 6UA,Scottish Borders,,55.714943,-2.742899,200,OK
51.992802,-0.729962,MK2 2RN,Milton Keynes,South East,51.992802,-0.729962,200,OK
51.606133,0.219588,RM3 8HP,Havering,London,51.606015,0.219796,200,OK
52.78953,0.050924,,,,,,200,OK
52.684907,-0.980326,LE7 3RQ,Charnwood,East Midlands,52.684935,-0.980333,200,OK
52.68238,-1.087277,LE4 8FQ,Charnwood,East Midlands,52.682065,-1.087283,200,OK
52.891378,-1.28908,NG10 3LL,Erewash,East Midlands,52.891378,-1.28908,200,OK
52.120198,-1.838815,WR11 8QH,Wychavon,West Midlands,52.12072,-1.838959,200,OK
53.26403,-2.908486,CH65 6PN,Cheshire West and Chester,North West,53.264595,-2.908633,200,OK
50.955853,-0.14461,RH15 9PQ,Mid Sussex,South East,50.955853,-0.14461,200,OK
53.281546,-3.062295,CH64 0SQ,Cheshire West and Chester,North West,53.282186,-3.062131,200,OK
54.79842,-1.395477,DH6 2RZ,County Durham,North East,54.798077,-1.395169,200,OK
56.58853,-3.334331,PH10 6DD,Perth and Kinross,,56.58853,-3.334331,200,OK
52.111599,-2.589208,HR1 3RB,"Herefordshire, County of",West Midlands,52.111301,-2.589438,200,OK
52.370982,-0.456071,PE28 0QT,Huntingdonshire,East of England,52.370982,-0.456071,200,OK
53.699858,-1.704182,WF15 7LT,Kirklees,Yorkshire and The Humber,53.699858,-1.704182,200,OK
55.894345,-4.889474,PA18 6HD,Inverclyde,,55.894358,-4.889438,200,OK
57.119035,-2.701164,,,,,,200,OK
52.555233,-1.138842,LE8 5XL,Blaby,East Midlands,52.555233,-1.138842,200,OK
52.653441,0.774448,PE37 8HE,Breckland,East of England,52.653441,0.774448,200,OK
51.270631,0.487782,ME16 0XT,Maidstone,South East,51.270631,0.487782,200,OK
51.434732,-0.080629,SE21 7LX,Southwark,London,51.434732,-0.080629,200,OK
53.522864,-1.285375,DN5 7HS,Barnsley,Yorkshire and The Humber,53.523022,-1.286096,200,OK
53.097649,-2.435708,CW1 2AS,Cheshire East,North West,53.098197,-2.435982,200,OK
51.733045,0.477023,CM2 6ZP,Chelmsford,East of England,51.733134,0.476995,200,OK
51.505847,-0.148408,W1J 7SJ,Westminster,London,51.505847,-0.148408,200,OK
51.668465,-1.282984,OX14 5BP,Vale of White Horse,South East,51.668465,-1.282984,200,OK
55.864293,-4.262288,G2 4AD,Glasgow City,,55.864086,-4.262755,200,OK
