lat,lon,postcode,admin_district,region,latitude,longitude,estado_api,descripcion_estado
52.148359,1.054912,IP6 8EU,Mid Suffolk,East of England,52.148359,1.054912,200,OK
52.377415,1.09707,IP22 4QS,South Norfolk,East of England,52.377584,1.096818,200,OK
53.073546,-1.299324,NG16 6GW,Ashfield,East Midlands,53.073546,-1.299324,200,OK
52.195664,0.423605,CB8 9SW,East Cambridgeshire,East of England,52.195664,0.423605,200,OK
52.184859,-1.603241,CV35 9PT,Stratford-on-Avon,West Midlands,52.184859,-1.603241,200,OK
57.494771,-4.139458,IV2 7WS,Highland,,57.494852,-4.139429,200,OK
51.373283,1.340642,,,,,,200,OK
54.5616,-3.552622,CA28 8UY,Cumberland,North West,54.5616,-3.552622,200,OK
51.79602,-1.475418,OX28 1NX,West Oxfordshire,South East,51.795994,-1.475563,200,OK
51.492955,-0.220036,W6 8BT,Hammersmith and Fulham,London,51.492955,-0.220036,200,OK
51.169681,-2.442357,BA4 6BZ,Somerset,South West,51.169681,-2.442357,200,OK
53.12766,0.204135,PE24 4PS,East Lindsey,East Midlands,53.12766,0.204135,200,OK
51.404057,-3.484222,CF61 1QY,Vale of Glamorgan,,51.404039,-3.484236,200,OK
51.59306,-3.068675,NP10 9LB,Newport,,51.59306,-3.068675,200,OK
51.485788,-0.300685,TW8 0JW,Hounslow,London,51.485788,-0.300685,200,OK
53.355491,-2.829779,L26 9XP,Knowsley,North West,53.355491,-2.829779,200,OK
51.480827,-0.086097,SE5 7UA,Southwark,London,51.480941,-0.085793,200,OK
53.370249,-1.526582,S10 3GG,Sheffield,Yorkshire and The Humber,53.369926,-1.526901,200,OK
50.392478,-4.042877,PL7 2DL,Plymouth,South West,50.392478,-4.042877,200,OK
51.458184,-2.550341,BS5 8DW,"Bristol, City of",South West,51.458184,-2.550341,200,OK
51.511261,-0.311079,W5 5BW,Ealing,London,51.511773,-0.311585,200,OK
53.480501,-2.353944,M30 0PP,Salford,North West,53.480501,-2.353944,200,OK
52.604751,-0.438885,PE8 6AS,Peterborough,East of England,52.604751,-0.438885,200,OK
50.818702,-0.544365,BN17 7JN,Arun,South East,50.818702,-0.544365,200,OK
53.560706,-0.471429,DN20 8RD,North Lincolnshire,Yorkshire and The Humber,53.560706,-0.471429,200,OK
53.528146,-2.413491,M38 9LR,Salford,North West,53.528091,-2.413548,200,OK
53.749643,-1.604233,LS27 9DW,Leeds,Yorkshire and The Humber,53.749643,-1.604233,200,OK
50.995352,-2.237913,,,,,,200,OK
52.400637,-2.271172,DY11 5LJ,Wyre Forest,West Midlands,52.400637,-2.271172,200,OK
52.219667,-2.222567,WR3 7PG,Worcester,West Midlands,52.219704,-2.222041,200,OK
52.758312,-1.366501,LE67 8AA,North West Leicestershire,East Midlands,52.758312,-1.366501,200,OK
54.784151,-1.546593,DH1 1EA,County Durham,North East,54.784473,-1.54601,200,OK
54.956959,-1.628179,NE8 2BW,Gateshead,North East,54.956959,-1.628179,200,OK
52.226869,0.095556,CB3 0NG,South Cambridgeshire,East of England,52.226869,0.095556,200,OK
55.125418,-6.67489,BT51 3AD,Causeway Coast and Glens,,55.125418,-6.67489,200,OK
54.965158,-1.604578,NE8 2AS,Gateshead,North East,54.965158,-1.604578,200,OK
55.989034,-3.741022,FK2 9YS,Falkirk,,55.989034,-3.741022,200,OK
51.423572,-0.142055,SW16 6NG,Wandsworth,London,51.423616,-0.141984,200,OK
52.628222,-1.666571,B77 3JP,Tamworth,West Midlands,52.628222,-1.666571,200,OK
54.65329,-6.204256,,,,,,200,OK
52.081823,-0.041314,SG8 5JD,South Cambridgeshire,East of England,52.081823,-0.041314,200,OK
54.55532,-3.45634,CA26 3XN,Cumberland,North West,54.55532,-3.45634,200,OK
51.594695,0.084794,IG6 2JT,Redbridge,London,51.594695,0.084794,200,OK
51.781143,-1.468081,OX28 3SU,West Oxfordshire,South East,51.781143,-1.468081,200,OK
52.534734,-2.016374,B70 0HY,Sandwell,West Midlands,52.534734,-2.016374,200,OK
55.608063,-2.795562,TD1 3HW,Scottish Borders,,55.608063,-2.795562,200,OK
53.817522,-1.551101,LS7 2LJ,Leeds,Yorkshire and The Humber,53.817522,-1.551101,200,OK
51.733408,-4.960604,SA73 1LJ,Pembrokeshire,,51.733203,-4.96017,200,OK
55.686823,-1.936353,TD15 2NZ,Northumberland,North East,55.686823,-1.936353,200,OK
53.333994,-3.312753,CH8 9UU,Flintshire,,53.334107,-3.313056,200,OK
53.055358,-1.288265,NG16 5QZ,Ashfield,East Midlands,53.055403,-1.288203,200,OK
51.520324,-0.1535,W1U 4AL,Westminster,London,51.520324,-0.1535,200,OK
57.461395,-2.283655,AB41 7JB,Aberdeenshire,,57.461395,-2.283655,200,OK
52.538323,-0.996155,LE8 0JB,Harborough,East Midlands,52.538322,-0.996081,200,OK
52.526632,-1.835741,B24 9HT,Birmingham,West Midlands,52.526632,-1.835741,200,OK
51.825829,-0.797341,HP20 2UZ,Buckinghamshire,South East,51.825802,-0.797342,200,OK
54.066353,-6.025464,BT34 4DX,"Newry, Mourne and Down",,54.066353,-6.025464,200,OK
53.439076,-2.950635,L4 7XF,Liverpool,North West,53.439076,-2.950635,200,OK
53.79404,-1.745312,BD1 5DN,Bradford,Yorkshire and The Humber,53.79404,-1.745312,200,OK
51.462708,-2.592557,BS2 8LE,"Bristol, City of",South West,51.462708,-2.592557,200,OK
51.619342,-0.106797,N13 5TS,Enfield,London,51.619639,-0.106644,200,OK
53.531183,-2.292091,M25 3HJ,Bury,North West,53.531191,-2.291998,200,OK
52.585792,-0.97113,LE7 9ED,Harborough,East Midlands,52.585792,-0.97113,200,OK
51.47615,-0.094202,SE5 0DL,Southwark,London,51.475932,-0.094095,200,OK
51.802409,-0.654049,HP23 5PS,Dacorum,East of England,51.802409,-0.654049,200,OK
51.010985,-0.918318,GU31 4DB,East Hampshire,South East,51.010985,-0.918318,200,OK
53.451754,-2.109855,M34 6DW,Tameside,North West,53.451754,-2.109855,200,OK
51.033189,0.005467,RH17 7JB,Wealden,South East,51.033189,0.005467,200,OK
51.549576,0.690112,SS0 9LR,Southend-on-Sea,East of England,51.549576,0.690112,200,OK
51.4073,-1.299068,RG14 2QE,West Berkshire,South East,51.406928,-1.298585,200,OK
51.520286,0.211648,RM13 9XX,Havering,London,51.520286,0.211648,200,OK
52.308778,-0.169378,PE29 2EY,Huntingdonshire,East of England,52.308769,-0.169393,200,OK
51.740028,-0.462231,HP3 9PB,Dacorum,East of England,51.739693,-0.462054,200,OK
53.16701,-1.911961,SK17 0NF,Staffordshire Moorlands,West Midlands,53.16701,-1.911961,200,OK
51.238806,-0.555965,GU1 2EJ,Guildford,South East,51.238806,-0.555965,200,OK
53.486937,-3.034506,L23 3AF,Sefton,North West,53.486937,-3.034506,200,OK
52.539184,-2.085294,WV14 9EJ,Dudley,West Midlands,52.539262,-2.085377,200,OK
51.455337,0.131022,DA6 8JH,Bexley,London,51.455204,0.131405,200,OK
51.297662,-0.617569,GU22 0RD,Woking,South East,51.297662,-0.617569,200,OK
52.110264,0.147145,CB22 4LU,South Cambridgeshire,East of England,52.110291,0.147117,200,OK
51.347893,-0.513977,KT15 3SH,Runnymede,South East,51.347893,-0.513977,200,OK
52.236621,0.142385,CB4 0WE,South Cambridgeshire,East of England,52.236621,0.142385,200,OK
51.473919,-1.449041,RG17 7DT,West Berkshire,South East,51.474,-1.449139,200,OK
53.370988,-1.318758,S26 3XQ,Rotherham,Yorkshire and The Humber,53.370951,-1.318638,200,OK
52.35626,-0.212205,PE28 4AS,Huntingdonshire,East of England,52.356261,-0.212234,200,OK
55.062727,-2.123172,NE48 4BD,Northumberland,North East,55.062727,-2.123172,200,OK
54.187333,-3.065727,LA12 9EG,Westmorland and Furness,North West,54.187333,-3.065727,200,OK
51.62609,0.814513,CM0 8RP,Maldon,East of England,51.62609,0.814513,200,OK
53.961536,-1.090056,YO30 7DX,York,Yorkshire and The Humber,53.961979,-1.090422,200,OK
52.757517,-1.402142,LE67 8JA,North West Leicestershire,East Midlands,52.757517,-1.402142,200,OK
52.430571,-1.543092,CV6 2AJ,Coventry,West Midlands,52.430571,-1.543092,200,OK
52.904238,0.623708,PE31 8LS,King's Lynn and West Norfolk,East of England,52.904238,0.623708,200,OK
51.435468,-0.935557,RG6 5SL,Wokingham,South East,51.435468,-0.935557,200,OK
51.591259,-0.271128,NW9 9JD,Brent,London,51.591259,-0.271128,200,OK
51.374412,-0.497156,KT15 2TX,Runnymede,South East,51.374334,-0.496627,200,OK
51.735985,0.681385,CM9 4DY,Maldon,East of England,51.735842,0.681724,200,OK
53.307635,-3.069997,,,,,,200,OK
51.435013,-0.921211,RG6 7LY,Wokingham,South East,51.435013,-0.921211,200,OK
52.494117,-1.949357,B66 2BQ,Sandwell,West Midlands,52.494333,-1.949813,200,OK
53.519733,-2.504837,M46 0PD,Wigan,North West,53.519733,-2.504837,200,OK
53.960976,-1.07911,YO1 7JR,York,Yorkshire and The Humber,53.960985,-1.079119,200,OK
51.216247,0.279441,TN10 3NS,Tonbridge and Malling,South East,51.216247,0.279441,200,OK
53.439788,-2.206123,M14 6GN,Manchester,North West,53.439788,-2.206123,200,OK
51.475041,-2.569608,BS5 6XH,"Bristol, City of",South West,51.475041,-2.569608,200,OK
51.202324,0.802323,TN27 0DY,Ashford,South East,51.202324,0.802323,200,OK
52.027165,-0.721591,MK6 3BA,Milton Keynes,South East,52.027165,-0.721591,200,OK
50.940541,-1.379121,SO16 2HX,Southampton,South East,50.940541,-1.379121,200,OK
52.768217,-0.372687,PE10 9GQ,South Kesteven,East Midlands,52.768217,-0.372687,200,OK
50.850367,-3.965555,EX19 8AR,West Devon,South West,50.850725,-3.965684,200,OK
51.888277,-2.58868,HR9 5WG,"Herefordshire, County of",West Midlands,51.888277,-2.58868,200,OK
52.148553,0.057835,CB23 1JU,South Cambridgeshire,East of England,52.148579,0.057866,200,OK
51.579402,-3.026372,NP20 3PY,Newport,,51.579402,-3.026372,200,OK
52.642383,-1.199114,LE3 8LP,Blaby,East Midlands,52.642383,-1.199114,200,OK
51.586803,-0.003983,E17 3HJ,Waltham Forest,London,51.586803,-0.003983,200,OK
50.691957,-3.516066,EX2 8XP,Teignbridge,South West,50.691957,-3.516066,200,OK
51.476181,-3.17346,CF10 5PE,Cardiff,,51.475966,-3.172613,200,OK
53.838523,-2.195557,BB9 8DU,Pendle,North West,53.838537,-2.195543,200,OK
52.213267,1.25818,IP13 7RS,East Suffolk,East of England,52.213267,1.25818,200,OK
57.311744,-2.384442,AB51 0HQ,Aberdeenshire,,57.311561,-2.383582,200,OK
50.388127,-4.175608,PL2 2DT,Plymouth,South West,50.388127,-4.175608,200,OK
54.602174,-5.930631,BT1 1PG,Belfast,,54.602174,-5.930631,200,OK
53.437173,-2.774965,WA10 3PW,St. Helens,North West,53.437173,-2.774965,200,OK
51.089455,-2.224247,BA12 6AJ,Wiltshire,South West,51.089455,-2.224247,200,OK
53.583135,-2.424405,BL1 2UA,Bolton,North West,53.582934,-2.425475,200,OK
51.89472,0.918553,CO4 0EQ,Colchester,East of England,51.89472,0.918553,200,OK
51.606299,-0.063581,N17 0TG,Haringey,London,51.606299,-0.063581,200,OK
54.100713,-0.166495,YO15 1EN,East Riding of Yorkshire,Yorkshire and The Humber,54.100713,-0.166495,200,OK
53.507244,-2.241205,M8 9AD,Manchester,North West,53.507154,-2.241325,200,OK
52.25542,0.222517,,,,,,200,OK
51.582678,-0.100584,N8 0RL,Haringey,London,51.582636,-0.100027,200,OK
53.286659,-3.586815,LL22 7TD,Conwy,,53.286659,-3.586815,200,OK
51.615577,-0.176244,N12 9BS,Barnet,London,51.615577,-0.176244,200,OK
51.201947,-1.447639,SP11 6TA,Test Valley,South East,51.201947,-1.447639,200,OK
50.73485,-4.003165,EX20 1DD,West Devon,South West,50.73485,-4.003165,200,OK
55.83253,-4.203735,G73 1AU,South Lanarkshire,,55.83253,-4.203735,200,OK
52.408996,-1.827887,B90 2BS,Solihull,West Midlands,52.408996,-1.827887,200,OK
50.832022,-0.790085,PO19 8EQ,Chichester,South East,50.831825,-0.790204,200,OK
54.226376,-5.903184,BT33 0JN,"Newry, Mourne and Down",,54.22642,-5.902615,200,OK
54.844757,-6.386626,BT42 2PF,Mid and East Antrim,,54.844757,-6.386626,200,OK
50.908854,-1.418002,SO15 3NA,Southampton,South East,50.908854,-1.418002,200,OK
52.307404,-1.948622,B97 6HH,Redditch,West Midlands,52.308123,-1.947799,200,OK
51.150869,0.271356,TN4 9BX,Tunbridge Wells,South East,51.150869,0.271356,200,OK
51.309557,0.69998,ME9 8HB,Swale,South East,51.309557,0.69998,200,OK
51.902497,-0.519527,LU5 5ET,Central Bedfordshire,East of England,51.902497,-0.519527,200,OK
52.128634,1.422164,IP12 2US,East Suffolk,East of England,52.128634,1.422164,200,OK
51.6161,-0.098164,N13 5BN,Enfield,London,51.6161,-0.098164,200,OK
53.08161,-2.253984,ST7 1DQ,Newcastle-under-Lyme,West Midlands,53.08145,-2.252938,200,OK
50.718229,-3.524833,EX2 4EU,Exeter,South West,50.718229,-3.524833,200,OK
51.456604,-0.316005,TW1 2DH,Richmond upon Thames,London,51.456604,-0.316005,200,OK
53.375308,-1.391425,S13 9AR,Sheffield,Yorkshire and The Humber,53.375308,-1.391425,200,OK
54.521592,-1.308636,TS17 0RG,Stockton-on-Tees,North East,54.521887,-1.308353,200,OK
52.962333,-2.684115,SY13 1HF,Shropshire,West Midlands,52.962333,-2.684115,200,OK
53.649201,-2.636791,PR7 2DP,Chorley,North West,53.649201,-2.636791,200,OK
51.706669,-1.319779,OX13 6DP,Vale of White Horse,South East,51.706099,-1.320074,200,OK
52.760568,0.64982,,,,,,200,OK
53.542389,-2.122871,OL9 6AD,Oldham,North West,53.542389,-2.122871,200,OK
51.509671,-0.139463,W1J 0AP,Westminster,London,51.509671,-0.139463,200,OK
52.621049,0.528764,PE33 9DP,King's Lynn and West Norfolk,East of England,52.621049,0.528764,200,OK
55.860964,-4.363603,,,,,,200,OK
51.419624,-0.480946,TW18 1RR,Spelthorne,South East,51.419624,-0.480946,200,OK
52.601894,-1.910983,WS9 8UN,Walsall,West Midlands,52.601894,-1.910983,200,OK
51.519089,-0.105393,EC1N 8RA,Camden,London,51.518932,-0.105688,200,OK
52.188763,0.689286,IP29 4TS,West Suffolk,East of England,52.188763,0.689286,200,OK
51.088022,-1.16118,SO24 9JW,Winchester,South East,51.088022,-1.16118,200,OK
53.59756,-1.414997,S72 8PD,Barnsley,Yorkshire and The Humber,53.59756,-1.414997,200,OK
51.707557,-3.914653,SA6 5RA,Swansea,,51.707269,-3.914685,200,OK
51.797447,1.181415,CO15 5HL,Tendring,East of England,51.797447,1.181415,200,OK
51.479701,-2.522923,BS16 3XQ,"Bristol, City of",South West,51.479701,-2.522923,200,OK
51.519493,-0.085918,EC2M 2DD,Islington,London,51.519432,-0.085966,200,OK
51.536276,-0.405463,UB5 6PH,Ealing,London,51.536276,-0.405463,200,OK
50.930516,-1.449364,SO16 4HU,Southampton,South East,50.930516,-1.449364,200,OK
55.801255,-2.209914,TD11 3XP,Scottish Borders,,55.801255,-2.209914,200,OK
53.58096,-2.041981,OL3 5LF,Oldham,North West,53.58096,-2.041981,200,OK
53.844161,-2.993168,FY6 7SP,Wyre,North West,53.844161,-2.993168,200,OK
51.760782,-3.399372,CF48 2LN,Merthyr Tydfil,,51.760782,-3.399372,200,OK
53.565239,-0.102003,DN34 4AP,North East Lincolnshire,Yorkshire and The Humber,53.564886,-0.101807,200,OK
53.413309,-1.463925,S5 7JD,Sheffield,Yorkshire and The Humber,53.413309,-1.463925,200,OK
51.298687,-0.329235,KT22 7JA,Mole Valley,South East,51.298687,-0.329235,200,OK
52.91807,-1.512351,DE22 3LZ,Derby,East Midlands,52.91807,-1.512351,200,OK
51.419759,-1.715683,SN8 2AR,Wiltshire,South West,51.419759,-1.715683,200,OK
51.493843,-0.169106,SW3 2AW,Kensington and Chelsea,London,51.493835,-0.169039,200,OK
54.113409,-6.621017,BT35 0LW,"Newry, Mourne and Down",,54.113409,-6.621017,200,OK
51.284527,-0.958408,RG27 9EU,Hart,South East,51.284527,-0.958408,200,OK
52.254389,-0.814104,NN3 9BH,West Northamptonshire,East Midlands,52.254389,-0.814104,200,OK
50.953081,-1.455931,SO16 8JY,Test Valley,South East,50.953081,-1.455931,200,OK
52.422274,-3.552397,SY18 6RG,Powys,,52.422274,-3.552397,200,OK
52.511474,-2.096507,DY1 2AP,Dudley,West Midlands,52.511474,-2.096507,200,OK
52.446593,-1.79986,B92 7RZ,Solihull,West Midlands,52.445718,-1.79974,200,OK
53.54054,-2.704119,WN5 8HG,Wigan,North West,53.540055,-2.703628,200,OK
51.40445,-0.677164,SL5 9EQ,Windsor and Maidenhead,South East,51.40445,-0.677164,200,OK
57.694574,-2.00465,AB43 9EJ,Aberdeenshire,,57.694475,-2.004281,200,OK
53.418115,-2.561681,WA2 0LS,Warrington,North West,53.418115,-2.561681,200,OK
53.795579,-1.466868,LS15 0QF,Leeds,Yorkshire and The Humber,53.795579,-1.466868,200,OK
51.612208,-0.117782,N13 4RU,Enfield,London,51.612208,-0.117782,200,OK
51.512186,-0.079018,EC3M 4BE,City of London,London,51.512228,-0.079264,200,OK
51.508346,0.278111,RM15 5LY,Thurrock,East of England,51.508346,0.278111,200,OK
53.32749,-2.232681,SK9 5DD,Cheshire East,North West,53.328009,-2.233149,200,OK
52.794818,-0.133788,PE11 2EY,South Holland,East Midlands,52.794818,-0.133788,200,OK
52.255382,-1.939584,B96 6AG,Redditch,West Midlands,52.255382,-1.939584,200,OK
57.60859,-3.596437,IV36 2RD,Moray,,57.60859,-3.596437,200,OK
52.190458,0.151417,CB1 3SA,Cambridge,East of England,52.190458,0.151417,200,OK
54.892162,-2.955775,CA2 7AT,Cumberland,North West,54.892162,-2.955775,200,OK
54.517679,-1.348496,TS16 9HG,Stockton-on-Tees,North East,54.517679,-1.348496,200,OK
52.762382,-0.958585,LE14 3SL,Melton,East Midlands,52.762382,-0.958585,200,OK
52.504296,-1.980804,,,,,,200,OK
51.25256,-0.530063,GU4 7EB,Guildford,South East,51.25256,-0.530063,200,OK
57.627115,-2.595394,AB45 3BT,Aberdeenshire,,57.627434,-2.594479,200,OK
51.016835,-1.685648,SP5 2QD,Wiltshire,South West,51.016835,-1.685648,200,OK
52.230991,-0.243205,PE19 6GP,Huntingdonshire,East of England,52.230991,-0.243205,200,OK
53.698648,-2.712951,PR25 1XB,South Ribble,North West,53.698648,-2.712951,200,OK
51.57238,0.113576,RM6 4SS,Redbridge,London,51.57238,0.113576,200,OK
51.548032,-0.230681,NW2 5DL,Brent,London,51.547908,-0.230618,200,OK
51.260512,-0.61811,GU3 3JE,Guildford,South East,51.260512,-0.61811,200,OK
51.447487,0.244238,DA2 6FX,Dartford,South East,51.447487,0.244238,200,OK
55.845545,-4.366181,G52 3QJ,Glasgow City,,55.845545,-4.366181,200,OK
50.763563,-2.686788,DT6 3TD,Dorset,South West,50.763563,-2.686788,200,OK
51.562276,-1.433246,OX12 9NE,Vale of White Horse,South East,51.562276,-1.433246,200,OK
52.514397,-1.691511,B46 2AE,North Warwickshire,West Midlands,52.514413,-1.691488,200,OK
51.611691,-3.544381,CF32 7HG,Bridgend,,51.611691,-3.544381,200,OK
52.29991,-0.689129,NN8 1XB,North Northamptonshire,East Midlands,52.29991,-0.689129,200,OK
53.592794,-2.537194,BL6 5PH,Bolton,North West,53.592658,-2.536829,200,OK
52.794734,-2.888694,SY4 1LD,Shropshire,West Midlands,52.794734,-2.888694,200,OK
50.38416,-4.053506,PL7 1TY,Plymouth,South West,50.38416,-4.053506,200,OK
50.947887,-2.61706,BA21 5AH,Somerset,South West,50.947701,-2.616929,200,OK
53.692309,-1.534594,WF2 0BJ,Wakefield,Yorkshire and The Humber,53.692309,-1.534594,200,OK
51.446967,-0.126009,SW2 4EH,Lambeth,London,51.446967,-0.126009,200,OK
52.210449,-4.195663,SA48 8DP,Ceredigion,,52.210449,-4.195663,200,OK
53.601181,-2.524728,BL6 6TN,Bolton,North West,53.601181,-2.524728,200,OK
53.693168,-1.659145,WF13 3RL,Kirklees,Yorkshire and The Humber,53.693168,-1.659145,200,OK
53.432618,-1.281017,S66 3RG,Rotherham,Yorkshire and The Humber,53.432618,-1.281017,200,OK
51.405148,-0.17484,CR4 1UN,Merton,London,51.40513,-0.174797,200,OK
54.100919,-0.189596,YO16 7HX,East Riding of Yorkshire,Yorkshire and The Humber,54.101165,-0.189845,200,OK
53.419711,-0.78562,DN21 3UZ,West Lindsey,East Midlands,53.419711,-0.78562,200,OK
51.829793,-2.246091,GL4 0LA,Gloucester,South West,51.829793,-2.246091,200,OK
51.85627,0.96286,CO7 9JP,Colchester,East of England,51.85627,0.96286,200,OK
52.46792,-2.114457,DY5 2JX,Dudley,West Midlands,52.46792,-2.114457,200,OK
53.484029,-2.178399,M11 4WT,Manchester,North West,53.484029,-2.178399,200,OK
51.474149,-0.202208,SW6 4HE,Hammersmith and Fulham,London,51.474142,-0.202337,200,OK
53.213433,-3.072529,CH5 4TY,Flintshire,,53.213433,-3.072529,200,OK
54.083728,-0.21395,YO16 4TQ,East Riding of Yorkshire,Yorkshire and The Humber,54.083728,-0.21395,200,OK
51.617186,-2.047268,SN16 9TS,Wiltshire,South West,51.617186,-2.047268,200,OK
53.525619,-2.483367,M46 9FR,Wigan,North West,53.525619,-2.483367,200,OK
51.944637,-2.069057,GL52 8JB,Tewkesbury,South West,51.944637,-2.069057,200,OK
51.063245,-1.316875,SO23 9AE,Winchester,South East,51.063275,-1.317431,200,OK
51.412509,-1.514714,RG17 0BP,West Berkshire,South East,51.412509,-1.514714,200,OK
51.47647,-0.623532,SL4 3PZ,Windsor and Maidenhead,South East,51.476264,-0.623377,200,OK
53.385546,-3.112034,CH49 2NH,Wirral,North West,53.385546,-3.112034,200,OK
53.533288,-2.670927,WN5 9HN,Wigan,North West,53.533288,-2.670927,200,OK
51.415344,-0.19382,SW19 1JZ,Merton,London,51.41537,-0.193804,200,OK
52.389578,-1.958813,B31 3PX,Birmingham,West Midlands,52.389884,-1.958959,200,OK
51.541336,-0.07495,E8 4BG,Hackney,London,51.541336,-0.07495,200,OK
52.438667,0.93409,NR16 2TG,Breckland,East of England,52.438695,0.933695,200,OK
54.638805,-5.611485,BT19 7QP,Ards and North Down,,54.638635,-5.611975,200,OK
51.755953,-2.866836,,,,,,200,OK
54.034113,-1.221855,YO30 2BR,North Yorkshire,Yorkshire and The Humber,54.034113,-1.221855,200,OK
53.66923,-1.948926,HX6 4BY,Calderdale,Yorkshire and The Humber,53.66923,-1.948926,200,OK
54.106749,-6.246177,BT34 3XY,"Newry, Mourne and Down",,54.106749,-6.246177,200,OK
51.071159,0.56222,TN17 4ET,Tunbridge Wells,South East,51.071159,0.56222,200,OK
51.672857,-3.374204,CF45 3BP,Rhondda Cynon Taf,,51.672879,-3.374202,200,OK
54.990894,-1.701258,NE5 2DW,Newcastle upon Tyne,North East,54.990894,-1.701258,200,OK
53.430029,-2.796433,L34 2AF,Knowsley,North West,53.430505,-2.796245,200,OK
51.751581,-1.256046,OX1 4EE,Oxford,South East,51.751581,-1.256046,200,OK
55.796545,-5.530363,PA29 6XZ,Argyll and Bute,,55.796545,-5.530363,200,OK
51.271046,0.40515,ME19 4EA,Tonbridge and Malling,South East,51.271046,0.40515,200,OK
55.871092,-4.190782,G33 2AS,Glasgow City,,55.871092,-4.190782,200,OK
52.976983,-2.134095,ST3 4EX,Stoke-on-Trent,West Midlands,52.976983,-2.134095,200,OK
53.836283,-2.202065,BB9 0TE,Pendle,North West,53.836037,-2.202172,200,OK
52.786937,-0.154739,PE11 1EA,South Holland,East Midlands,52.786937,-0.154739,200,OK
52.585948,-0.227141,PE1 4RZ,Peterborough,East of England,52.586117,-0.227001,200,OK
53.52432,-1.619322,S36 6BF,Barnsley,Yorkshire and The Humber,53.52432,-1.619322,200,OK
51.784782,-1.281551,OX2 8AS,Oxford,South East,51.784865,-1.281941,200,OK
52.27736,-1.516941,CV31 1YP,Warwick,West Midlands,52.27736,-1.516941,200,OK
51.500298,-0.041509,SE16 6SD,Southwark,London,51.500298,-0.041509,200,OK
51.767517,-4.142977,SA15 5NF,Carmarthenshire,,51.767517,-4.142977,200,OK
52.64741,-1.191455,LE3 8AU,Blaby,East Midlands,52.64741,-1.191455,200,OK
51.544292,-3.374076,CF72 8QR,Rhondda Cynon Taf,,51.544292,-3.374076,200,OK
54.196809,-3.091524,LA12 7HY,Westmorland and Furness,North West,54.196809,-3.091524,200,OK
51.554112,0.024561,E7 0EJ,Newham,London,51.554112,0.024561,200,OK
51.513852,-0.218775,W10 6UB,Kensington and Chelsea,London,51.513852,-0.218775,200,OK
55.77362,-4.30212,G77 5UE,East Renfrewshire,,55.77362,-4.30212,200,OK
56.370826,-3.836005,PH7 3DP,Perth and Kinross,,56.371193,-3.83673,200,OK
51.4415,-0.520179,TW18 4YX,Spelthorne,South East,51.4415,-0.520179,200,OK
50.826395,-1.350441,SO45 1DX,New Forest,South East,50.826395,-1.350441,200,OK
51.216467,-2.308847,,,,,,200,OK
51.604467,-0.295623,HA7 1NN,Harrow,London,51.604467,-0.295623,200,OK
52.453871,-2.08326,B63 2ET,Dudley,West Midlands,52.453931,-2.083077,200,OK
52.029614,0.895607,CO6 5DA,Babergh,East of England,52.029635,0.895697,200,OK
54.592683,-1.089155,TS10 5SG,Redcar and Cleveland,North East,54.592683,-1.089155,200,OK
51.521746,-0.150171,W1G 6JS,Westminster,London,51.521746,-0.150171,200,OK
50.607671,-1.969889,BH19 2RQ,Dorset,South West,50.607671,-1.969889,200,OK
50.743214,-1.823214,BH7 7HH,"Bournemouth, Christchurch and Poole",South West,50.743214,-1.823214,200,OK
50.722757,-3.317272,EX11 1SN,East Devon,South West,50.722757,-3.317272,200,OK
52.233238,-0.262322,PE19 2LY,Huntingdonshire,East of England,52.233238,-0.262322,200,OK
52.134734,-0.467321,MK40 1SQ,Bedford,East of England,52.135076,-0.467068,200,OK
51.536616,-3.376152,CF72 8QN,Rhondda Cynon Taf,,51.536616,-3.376152,200,OK
51.585732,-0.212544,NW4 2NY,Barnet,London,51.585762,-0.212532,200,OK
52.406106,-1.945979,B38 8XF,Birmingham,West Midlands,52.406106,-1.945979,200,OK
53.70125,-2.277288,BB4 7PD,Rossendale,North West,53.70125,-2.277288,200,OK
53.618585,-2.424276,BL7 9LL,Bolton,North West,53.618585,-2.424276,200,OK
50.962965,-3.052554,TA3 5BL,Somerset,South West,50.962965,-3.052554,200,OK
51.499034,-0.099742,SE1 1DR,Southwark,London,51.499303,-0.099561,200,OK
52.454662,-1.819277,B27 6LA,Birmingham,West Midlands,52.454662,-1.819277,200,OK
52.134696,-0.065882,SG8 0BG,South Cambridgeshire,East of England,52.134696,-0.065882,200,OK
50.829076,-0.273026,BN43 5RW,Adur,South East,50.829076,-0.273026,200,OK
53.005096,-1.137146,NG5 7BY,Gedling,East Midlands,53.005096,-1.137146,200,OK
51.450105,-2.568376,BS2 0HH,"Bristol, City of",South West,51.450151,-2.568175,200,OK
57.354541,-1.947799,,,,,,200,OK
52.9455,-1.037044,NG12 2FT,Rushcliffe,East Midlands,52.9455,-1.037044,200,OK
52.471189,-1.920565,B15 1TR,Birmingham,West Midlands,52.471463,-1.919632,200,OK
53.556332,-1.127185,DN5 0SF,Doncaster,Yorkshire and The Humber,53.556332,-1.127185,200,OK
53.414762,-2.640233,WA5 7XU,Warrington,North West,53.414778,-2.640248,200,OK
50.916241,-1.433557,SO15 8LH,Southampton,South East,50.916241,-1.433557,200,OK
53.380283,-2.285299,M23 2ZD,Manchester,North West,53.380283,-2.285299,200,OK
54.695391,-1.1777,TS24 0QB,Hartlepool,North East,54.695391,-1.1777,200,OK
51.513752,-0.215753,W11 1WG,Kensington and Chelsea,London,51.513398,-0.216141,200,OK
52.533807,-2.785642,SY6 7ET,Shropshire,West Midlands,52.533771,-2.785626,200,OK
51.572433,-0.07228,N16 6QX,Hackney,London,51.572433,-0.07228,200,OK
53.442514,-2.188567,M19 3NQ,Manchester,North West,53.442514,-2.188567,200,OK
54.32702,-2.746367,LA9 4DQ,Westmorland and Furness,North West,54.32702,-2.746367,200,OK
55.943135,-3.196255,EH3 9GX,City of Edinburgh,,55.943135,-3.196255,200,OK
51.807385,-0.33605,AL5 1EU,St Albans,East of England,51.807385,-0.33605,200,OK
52.587959,-1.784029,B75 6LE,North Warwickshire,West Midlands,52.587959,-1.784029,200,OK
53.39824,-2.614764,WA5 0GB,Warrington,North West,53.398274,-2.614764,200,OK
52.580848,-2.14448,WV3 0BB,Wolverhampton,West Midlands,52.580848,-2.14448,200,OK
51.875516,-2.248389,GL1 2BL,Gloucester,South West,51.875976,-2.248057,200,OK
53.64432,-1.354206,WF7 7FH,Wakefield,Yorkshire and The Humber,53.64432,-1.354206,200,OK
55.892289,-4.203124,G21 3PY,Glasgow City,,55.892289,-4.203124,200,OK
54.560483,-1.262174,TS5 4NE,Middlesbrough,North East,54.560808,-1.261749,200,OK
55.16744,-1.688937,NE61 1NY,Northumberland,North East,55.16744,-1.688937,200,OK
52.566053,-0.254618,PE2 9LR,Peterborough,East of England,52.565845,-0.254509,200,OK
55.847897,-4.407095,PA1 3SU,Renfrewshire,,55.847897,-4.407095,200,OK
52.371699,-0.256797,PE28 4EQ,Huntingdonshire,East of England,52.371699,-0.256797,200,OK
51.301584,-0.11158,CR5 1QQ,Croydon,London,51.301584,-0.11158,200,OK
53.74476,-2.860434,,,,,,200,OK
52.603984,-2.47699,TF12 5JG,Shropshire,West Midlands,52.604196,-2.47556,200,OK
53.360135,-1.315069,S26 4RR,Rotherham,Yorkshire and The Humber,53.360135,-1.315069,200,OK
51.446569,-0.068246,SE22 0PJ,Southwark,London,51.446569,-0.068246,200,OK
51.792491,-1.901315,GL54 4NJ,Cotswold,South West,51.792491,-1.901315,200,OK
53.701529,-2.687567,PR25 4QE,South Ribble,North West,53.701538,-2.687552,200,OK
55.788549,-4.160001,G74 4PE,South Lanarkshire,,55.788549,-4.160001,200,OK
53.471291,-1.477206,S35 3XX,Sheffield,Yorkshire and The Humber,53.470699,-1.477514,200,OK
53.744695,-1.758377,BD12 9HH,Bradford,Yorkshire and The Humber,53.744695,-1.758377,200,OK
50.95216,-1.216287,SO32 1DP,Winchester,South East,50.95216,-1.216287,200,OK
52.760907,-2.096116,ST17 0SJ,South Staffordshire,West Midlands,52.760907,-2.096116,200,OK
54.707797,-1.758855,DL15 9FN,County Durham,North East,54.707797,-1.758855,200,OK
51.423248,-0.320194,TW11 9PB,Richmond upon Thames,London,51.42356,-0.320629,200,OK
52.162752,0.967482,IP14 2JZ,Mid Suffolk,East of England,52.163061,0.968073,200,OK
55.97499,-3.174178,EH6 6ES,City of Edinburgh,,55.975108,-3.174021,200,OK
53.862597,-1.527553,LS17 7DY,Leeds,Yorkshire and The Humber,53.862597,-1.527553,200,OK
55.03102,-1.585395,NE12 7ET,North Tyneside,North East,55.030677,-1.585164,200,OK
53.719519,-1.652113,WF17 8EF,Kirklees,Yorkshire and The Humber,53.719437,-1.65172,200,OK
51.465729,-3.186329,CF11 7LG,Cardiff,,51.465729,-3.186329,200,OK
53.564861,-1.020529,DN7 4BP,Doncaster,Yorkshire and The Humber,53.564861,-1.020529,200,OK
52.660983,-3.143348,SY21 7ED,Powys,,52.660983,-3.143348,200,OK
50.832641,-0.214102,BN41 1LA,Brighton and Hove,South East,50.832688,-0.214086,200,OK
55.77331,-3.959267,ML1 2JT,North Lanarkshire,,55.77331,-3.959267,200,OK
53.370075,-3.003596,CH42 1PQ,Wirral,North West,53.370075,-3.003596,200,OK
51.773792,-1.268043,OX2 7BH,Oxford,South East,51.773567,-1.267931,200,OK
53.642151,-2.632268,PR7 3JD,Chorley,North West,53.642151,-2.632268,200,OK
53.829089,-1.944205,BD22 9PJ,Bradford,Yorkshire and The Humber,53.829089,-1.944205,200,OK
51.133051,0.865013,TN23 6JR,Ashford,South East,51.133051,0.865013,200,OK
51.795952,-2.61867,GL16 8FD,Forest of Dean,South West,51.795952,-2.61867,200,OK
52.853306,-1.449789,DE73 7GT,South Derbyshire,East Midlands,52.852954,-1.449407,200,OK
51.130875,0.045343,RH19 3QA,Wealden,South East,51.130875,0.045343,200,OK
53.406,-2.333635,WA15 6BJ,Trafford,North West,53.406,-2.333635,200,OK
52.469657,-1.831419,B10 9JF,Birmingham,West Midlands,52.469657,-1.831419,200,OK
53.395729,-2.163788,SK3 8EN,Stockport,North West,53.395729,-2.163788,200,OK
51.02013,0.622092,TN18 5QQ,Ashford,South East,51.020047,0.622572,200,OK
55.762462,-4.054519,ML3 8JR,South Lanarkshire,,55.762462,-4.054519,200,OK
53.615556,-2.135629,OL16 3AT,Rochdale,North West,53.615556,-2.135629,200,OK
50.989023,-3.560735,EX16 9HH,Mid Devon,South West,50.989023,-3.560735,200,OK
50.820784,-0.37896,BN14 7AL,Worthing,South East,50.820786,-0.378963,200,OK
55.858058,-4.282856,G3 8HN,Glasgow City,,55.857949,-4.282898,200,OK
52.398842,-2.02641,B45 9XE,Bromsgrove,West Midlands,52.398842,-2.02641,200,OK
55.648307,-4.743253,KA20 4HS,North Ayrshire,,55.648307,-4.743253,200,OK
54.767728,-1.524178,DH1 2SQ,County Durham,North East,54.767728,-1.524178,200,OK
51.752578,-1.19985,OX3 8QJ,Oxford,South East,51.752578,-1.19985,200,OK
53.850725,-1.837314,BD97 1AF,Bradford,Yorkshire and The Humber,53.850509,-1.837421,200,OK
51.186748,1.230927,CT15 7NP,Dover,South East,51.186719,1.230982,200,OK
53.467516,-2.307124,M17 1BN,Trafford,North West,53.467516,-2.307124,200,OK
53.343273,-3.003297,CH63 3DU,Wirral,North West,53.343233,-3.00271,200,OK
53.392205,-1.47425,S3 8BL,Sheffield,Yorkshire and The Humber,53.392205,-1.47425,200,OK
58.588213,-3.521803,KW14 8PT,Highland,,58.588213,-3.521803,200,OK
50.33858,-4.761728,PL25 3LQ,Cornwall,South West,50.33858,-4.761728,200,OK
55.854777,-4.551491,PA11 3RG,Renfrewshire,,55.854777,-4.551491,200,OK
51.450292,0.103657,DA15 9LU,Bexley,London,51.450264,0.10423,200,OK
51.878587,-0.425881,LU1 1QD,Luton,East of England,51.878587,-0.425881,200,OK
51.495561,-0.378028,UB2 5UY,Hounslow,London,51.495561,-0.378028,200,OK
54.980845,-3.267424,DG12 6HB,Dumfries and Galloway,,54.980845,-3.267424,200,OK
53.571914,-2.635991,WN1 2RZ,Wigan,North West,53.571914,-2.635991,200,OK
56.216743,-3.055011,KY8 5HQ,Fife,,56.216743,-3.055011,200,OK
50.923534,-1.36041,SO18 2EQ,Southampton,South East,50.923543,-1.36041,200,OK
53.746331,-1.885845,HX2 8JF,Calderdale,Yorkshire and The Humber,53.746331,-1.885845,200,OK
53.33159,-2.746846,WA7 4BT,Halton,North West,53.33159,-2.746846,200,OK
53.92238,-3.015353,FY7 6LJ,Wyre,North West,53.922091,-3.015453,200,OK
53.195461,-0.474857,LN4 1PF,North Kesteven,East Midlands,53.195461,-0.474857,200,OK
54.04544,-2.883969,LA3 2HU,Lancaster,North West,54.04544,-2.883969,200,OK
51.536595,-0.142878,NW1 7NH,Camden,London,51.536714,-0.143032,200,OK
54.077644,-0.936739,YO60 7QF,North Yorkshire,Yorkshire and The Humber,54.077632,-0.936434,200,OK
53.040967,-3.003943,LL13 7UN,Wrexham,,53.040967,-3.003943,200,OK
51.584427,-2.994068,NP20 1LY,Newport,,51.584492,-2.994076,200,OK
53.564621,-2.074441,OL1 4SE,Oldham,North West,53.564621,-2.074441,200,OK
52.710633,1.266859,NR10 3AP,Broadland,East of England,52.710633,1.266859,200,OK
51.769987,-0.214637,AL9 5DQ,Welwyn Hatfield,East of England,51.769993,-0.214599,200,OK
51.174028,0.503852,TN12 9EZ,Maidstone,South East,51.174028,0.503852,200,OK
52.901397,-1.50218,DE23 6LD,Derby,East Midlands,52.901398,-1.502284,200,OK
55.125487,-1.518289,NE24 2LB,Northumberland,North East,55.125487,-1.518289,200,OK
57.357919,-2.110634,AB41 8NY,Aberdeenshire,,57.357919,-2.110634,200,OK
54.700061,-1.515845,DL17 9PE,County Durham,North East,54.70022,-1.515207,200,OK
57.610252,-3.612226,IV36 1PQ,Moray,,57.610252,-3.612226,200,OK
50.902538,-3.483474,EX16 4LD,Mid Devon,South West,50.902538,-3.483474,200,OK
55.811858,-4.020718,ML4 2DT,North Lanarkshire,,55.811858,-4.020718,200,OK
51.552409,0.667702,SS0 0BS,Southend-on-Sea,East of England,51.552409,0.667702,200,OK
51.583462,-0.267425,NW9 9PF,Brent,London,51.583413,-0.267759,200,OK
52.649555,-0.477232,PE9 2NF,South Kesteven,East Midlands,52.649555,-0.477232,200,OK
53.646148,-3.008961,PR8 1JP,Sefton,North West,53.646047,-3.008187,200,OK
50.890083,-1.454589,SO40 4XF,New Forest,South East,50.890101,-1.454603,200,OK
52.427605,-1.701205,B92 0AD,Solihull,West Midlands,52.427605,-1.701205,200,OK
54.59461,-5.908238,BT6 8AE,Belfast,,54.594335,-5.907943,200,OK
52.251351,-0.264742,PE19 6QE,Huntingdonshire,East of England,52.251351,-0.264742,200,OK
51.595087,-0.311769,HA3 8SX,Harrow,London,51.595087,-0.311769,200,OK
51.55261,-2.415891,BS37 7PQ,South Gloucestershire,South West,51.552587,-2.414751,200,OK
56.036605,-3.368329,KY11 9FT,Fife,,56.036671,-3.368861,200,OK
50.560639,-2.446467,DT5 1AE,Dorset,South West,50.560639,-2.446467,200,OK
53.932152,-0.779597,YO42 2DD,East Riding of Yorkshire,Yorkshire and The Humber,53.932116,-0.779607,200,OK
51.446217,-0.240649,SW15 4LH,Wandsworth,London,51.446217,-0.240649,200,OK
57.14586,-2.084347,AB11 5FT,Aberdeen City,,57.146114,-2.084289,200,OK
51.711984,-0.036301,EN8 0ST,Broxbourne,East of England,51.711984,-0.036301,200,OK
52.67768,-2.030928,WS11 0DF,Cannock Chase,West Midlands,52.677608,-2.03081,200,OK
51.575023,-0.254426,NW9 7LA,Brent,London,51.575023,-0.254426,200,OK
54.012321,-0.428384,YO25 5JD,East Riding of Yorkshire,Yorkshire and The Humber,54.012321,-0.428384,200,OK
53.452987,-2.267264,M16 9RA,Manchester,North West,53.452987,-2.267264,200,OK
53.38093,-3.014706,CH41 9BG,Wirral,North West,53.380735,-3.01434,200,OK
51.505288,0.024687,E16 1TY,Newham,London,51.505288,0.024687,200,OK
53.343769,-1.698765,,,,,,200,OK
55.908858,-3.212091,EH10 6LP,City of Edinburgh,,55.908858,-3.212091,200,OK
53.825686,-2.234906,BB9 5QN,Pendle,North West,53.825686,-2.234906,200,OK
51.177216,0.613413,TN27 9RR,Maidstone,South East,51.177216,0.613413,200,OK
53.44276,-2.753056,WA10 3LX,St. Helens,North West,53.44276,-2.753056,200,OK
52.191177,-2.504874,HR7 4DA,"Herefordshire, County of",West Midlands,52.191177,-2.504874,200,OK
53.743944,-1.923757,HX2 7SZ,Calderdale,Yorkshire and The Humber,53.743944,-1.923757,200,OK
52.586941,-1.987691,WS2 8LL,Walsall,West Midlands,52.586878,-1.988577,200,OK
52.542235,-2.080169,WV14 8HL,Dudley,West Midlands,52.542235,-2.080169,200,OK
51.287622,-0.832761,GU51 3QE,Hart,South East,51.287622,-0.832761,200,OK
51.470001,-2.544149,BS5 7ES,"Bristol, City of",South West,51.47,-2.544149,200,OK
54.873915,-1.406238,SR3 1ET,Sunderland,North East,54.87386,-1.406083,200,OK
55.155655,-1.687098,NE61 2EG,Northumberland,North East,55.155655,-1.687098,200,OK
51.569255,-0.219468,NW2 1DH,Barnet,London,51.569666,-0.219614,200,OK
51.893995,-4.244279,SA32 7AF,Carmarthenshire,,51.893995,-4.244279,200,OK
52.919072,-1.39766,DE21 7QG,Derby,East Midlands,52.918973,-1.39745,200,OK
56.422549,-5.475742,PA34 5BB,Argyll and Bute,,56.422549,-5.475742,200,OK
51.572916,0.357741,CM13 3LT,Brentwood,East of England,51.572916,0.357741,200,OK
51.583261,-0.363721,HA2 7LQ,Harrow,London,51.583261,-0.363721,200,OK
57.145663,-2.096658,AB11 6QF,Aberdeen City,,57.145726,-2.09641,200,OK
53.82474,-1.51657,LS8 4DD,Leeds,Yorkshire and The Humber,53.824856,-1.51674,200,OK
51.423864,-0.074338,SE19 1UE,Bromley,London,51.423864,-0.074338,200,OK
50.737406,-2.757388,DT6 3AF,Dorset,South West,50.737406,-2.757388,200,OK
53.532762,-2.479646,M46 9LL,Wigan,North West,53.532762,-2.479646,200,OK
53.381682,-1.973998,,,,,,200,OK
51.462308,-0.981796,RG1 8LG,Reading,South East,51.462308,-0.981796,200,OK
50.898789,0.506648,TN33 0SW,Rother,South East,50.898789,0.506648,200,OK
53.818063,-3.049159,FY1 3PP,Blackpool,North West,53.818063,-3.049159,200,OK
52.405514,-1.557095,CV5 7AJ,Coventry,West Midlands,52.405514,-1.557095,200,OK
55.945325,-3.242324,EH12 5QQ,City of Edinburgh,,55.945325,-3.242324,200,OK
53.524506,-1.269931,DN5 7EP,Doncaster,Yorkshire and The Humber,53.524506,-1.269931,200,OK
51.406917,-0.733655,RG12 9LL,Bracknell Forest,South East,51.406917,-0.733655,200,OK
52.404373,-0.661191,NN14 3AG,North Northamptonshire,East Midlands,52.404373,-0.661235,200,OK
53.361516,-3.007016,CH63 7LJ,Wirral,North West,53.361516,-3.007016,200,OK
51.435129,-0.787616,RG42 5LN,Bracknell Forest,South East,51.435129,-0.787616,200,OK
51.184603,-0.608971,GU7 1GU,Waverley,South East,51.184659,-0.609662,200,OK
53.362293,-2.992624,CH62 1DE,Wirral,North West,53.362293,-2.992624,200,OK
50.393299,-3.519546,TQ5 8NQ,Torbay,South West,50.393299,-3.519546,200,OK
51.512273,0.027418,E16 3NW,Newham,London,51.512315,0.027188,200,OK
57.144622,-2.116287,AB25 1XX,Aberdeen City,,57.144622,-2.116287,200,OK
52.042413,-0.765155,MK9 2DD,Milton Keynes,South East,52.042413,-0.765155,200,OK
51.535725,0.690564,SS0 7SW,Southend-on-Sea,East of England,51.535998,0.690421,200,OK
57.478506,-4.227749,IV1 1QU,Highland,,57.478269,-4.227451,200,OK
52.739,1.421977,,,,,,200,OK
53.968886,-1.076877,YO31 7NH,York,Yorkshire and The Humber,53.968905,-1.076917,200,OK
50.8684,-0.988882,PO9 4QP,Havant,South East,50.8684,-0.988882,200,OK
50.900848,-1.389305,SO14 5DJ,Southampton,South East,50.901009,-1.389151,200,OK
51.589686,-0.222209,NW4 4DT,Barnet,London,51.589717,-0.222453,200,OK
53.363129,-2.994807,CH62 1BH,Wirral,North West,53.362984,-2.994894,200,OK
53.370466,-2.914703,L18 4PF,Liverpool,North West,53.370466,-2.914703,200,OK
51.648068,-0.70943,HP15 7UZ,Buckinghamshire,South East,51.648077,-0.709415,200,OK
51.524777,-0.180667,W9 1AT,Westminster,London,51.524777,-0.180667,200,OK
53.790916,-1.307011,LS25 6JP,North Yorkshire,Yorkshire and The Humber,53.790916,-1.307011,200,OK
53.694727,-0.769829,DN14 8HH,East Riding of Yorkshire,Yorkshire and The Humber,53.694727,-0.769829,200,OK
50.21586,-5.111594,TR3 7NJ,Cornwall,South West,50.21586,-5.111594,200,OK
50.849809,-1.200673,PO14 1LZ,Fareham,South East,50.849809,-1.200673,200,OK
53.386892,-3.055865,CH43 6TA,Wirral,North West,53.386892,-3.055865,200,OK
51.520612,-0.017935,E3 3QG,Tower Hamlets,London,51.520612,-0.017935,200,OK
52.485746,-1.786864,B33 3EX,Birmingham,West Midlands,52.485746,-1.786864,200,OK
53.195944,-2.899352,CH1 4HU,Cheshire West and Chester,North West,53.195944,-2.899352,200,OK
51.688817,-3.73893,SA11 4ES,Neath Port Talbot,,51.688817,-3.73893,200,OK
51.401131,-3.414749,CF62 4PN,Vale of Glamorgan,,51.401122,-3.41472,200,OK
51.445894,-1.104905,RG7 5EJ,West Berkshire,South East,51.445894,-1.104905,200,OK
52.988148,-2.2418,ST5 3LE,Newcastle-under-Lyme,West Midlands,52.988148,-2.2418,200,OK
53.880665,-1.59457,,,,,,200,OK
51.875412,0.911606,CO2 8SJ,Colchester,East of England,51.875412,0.911606,200,OK
50.74418,-1.711811,BH23 5AH,"Bournemouth, Christchurch and Poole",South West,50.74418,-1.711811,200,OK
55.134257,-6.652677,BT52 2EH,Causeway Coast and Glens,,55.134161,-6.652993,200,OK
51.389734,-0.382894,KT12 3RX,Elmbridge,South East,51.389734,-0.382894,200,OK
51.474646,-0.045491,SE14 9BA,Lewisham,London,51.474646,-0.045491,200,OK
55.089439,-3.513958,DG1 3PX,Dumfries and Galloway,,55.089439,-3.513958,200,OK
52.904493,-1.28442,NG10 4GA,Erewash,East Midlands,52.904493,-1.28442,200,OK
51.506212,-0.418486,UB3 4DX,Hillingdon,London,51.506204,-0.418481,200,OK
54.265056,-5.61053,BT30 7TJ,"Newry, Mourne and Down",,54.265056,-5.61053,200,OK
51.48151,-3.202226,CF5 1WX,Cardiff,,51.48151,-3.202226,200,OK
51.749003,-0.335546,AL1 1AS,St Albans,East of England,51.749073,-0.335471,200,OK
52.360316,-1.216647,CV21 4PJ,Rugby,West Midlands,52.360316,-1.216647,200,OK
51.589532,-3.772957,SA13 1SW,Neath Port Talbot,,51.589532,-3.772957,200,OK
55.422797,-2.807758,TD9 7HZ,Scottish Borders,,55.422797,-2.807758,200,OK
53.2388,-1.428752,S41 7PB,Chesterfield,East Midlands,53.2388,-1.428752,200,OK
54.507995,-6.037428,BT27 5EB,Lisburn and Castlereagh,,54.507995,-6.037428,200,OK
51.441996,-3.185734,CF64 2LE,Vale of Glamorgan,,51.442005,-3.185749,200,OK
52.563615,-2.032126,WS10 7TA,Walsall,West Midlands,52.563615,-2.032126,200,OK
53.934764,-2.760245,PR3 1NN,Wyre,North West,53.934764,-2.760245,200,OK
53.570957,-1.656519,HD8 8TR,Kirklees,Yorkshire and The Humber,53.570957,-1.656519,200,OK
52.720421,-1.04334,,,,,,200,OK
51.58268,-2.99976,NP20 4ED,Newport,,51.58268,-2.99976,200,OK
54.753527,-1.333001,SR8 5UD,County Durham,North East,54.753527,-1.333001,200,OK
51.485253,0.160677,DA17 6HT,Bexley,London,51.485253,0.160677,200,OK
50.352837,-4.116918,PL9 9RU,Plymouth,South West,50.352837,-4.116918,200,OK
53.696368,-2.716941,PR25 1XY,South Ribble,North West,53.696341,-2.71691,200,OK
52.240909,0.019263,CB23 8DG,South Cambridgeshire,East of England,52.240936,0.019264,200,OK
53.389278,-2.324829,WA15 7PR,Trafford,North West,53.389278,-2.324829,200,OK
55.699958,-3.972193,ML9 3NJ,South Lanarkshire,,55.699958,-3.972193,200,OK
53.923671,-1.798844,LS29 8BF,Bradford,Yorkshire and The Humber,53.923671,-1.798844,200,OK
51.385128,-2.363514,BA1 2PD,Bath and North East Somerset,South West,51.385124,-2.363512,200,OK
51.527144,0.169825,RM13 8FR,Havering,London,51.527144,0.169825,200,OK
53.393942,-1.491583,S6 3QB,Sheffield,Yorkshire and The Humber,53.393942,-1.491583,200,OK
51.59086,-0.375445,HA5 5QP,Harrow,London,51.591114,-0.374931,200,OK
51.390056,0.542699,ME7 1HL,Medway,South East,51.390056,0.542699,200,OK
52.654516,0.168766,PE13 2SQ,Fenland,East of England,52.654729,0.169397,200,OK
51.768969,-1.488281,OX29 7XW,West Oxfordshire,South East,51.768969,-1.488281,200,OK
51.526318,-0.121387,WC1N 1PG,Camden,London,51.526224,-0.121679,200,OK
57.496882,-4.11555,IV2 7GT,Highland,,57.496926,-4.115552,200,OK
51.513061,-0.134367,W1F 0DR,Westminster,London,51.512971,-0.13423,200,OK
53.944193,-1.131843,YO24 3JG,York,Yorkshire and The Humber,53.944218,-1.131714,200,OK
50.845448,-0.789227,PO19 3NS,Chichester,South East,50.845448,-0.789227,200,OK
51.430141,-0.388416,TW13 6TW,Hounslow,London,51.430141,-0.388416,200,OK
51.594744,-0.217966,NW4 1QY,Barnet,London,51.594788,-0.217921,200,OK
53.405226,-2.850331,L36 4QD,Knowsley,North West,53.405226,-2.850331,200,OK
52.240953,-0.953448,NN5 4UH,West Northamptonshire,East Midlands,52.240953,-0.953448,200,OK
50.903472,-3.486363,EX16 6AA,Mid Devon,South West,50.903472,-3.486363,200,OK
52.529172,-2.188409,WV5 0JY,South Staffordshire,West Midlands,52.529172,-2.188409,200,OK
60.162253,-1.169449,ZE1 0NG,Shetland Islands,,60.162253,-1.169449,200,OK
57.559446,-4.178843,IV9 8PW,Highland,,57.559446,-4.178843,200,OK
53.494878,-2.265779,M7 1BP,Salford,North West,53.494795,-2.265776,200,OK
53.032343,-1.2315,NG15 6TL,Ashfield,East Midlands,53.032343,-1.2315,200,OK
53.932546,-1.383853,LS22 7BB,Leeds,Yorkshire and The Humber,53.932546,-1.383853,200,OK
55.036579,-6.628334,BT51 4DJ,Causeway Coast and Glens,,55.036579,-6.628334,200,OK
52.899459,0.789179,,,,,,200,OK
53.362566,-3.026186,CH63 5QW,Wirral,North West,53.362566,-3.026186,200,OK
51.489336,-2.595466,BS9 4SX,"Bristol, City of",South West,51.489336,-2.595466,200,OK
52.452544,-1.21997,LE17 4YW,Harborough,East Midlands,52.452544,-1.21997,200,OK
56.026608,-4.16799,,,,,,200,OK
54.754286,-6.463248,BT41 3TQ,Antrim and Newtownabbey,,54.754573,-6.461823,200,OK
53.588334,-0.654417,DN15 7PR,North Lincolnshire,Yorkshire and The Humber,53.588334,-0.654417,200,OK
54.293393,-7.460907,BT94 4LR,Fermanagh and Omagh,,54.293393,-7.460907,200,OK
55.705814,-3.912182,ML9 3DF,South Lanarkshire,,55.705814,-3.912182,200,OK
52.412707,-0.320757,PE28 5RF,Huntingdonshire,East of England,52.412708,-0.320772,200,OK
51.383524,-0.239634,KT4 8AW,Sutton,London,51.383439,-0.239426,200,OK
51.484366,-0.650658,SL4 5SE,Windsor and Maidenhead,South East,51.484366,-0.650658,200,OK
51.748352,-0.225921,AL10 8XS,Welwyn Hatfield,East of England,51.748348,-0.225899,200,OK
52.844728,-4.543995,LL53 7SN,Gwynedd,,52.844728,-4.543995,200,OK
50.959244,-0.501408,RH20 2GD,Horsham,South East,50.959244,-0.501408,200,OK
52.506173,-2.103478,DY1 2JA,Dudley,West Midlands,52.506173,-2.103478,200,OK
52.206771,-0.883861,NN4 6HB,West Northamptonshire,East Midlands,52.206771,-0.883861,200,OK
51.57066,0.144435,RM6 6DT,Barking and Dagenham,London,51.57066,0.144435,200,OK
51.492063,0.04679,,,,,,200,OK
50.674643,-1.094211,,,,,,200,OK
50.931397,-0.559655,RH20 1NQ,Horsham,South East,50.931397,-0.559655,200,OK
51.74635,-0.264886,AL4 0SA,St Albans,East of England,51.74635,-0.264886,200,OK
50.949672,-2.678127,BA22 8RL,Somerset,South West,50.949984,-2.678644,200,OK
55.844192,-4.418191,PA1 1AD,Renfrewshire,,55.844032,-4.418295,200,OK
53.349434,-2.2217,SK9 3HE,Cheshire East,North West,53.349434,-2.2217,200,OK
51.797761,-0.343646,AL5 1BT,St Albans,East of England,51.797506,-0.344033,200,OK
51.530725,-3.203695,CF14 6PG,Cardiff,,51.53061,-3.204456,200,OK
52.235977,-1.05534,NN7 4LG,West Northamptonshire,East Midlands,52.235977,-1.05534,200,OK
51.246891,0.426387,ME18 5EE,Maidstone,South East,51.246891,0.426387,200,OK
51.523915,-0.081408,EC2A 4AZ,Hackney,London,51.523826,-0.081483,200,OK
51.475253,-3.176316,CF10 5BT,Cardiff,,51.475248,-3.175955,200,OK
51.51024,-0.038057,E14 8DY,Tower Hamlets,London,51.51024,-0.038057,200,OK
51.985331,-3.918234,SA19 8NT,Carmarthenshire,,51.985331,-3.918234,200,OK
54.641868,-5.639347,BT19 6PJ,Ards and North Down,,54.641763,-5.639059,200,OK
51.575042,-0.122034,N8 9RD,Haringey,London,51.575042,-0.122034,200,OK
51.793593,-3.172982,NP23 4YF,Blaenau Gwent,,51.79315,-3.17226,200,OK
50.885837,-0.969284,PO9 6HA,East Hampshire,South East,50.8861,-0.969591,200,OK
57.423491,-2.239087,AB41 7DF,Aberdeenshire,,57.423462,-2.23997,200,OK
53.935927,-1.398752,LS22 6AR,Leeds,Yorkshire and The Humber,53.935927,-1.398752,200,OK
51.874158,-1.36519,OX20 1DU,West Oxfordshire,South East,51.874596,-1.364763,200,OK
50.735688,-3.502442,EX4 7LF,Exeter,South West,50.735688,-3.502442,200,OK
53.060745,-0.787826,NG24 3EZ,Newark and Sherwood,East Midlands,53.060764,-0.7879,200,OK
52.270877,0.822858,IP31 2ND,West Suffolk,East of England,52.270877,0.822858,200,OK
53.453505,-2.28079,M16 0GH,Trafford,North West,53.453505,-2.28079,200,OK
51.260793,-0.84128,GU52 6PQ,Hart,South East,51.260713,-0.84131,200,OK
54.554017,-1.265258,TS5 4JS,Middlesbrough,North East,54.554016,-1.26515,200,OK
53.836403,-2.498261,BB7 9QP,Ribble Valley,North West,53.836403,-2.498261,200,OK
53.319176,-2.655134,WA7 3AX,Halton,North West,53.319176,-2.655134,200,OK
51.542417,-0.170041,NW3 3ST,Camden,London,51.542195,-0.170209,200,OK
53.479051,-2.589096,WA3 3DZ,Wigan,North West,53.479051,-2.589096,200,OK
51.118598,1.198125,CT18 7EN,Dover,South East,51.118598,1.198125,200,OK
51.455461,-0.189815,SW18 2JU,Wandsworth,London,51.455461,-0.189815,200,OK
54.613045,-1.276569,TS23 3JS,Stockton-on-Tees,North East,54.613045,-1.276569,200,OK
51.45859,-2.49355,BS15 9UH,South Gloucestershire,South West,51.45859,-2.49355,200,OK
53.282412,-4.634044,LL65 2WN,Isle of Anglesey,,53.282626,-4.634523,200,OK
52.705887,-2.524943,TF1 3ER,Telford and Wrekin,West Midlands,52.705887,-2.524943,200,OK
51.127279,-0.01387,RH19 1UA,Mid Sussex,South East,51.127279,-0.01387,200,OK
50.762728,-3.468824,EX4 0AW,East Devon,South West,50.762728,-3.468824,200,OK
53.552275,-2.180709,M24 2DL,Rochdale,North West,53.552293,-2.18083,200,OK
53.618567,-0.211784,DN40 2JN,North East Lincolnshire,Yorkshire and The Humber,53.618567,-0.211784,200,OK
53.185054,-3.133597,CH7 6HA,Flintshire,,53.185054,-3.133597,200,OK
55.940467,-4.316849,G62 6BJ,East Dunbartonshire,,55.940345,-4.317739,200,OK
51.591303,-0.328843,HA3 5AZ,Harrow,London,51.591303,-0.328843,200,OK
54.132308,-1.247779,YO61 3LT,North Yorkshire,Yorkshire and The Humber,54.132611,-1.247844,200,OK
51.512059,-0.130747,W1D 5PL,Westminster,London,51.512059,-0.130747,200,OK
55.83543,-4.408049,PA2 6XH,Renfrewshire,,55.83543,-4.408049,200,OK
51.268902,-0.318445,RH5 6EG,Mole Valley,South East,51.268902,-0.318445,200,OK
52.440421,-2.943624,SY7 0JG,Shropshire,West Midlands,52.440421,-2.943624,200,OK
51.5858,-0.6816,HP10 0EA,Buckinghamshire,South East,51.58587,-0.682584,200,OK
51.246425,-0.07044,RH9 8NH,Tandridge,South East,51.246425,-0.07044,200,OK
51.631206,-0.348848,WD23 1JR,Hertsmere,East of England,51.631206,-0.348848,200,OK
53.931678,-1.112943,YO24 1UR,York,Yorkshire and The Humber,53.931687,-1.112935,200,OK
51.645487,0.068335,IG10 3HG,Epping Forest,East of England,51.645487,0.068335,200,OK
55.071571,-3.619566,DG2 0AB,Dumfries and Galloway,,55.071571,-3.619566,200,OK
51.52057,-0.582969,SL2 5FE,Slough,South East,51.52057,-0.582969,200,OK
53.649028,-1.738002,HD5 9UR,Kirklees,Yorkshire and The Humber,53.649028,-1.738002,200,OK
58.023551,-4.397178,IV27 4DD,Highland,,58.023551,-4.397178,200,OK
53.488737,-2.24538,M3 1PT,Manchester,North West,53.489149,-2.245198,200,OK
53.593902,-1.318125,WF9 3NT,Wakefield,Yorkshire and The Humber,53.594177,-1.317639,200,OK
55.111519,-2.271687,NE48 3QE,Northumberland,North East,55.111519,-2.271687,200,OK
53.487067,-2.496552,WN7 3EF,Wigan,North West,53.487067,-2.496552,200,OK
51.5128,-0.313637,W13 8RJ,Ealing,London,51.5128,-0.313637,200,OK
55.836811,-4.267812,G42 8PT,Glasgow City,,55.836811,-4.267812,200,OK
51.379964,-0.066295,CR0 7EF,Croydon,London,51.379964,-0.066295,200,OK
52.484405,-1.816358,B33 8AE,Birmingham,West Midlands,52.484405,-1.816358,200,OK
51.413507,-0.054353,SE20 8JQ,Bromley,London,51.413507,-0.054353,200,OK
50.86853,-1.049247,,,,,,200,OK
52.392067,-1.505341,CV3 5QL,Coventry,West Midlands,52.392067,-1.505341,200,OK
52.469798,-1.941,B15 3NJ,Birmingham,West Midlands,52.469798,-1.941,200,OK
53.702441,-2.680539,PR25 4XP,South Ribble,North West,53.702441,-2.680539,200,OK
54.936723,-1.589627,NE9 5RP,Gateshead,North East,54.936723,-1.589627,200,OK
57.166896,-2.15991,AB16 7NN,Aberdeen City,,57.166896,-2.159927,200,OK
52.452611,0.624834,IP27 0AN,West Suffolk,East of England,52.452611,0.624834,200,OK
51.901789,-0.447164,LU3 2NX,Luton,East of England,51.901789,-0.447164,200,OK
53.160554,-3.148058,CH7 1PU,Flintshire,,53.160554,-3.148058,200,OK
53.454747,-2.410654,M44 6HD,Salford,North West,53.454747,-2.410654,200,OK
50.518567,-3.744415,TQ13 7LB,Teignbridge,South West,50.518567,-3.744415,200,OK
52.899437,-1.508446,DE23 1FE,Derby,East Midlands,52.899437,-1.508446,200,OK
51.564617,-0.047721,E5 9SU,Hackney,London,51.564617,-0.047721,200,OK
53.390471,-2.943988,L8 0SF,Liverpool,North West,53.390471,-2.943988,200,OK
51.798418,-2.914036,NP15 2NA,Monmouthshire,,51.798418,-2.914036,200,OK
57.144816,-2.112692,AB10 1UG,Aberdeen City,,57.144816,-2.112692,200,OK
51.30823,0.963525,ME13 9JZ,Swale,South East,51.30823,0.963525,200,OK
50.510505,-3.618902,TQ12 5GH,Teignbridge,South West,50.510505,-3.618902,200,OK
54.973847,-2.673676,CA8 2JH,Cumberland,North West,54.973853,-2.673682,200,OK
57.648756,-3.300817,IV30 1XH,Moray,,57.648756,-3.300817,200,OK
53.558904,-2.110646,OL2 6FU,Oldham,North West,53.558904,-2.110646,200,OK
51.51024,-3.184422,CF14 4EP,Cardiff,,51.510017,-3.183502,200,OK
55.800191,-2.217565,TD11 3UW,Scottish Borders,,55.800191,-2.217565,200,OK
52.450716,-2.051103,B63 3BD,Dudley,West Midlands,52.450713,-2.05117,200,OK
52.635389,1.279044,NR2 4JQ,Norwich,East of England,52.635343,1.278775,200,OK
51.385211,1.407725,CT9 3LY,Thanet,South East,51.385211,1.407725,200,OK
51.494022,-2.619182,BS10 6YD,"Bristol, City of",South West,51.494022,-2.619182,200,OK
52.949308,-1.039891,NG12 1AA,Rushcliffe,East Midlands,52.949308,-1.039891,200,OK
53.078953,-2.04007,ST13 7FD,Staffordshire Moorlands,West Midlands,53.078953,-2.04007,200,OK
52.976493,-1.187144,NG6 0JF,Nottingham,East Midlands,52.976493,-1.187144,200,OK
50.865538,0.027526,BN8 6JN,Lewes,South East,50.865538,0.027526,200,OK
53.706796,-1.848064,HX3 9JS,Calderdale,Yorkshire and The Humber,53.706796,-1.848064,200,OK
55.865218,-3.133488,EH18 1EA,Midlothian,,55.865218,-3.133488,200,OK
51.808646,-3.866204,SA18 1SN,Neath Port Talbot,,51.808646,-3.866204,200,OK
53.293074,-0.738339,LN1 2ET,West Lindsey,East Midlands,53.293074,-0.738339,200,OK
51.397809,-0.101672,CR7 7JJ,Croydon,London,51.397798,-0.101557,200,OK
53.386483,-2.920775,L18 1HJ,Liverpool,North West,53.386483,-2.920775,200,OK
52.489984,-1.475319,CV12 8AU,Nuneaton and Bedworth,West Midlands,52.489984,-1.475319,200,OK
53.651337,-2.968386,PR9 7EY,Sefton,North West,53.651016,-2.968076,200,OK
51.409581,-0.140451,SW16 5BN,Merton,London,51.409448,-0.140011,200,OK
54.920185,-2.54157,CA8 7LD,Northumberland,North East,54.920167,-2.54157,200,OK
57.110818,-2.116957,AB12 5XD,Aberdeen City,,57.110818,-2.116957,200,OK
51.60675,-0.061328,N17 0EN,Haringey,London,51.606469,-0.061321,200,OK
51.504381,-0.756358,SL6 3XJ,Windsor and Maidenhead,South East,51.504072,-0.756856,200,OK
52.248673,-0.827806,NN3 9AH,West Northamptonshire,East Midlands,52.248673,-0.827806,200,OK
51.017878,-3.107531,TA1 1XL,Somerset,South West,51.017878,-3.107531,200,OK
51.558709,-0.379707,HA4 0QL,Harrow,London,51.558709,-0.379707,200,OK
52.722837,-2.105611,ST19 5DY,South Staffordshire,West Midlands,52.722837,-2.105611,200,OK
53.093916,-3.80742,LL24 0BW,Conwy,,53.093916,-3.80742,200,OK
53.836419,-1.729526,BD10 9RW,Bradford,Yorkshire and The Humber,53.836419,-1.729526,200,OK
55.923126,-4.172157,G66 4DL,East Dunbartonshire,,55.923126,-4.172157,200,OK
52.264228,0.18563,CB25 9NJ,South Cambridgeshire,East of England,52.264228,0.18563,200,OK
52.117296,-1.745697,CV37 8ST,Stratford-on-Avon,West Midlands,52.117467,-1.74574,200,OK
56.491435,-2.941987,DD4 9HJ,Dundee City,,56.491435,-2.941987,200,OK
51.599511,0.183004,RM1 4YU,Havering,London,51.599511,0.18299,200,OK
50.686931,-1.083529,PO35 5UD,Isle of Wight,South East,50.686931,-1.083529,200,OK
54.873788,-3.385405,CA7 4QE,Cumberland,North West,54.873788,-3.385405,200,OK
51.478196,-0.647237,SL4 4JR,Windsor and Maidenhead,South East,51.478196,-0.647237,200,OK
51.496666,-2.479196,BS16 7TB,South Gloucestershire,South West,51.496666,-2.479196,200,OK
52.190223,0.121208,CB2 7UA,Cambridge,East of England,52.190223,0.121208,200,OK
51.657739,-0.081255,EN2 0AD,Enfield,London,51.657739,-0.081255,200,OK
52.754712,-1.382786,,,,,,200,OK
54.920186,-1.764905,NE39 2ND,Gateshead,North East,54.920186,-1.764905,200,OK
51.605884,-0.560395,SL9 9FU,Buckinghamshire,South East,51.605884,-0.560395,200,OK
50.460066,-4.894002,PL30 5PW,Cornwall,South West,50.460066,-4.894002,200,OK
51.477862,-2.505609,BS16 4QE,South Gloucestershire,South West,51.477862,-2.505609,200,OK
54.596691,-5.908549,BT5 4DF,Belfast,,54.596691,-5.908549,200,OK
53.323229,-1.92844,SK23 9SE,High Peak,East Midlands,53.323238,-1.928425,200,OK
52.041983,0.732541,CO10 1UR,Babergh,East of England,52.041961,0.732306,200,OK
53.395362,-2.422894,WA13 9UH,Trafford,North West,53.395362,-2.422894,200,OK
56.402492,-3.462436,PH1 2LP,Perth and Kinross,,56.402492,-3.462436,200,OK
53.573614,-1.378978,S72 7NZ,Barnsley,Yorkshire and The Humber,53.573614,-1.378978,200,OK
54.551122,-5.897852,BT8 6RQ,Lisburn and Castlereagh,,54.551122,-5.897852,200,OK
51.835687,-2.248111,GL4 0JA,Gloucester,South West,51.835687,-2.248111,200,OK
51.749358,0.08826,CM18 7QB,Harlow,East of England,51.749358,0.08826,200,OK
50.928946,-1.331266,SO30 3GD,Eastleigh,South East,50.928937,-1.331255,200,OK
55.918567,-3.161271,EH16 6XD,City of Edinburgh,,55.918567,-3.161271,200,OK
51.560435,-0.1441,NW5 1HF,Camden,London,51.560804,-0.144662,200,OK
53.004525,-2.341214,CW3 9EZ,Newcastle-under-Lyme,West Midlands,53.004595,-2.341468,200,OK
53.244481,-1.414037,,,,,,200,OK
53.196917,-1.204028,NG20 8QY,Bolsover,East Midlands,53.196917,-1.204028,200,OK
51.741104,-4.311001,SA17 5EQ,Carmarthenshire,,51.741104,-4.311001,200,OK
53.843213,-0.42144,HU17 0BE,East Riding of Yorkshire,Yorkshire and The Humber,53.843213,-0.42144,200,OK
52.337983,-0.965103,NN6 8NS,West Northamptonshire,East Midlands,52.337983,-0.965103,200,OK
53.696705,-1.423226,WF6 1AT,Wakefield,Yorkshire and The Humber,53.696705,-1.423226,200,OK
51.449427,-0.043169,SE23 1DY,Lewisham,London,51.449427,-0.043143,200,OK
55.925546,-3.281142,EH11 3TS,City of Edinburgh,,55.925546,-3.281142,200,OK
50.720837,-3.538589,EX4 3BT,Exeter,South West,50.720837,-3.538589,200,OK
51.210366,-0.791666,GU9 8ND,Waverley,South East,51.210366,-0.791666,200,OK
52.991978,-0.34024,NG34 9QF,North Kesteven,East Midlands,52.991978,-0.34024,200,OK
54.588172,-5.800082,BT16 2FB,Lisburn and Castlereagh,,54.588172,-5.800082,200,OK
52.531989,-2.075831,DY4 9SP,Sandwell,West Midlands,52.531989,-2.075831,200,OK
50.830359,-1.386689,SO45 2PH,New Forest,South East,50.830009,-1.386708,200,OK
53.231382,-0.597737,,,,,,200,OK
52.574913,-0.382155,PE5 7XE,Peterborough,East of England,52.574913,-0.382155,200,OK
51.86933,-2.489321,GL17 0BJ,Forest of Dean,South West,51.86933,-2.489321,200,OK
51.930255,1.263464,CO12 3TH,Tendring,East of England,51.930255,1.263464,200,OK
55.810464,-4.245052,G44 5EH,Glasgow City,,55.810464,-4.245052,200,OK
54.928957,-6.933602,BT47 4PQ,Causeway Coast and Glens,,54.928957,-6.933602,200,OK
51.469985,-1.033923,RG31 6JX,Reading,South East,51.469632,-1.033584,200,OK
54.973963,-1.640816,NE4 5NP,Newcastle upon Tyne,North East,54.973963,-1.640816,200,OK
55.146593,-4.835067,KA26 0RW,South Ayrshire,,55.146593,-4.835067,200,OK
51.587101,-0.139766,N10 3DH,Haringey,London,51.587101,-0.139766,200,OK
55.906617,-4.326557,G61 1BN,East Dunbartonshire,,55.906617,-4.326557,200,OK
50.999244,-0.376383,RH13 8GE,Horsham,South East,50.999244,-0.376383,200,OK
51.528874,-0.881311,,,,,,200,OK
52.389715,-1.417369,CV3 2NA,Rugby,West Midlands,52.389715,-1.417369,200,OK
51.125707,0.007829,RH19 3XU,Mid Sussex,South East,51.125707,0.007829,200,OK
51.801369,-3.131351,NP7 0PD,Monmouthshire,,51.801369,-3.131351,200,OK
52.601579,-0.263942,PE4 6AQ,Peterborough,East of England,52.601579,-0.263942,200,OK
50.83009,-0.199146,BN3 4LB,Brighton and Hove,South East,50.830129,-0.199089,200,OK
51.171499,0.638527,,,,,,200,OK
52.683238,-1.917608,WS7 9AN,Lichfield,West Midlands,52.683238,-1.917608,200,OK
51.221419,1.394373,CT14 9TG,Dover,South East,51.221419,1.394373,200,OK
51.220005,-0.328848,RH4 2PL,Mole Valley,South East,51.220005,-0.328848,200,OK
52.023067,0.902737,CO6 5DL,Babergh,East of England,52.023067,0.902737,200,OK
53.328379,-3.085276,CH60 2SF,Wirral,North West,53.328379,-3.085276,200,OK
51.405487,-1.325693,RG14 1AZ,West Berkshire,South East,51.405495,-1.325491,200,OK
51.655251,0.115576,RM4 1TX,Epping Forest,East of England,51.655251,0.115576,200,OK
51.770092,-1.589017,OX18 1GE,West Oxfordshire,South East,51.770092,-1.589017,200,OK
51.748221,-2.216706,GL5 1SD,Stroud,South West,51.748221,-2.216706,200,OK
53.538542,-2.006825,OL3 7BU,Oldham,North West,53.538542,-2.006825,200,OK
51.44719,-0.150221,SW12 8PY,Wandsworth,London,51.447134,-0.150039,200,OK
51.407651,0.546666,ME4 3JH,Medway,South East,51.407651,0.546666,200,OK
53.364356,-1.317301,S26 4RD,Rotherham,Yorkshire and The Humber,53.364356,-1.317301,200,OK
53.203139,-1.216534,NG20 8PH,Bolsover,East Midlands,53.203139,-1.216534,200,OK
51.160426,-3.320607,TA4 4PL,Somerset,South West,51.160365,-3.32122,200,OK
53.836596,-1.548983,LS17 5AL,Leeds,Yorkshire and The Humber,53.836596,-1.548983,200,OK
53.850294,-0.426738,HU17 9HU,East Riding of Yorkshire,Yorkshire and The Humber,53.850294,-0.426738,200,OK
50.38937,-4.126424,PL3 5DJ,Plymouth,South West,50.38937,-4.126424,200,OK
52.518514,-2.135684,DY3 2UT,Dudley,West Midlands,52.51852,-2.135192,200,OK
52.078687,-3.321503,LD2 3EQ,Powys,,52.078639,-3.320932,200,OK
53.920238,-2.173876,BB18 6HE,Pendle,North West,53.920238,-2.173876,200,OK
54.906374,-1.379216,SR1 1NW,Sunderland,North East,54.906466,-1.379745,200,OK
57.35422,-2.288494,,,,,,200,OK
55.850096,-4.173145,G32 7AB,Glasgow City,,55.850014,-4.172693,200,OK
50.951749,-4.153164,EX38 8DW,Torridge,South West,50.952153,-4.153168,200,OK
50.262725,-5.038063,TR1 1TL,Cornwall,South West,50.262725,-5.038063,200,OK
54.512935,-7.2653,BT78 2PR,Fermanagh and Omagh,,54.512935,-7.2653,200,OK
50.372408,-4.144482,PL1 1NS,Plymouth,South West,50.372192,-4.144235,200,OK
51.345339,-0.10467,CR8 2BA,Croydon,London,51.345372,-0.104999,200,OK
51.460644,-0.046619,SE15 3BU,Southwark,London,51.460644,-0.046619,200,OK
53.854304,-2.173268,BB8 0SU,Pendle,North West,53.855038,-2.173136,200,OK
52.895774,-1.429154,DE24 8UF,Derby,East Midlands,52.896198,-1.429387,200,OK
52.967288,-1.304765,DE7 5NH,Erewash,East Midlands,52.967288,-1.304765,200,OK
55.868538,-3.953433,ML6 7DE,North Lanarkshire,,55.868538,-3.953433,200,OK
51.722339,-4.05692,SA4 0ZN,Carmarthenshire,,51.722339,-4.05692,200,OK
51.940001,0.875511,CO6 4AA,Colchester,East of England,51.940001,0.875511,200,OK
51.635405,-0.399474,WD19 4LA,Three Rivers,East of England,51.635405,-0.399474,200,OK
50.710142,-3.073941,EX12 2BL,East Devon,South West,50.710142,-3.073941,200,OK
50.903941,-1.349358,SO19 8AQ,Southampton,South East,50.903941,-1.349358,200,OK
51.28309,0.522544,ME14 2XH,Maidstone,South East,51.28309,0.522544,200,OK
51.48117,-0.148793,SW11 8NY,Wandsworth,London,51.48117,-0.148793,200,OK
51.720421,-1.201851,OX4 6HS,Oxford,South East,51.720421,-1.201851,200,OK
50.812099,-1.152958,PO12 4BZ,Gosport,South East,50.812099,-1.152958,200,OK
52.346359,-0.406236,PE28 0PF,Huntingdonshire,East of England,52.346315,-0.406267,200,OK
51.503734,-1.908537,SN4 7QH,Wiltshire,South West,51.503734,-1.908537,200,OK
53.929928,-1.388613,LS22 6NL,Leeds,Yorkshire and The Humber,53.929928,-1.388613,200,OK
51.470733,-0.335037,TW7 6JW,Hounslow,London,51.470563,-0.335072,200,OK
53.292183,-2.927207,CH66 1JS,Cheshire West and Chester,North West,53.292183,-2.927207,200,OK
51.083537,-0.751442,GU27 3QN,Chichester,South East,51.083537,-0.751442,200,OK
51.767177,-0.572246,HP4 1JN,Dacorum,East of England,51.767177,-0.572246,200,OK
51.362023,-2.764202,BS40 5BD,North Somerset,South West,51.361984,-2.764192,200,OK
51.730046,-0.442355,HP3 8RW,Dacorum,East of England,51.730046,-0.442355,200,OK
56.011001,-4.803611,G84 0RJ,Argyll and Bute,,56.011001,-4.803611,200,OK
51.667772,-3.01696,NP44 1UA,Torfaen,,51.667772,-3.01696,200,OK
52.460711,-1.812733,B26 1BY,Birmingham,West Midlands,52.460707,-1.812653,200,OK
56.029542,-5.449423,PA31 8NH,Argyll and Bute,,56.029542,-5.449423,200,OK
51.896741,-0.47299,LU4 0ED,Luton,East of England,51.896741,-0.47299,200,OK
57.667397,-2.523979,AB45 1DQ,Aberdeenshire,,57.667333,-2.524011,200,OK
50.801746,0.270632,BN22 9RJ,Eastbourne,South East,50.801763,0.271584,200,OK
52.124875,-0.495575,MK42 8UP,Bedford,East of England,52.124875,-0.495575,200,OK
52.130768,-2.389233,WR13 5NN,"Herefordshire, County of",West Midlands,52.130768,-2.389233,200,OK
51.639,-2.678116,NP16 5PU,Monmouthshire,,51.639,-2.678116,200,OK
50.697831,-3.494393,EX2 7BD,Exeter,South West,50.697831,-3.494393,200,OK
52.976724,-0.13366,,,,,,200,OK
51.794811,-0.401354,AL3 7NG,St Albans,East of England,51.794811,-0.401354,200,OK
51.543251,-0.291537,HA0 4JG,Brent,London,51.543251,-0.291537,200,OK
51.55866,-0.744881,SL6 9PD,Windsor and Maidenhead,South East,51.55866,-0.744881,200,OK
52.613631,-2.129356,WV10 6EQ,Wolverhampton,West Midlands,52.613631,-2.129356,200,OK
57.663506,-2.487716,AB44 1QG,Aberdeenshire,,57.663391,-2.487246,200,OK
54.690159,-5.900594,BT37 0PH,Antrim and Newtownabbey,,54.690159,-5.900594,200,OK
54.002316,-0.4352,YO25 6PY,East Riding of Yorkshire,Yorkshire and The Humber,54.002067,-0.435312,200,OK
50.867247,-1.779768,BH24 3LY,New Forest,South East,50.867247,-1.779768,200,OK
53.52381,-2.282266,M25 9QA,Bury,North West,53.52381,-2.282266,200,OK
54.745762,-1.283915,TS27 4HP,County Durham,North East,54.745762,-1.283915,200,OK
51.327422,0.828193,ME9 9LH,Swale,South East,51.327422,0.828193,200,OK
51.411447,-0.224229,SW20 8RJ,Merton,London,51.411438,-0.224215,200,OK
53.438213,-2.266148,M21 8UD,Manchester,North West,53.438213,-2.266148,200,OK
56.393503,-3.428087,PH2 8LJ,Perth and Kinross,,56.393503,-3.428087,200,OK
53.168032,-3.3135,LL16 4LW,Denbighshire,,53.168032,-3.3135,200,OK
51.794081,-2.907438,NP15 2AU,Monmouthshire,,51.794081,-2.907438,200,OK
56.00931,-4.742969,G84 9NQ,Argyll and Bute,,56.00931,-4.742969,200,OK
51.615179,-3.963813,SA1 4LP,Swansea,,51.615175,-3.963816,200,OK
51.357797,-2.24688,BA15 2RE,Wiltshire,South West,51.357815,-2.246966,200,OK
50.872819,0.577835,TN34 2JX,Hastings,South East,50.872267,0.576753,200,OK
51.882327,-2.037639,GL53 8QP,Cheltenham,South West,51.882327,-2.037639,200,OK
52.564232,-1.983714,WS5 4NY,Walsall,West Midlands,52.563909,-1.984555,200,OK
53.378628,-1.479498,S3 7SW,Sheffield,Yorkshire and The Humber,53.378628,-1.479498,200,OK
53.48746,-2.245613,M3 1NG,Manchester,North West,53.487397,-2.246035,200,OK
52.628816,-1.116743,LE2 1BA,Leicester,East Midlands,52.628816,-1.116743,200,OK
53.729165,-1.652761,WF17 0BS,Kirklees,Yorkshire and The Humber,53.729165,-1.652761,200,OK
53.736298,-2.656678,PR5 6RQ,South Ribble,North West,53.736314,-2.656675,200,OK
53.919927,-0.775942,YO42 2NR,East Riding of Yorkshire,Yorkshire and The Humber,53.919927,-0.775942,200,OK
51.372645,-2.129677,SN12 7LG,Wiltshire,South West,51.372645,-2.129677,200,OK
53.354714,-2.03417,SK12 2BS,Cheshire East,North West,53.354714,-2.03417,200,OK
56.567988,-2.593196,DD11 4BX,Angus,,56.567988,-2.593196,200,OK
54.982534,-7.33503,BT47 2PZ,Derry City and Strabane,,54.982534,-7.33503,200,OK
52.726288,-4.056578,LL42 1RB,Gwynedd,,52.725908,-4.057212,200,OK
51.785801,-3.244297,NP22 4DG,Blaenau Gwent,,51.785801,-3.244297,200,OK
53.02454,-1.310763,NG16 3SS,Broxtowe,East Midlands,53.02454,-1.310763,200,OK
51.648935,-0.291397,WD6 3NL,Hertsmere,East of England,51.648963,-0.291468,200,OK
51.295181,-0.326135,KT22 8ED,Mole Valley,South East,51.295181,-0.326135,200,OK
51.430136,0.021547,SE12 0DZ,Lewisham,London,51.430073,0.021559,200,OK
52.037862,-0.809826,MK8 8DP,Milton Keynes,South East,52.037862,-0.809826,200,OK
51.610372,-3.979103,SA2 8PZ,Swansea,,51.610372,-3.979103,200,OK
55.824627,-4.120603,G72 6QG,South Lanarkshire,,55.824627,-4.120603,200,OK
52.704069,0.687815,PE32 2AP,King's Lynn and West Norfolk,East of England,52.704069,0.687815,200,OK
54.853371,-1.460089,DH4 4NY,Sunderland,North East,54.853371,-1.460089,200,OK
51.609345,-0.37324,HA5 4EQ,Harrow,London,51.60882,-0.372349,200,OK
55.905096,-3.196106,EH10 6XS,City of Edinburgh,,55.905096,-3.196106,200,OK
51.568855,-1.746727,SN3 3FH,Swindon,South West,51.568855,-1.746727,200,OK
51.014224,0.614687,TN18 5QG,Ashford,South East,51.014224,0.614687,200,OK
55.859346,-4.360341,G52 4RL,Glasgow City,,55.859256,-4.360033,200,OK
51.677384,-3.194564,NP12 1BX,Caerphilly,,51.677265,-3.193895,200,OK
54.639781,-2.759497,CA10 2LB,Westmorland and Furness,North West,54.639808,-2.759343,200,OK
51.918936,-0.457405,LU3 3RZ,Luton,East of England,51.919009,-0.457476,200,OK
54.448987,-6.315108,BT66 7UT,"Armagh City, Banbridge and Craigavon",,54.448987,-6.315108,200,OK
52.218262,-1.42501,CV47 2RX,Stratford-on-Avon,West Midlands,52.218262,-1.42501,200,OK
51.519789,-0.164073,W1H 4EX,Westminster,London,51.519789,-0.164073,200,OK
51.534097,-0.004488,E15 2FS,Newham,London,51.534773,-0.00404,200,OK
55.608098,-4.664285,KA12 8EZ,North Ayrshire,,55.608098,-4.664285,200,OK
56.520212,-3.302085,PH13 9PD,Perth and Kinross,,56.520247,-3.302103,200,OK
51.882993,0.892681,CO2 7GE,Colchester,East of England,51.882993,0.892681,200,OK
53.725172,-1.651748,WF17 8JH,Kirklees,Yorkshire and The Humber,53.725172,-1.651748,200,OK
51.592389,-2.951252,NP19 9BS,Newport,,51.592627,-2.951878,200,OK
51.867884,-0.416319,LU1 3RP,Luton,East of England,51.867884,-0.416319,200,OK
50.85567,-0.138572,BN1 8EN,Brighton and Hove,South East,50.85567,-0.138572,200,OK
53.685695,-1.836829,HX5 0DB,Calderdale,Yorkshire and The Humber,53.685695,-1.836829,200,OK
50.911859,-1.405859,SO15 2DB,Southampton,South East,50.911841,-1.405851,200,OK
55.948997,-3.184296,EH1 1NA,City of Edinburgh,,55.948997,-3.184296,200,OK
50.635944,-4.351964,PL15 9LA,Cornwall,South West,50.635944,-4.351964,200,OK
50.90917,-1.411213,SO15 1GA,Southampton,South East,50.909138,-1.411774,200,OK
55.089438,-1.587924,NE23 1RB,Northumberland,North East,55.089024,-1.587788,200,OK
52.559997,-0.834119,LE16 8UH,Harborough,East Midlands,52.559997,-0.834119,200,OK
52.974676,-3.073784,LL14 3DF,Wrexham,,52.974676,-3.073784,200,OK
55.616418,-2.817673,TD1 1HZ,Scottish Borders,,55.616418,-2.817673,200,OK
50.535988,-3.628298,TQ12 1PZ,Teignbridge,South West,50.535988,-3.628298,200,OK
50.978072,0.537445,TN32 5RN,Rother,South East,50.978072,0.537445,200,OK
53.312412,-3.813368,LL30 1PR,Conwy,,53.312412,-3.813368,200,OK
51.030512,-0.393973,RH13 0PH,Horsham,South East,51.030512,-0.393973,200,OK
53.898331,-0.96751,YO19 6BU,York,Yorkshire and The Humber,53.898331,-0.96751,200,OK
51.559335,-0.065981,N16 7BU,Hackney,London,51.559335,-0.065981,200,OK
52.519603,-1.740564,B46 1NN,North Warwickshire,West Midlands,52.519603,-1.740564,200,OK
53.380375,-2.220628,SK8 3GW,Stockport,North West,53.380535,-2.220748,200,OK
51.006542,-0.102234,RH16 1EB,Mid Sussex,South East,51.006542,-0.102234,200,OK
54.361365,-2.742804,LA8 9AQ,Westmorland and Furness,North West,54.361374,-2.742807,200,OK
52.187451,1.579054,IP16 4GL,East Suffolk,East of England,52.187067,1.579842,200,OK
51.544019,-0.108858,N1 1NS,Islington,London,51.544019,-0.108858,200,OK
51.560035,-0.121755,N7 6JN,Islington,London,51.560035,-0.121755,200,OK
55.940607,-3.046551,EH21 7EP,East Lothian,,55.940607,-3.046551,200,OK
53.477572,-3.017643,L22 3YR,Sefton,North West,53.477572,-3.017643,200,OK
51.106144,-0.850003,GU35 0AB,East Hampshire,South East,51.106144,-0.850003,200,OK
50.084905,-5.102632,TR12 6HJ,Cornwall,South West,50.084905,-5.102632,200,OK
54.740169,-3.316423,CA7 2ES,Cumberland,North West,54.740169,-3.316423,200,OK
51.883008,0.57806,CM7 9FW,Braintree,East of England,51.883008,0.57806,200,OK
51.623166,0.416707,CM12 9YB,Basildon,East of England,51.623218,0.416955,200,OK
54.974269,-1.584605,NE6 1DB,Newcastle upon Tyne,North East,54.974269,-1.584605,200,OK
55.918703,-3.293188,EH11 4LU,City of Edinburgh,,55.918672,-3.292643,200,OK
53.387549,-2.464329,WA13 9QD,Warrington,North West,53.387549,-2.464329,200,OK
51.696665,-3.896145,SA6 5HA,Swansea,,51.69668,-3.896134,200,OK
52.143853,-0.001939,SG8 5RD,South Cambridgeshire,East of England,52.143853,-0.001939,200,OK
52.115581,0.256291,CB21 6BZ,South Cambridgeshire,East of England,52.115584,0.256319,200,OK
53.417053,-2.430075,M31 4NL,Trafford,North West,53.417024,-2.430119,200,OK
53.030642,-1.454306,DE56 0FB,Amber Valley,East Midlands,53.030642,-1.454306,200,OK
50.711597,-1.292169,PO30 5WZ,Isle of Wight,South East,50.711597,-1.292169,200,OK
51.367288,-0.16495,SM5 2QA,Sutton,London,51.367288,-0.16495,200,OK
53.284644,-3.586215,LL22 7BP,Conwy,,53.284644,-3.586215,200,OK
51.516438,-0.119484,WC2B 6DX,Camden,London,51.516374,-0.119288,200,OK
52.93228,-1.444236,DE21 6JA,Derby,East Midlands,52.93228,-1.444236,200,OK
52.390727,-2.004511,B45 8SP,Birmingham,West Midlands,52.390727,-2.004511,200,OK
54.601308,-5.874961,BT4 2BG,Belfast,,54.601308,-5.874961,200,OK
52.983519,-2.125119,ST3 1QW,Stoke-on-Trent,West Midlands,52.983519,-2.125119,200,OK
53.400617,-1.95833,SK22 2NS,High Peak,East Midlands,53.400617,-1.95833,200,OK
53.960519,-0.44205,YO25 9FL,East Riding of Yorkshire,Yorkshire and The Humber,53.960519,-0.44205,200,OK
51.800925,0.639387,CM8 2DY,Braintree,East of England,51.800925,0.639387,200,OK
57.658631,-3.607686,IV36 3YW,Moray,,57.658613,-3.607668,200,OK
51.284474,-0.357512,KT22 9XB,Mole Valley,South East,51.284474,-0.357512,200,OK
51.749647,-0.022556,EN10 7PN,Broxbourne,East of England,51.749647,-0.022556,200,OK
50.117591,-5.551307,TR18 4LE,Cornwall,South West,50.117591,-5.551307,200,OK
51.33659,-0.250922,KT17 3AL,Epsom and Ewell,South East,51.33659,-0.250922,200,OK
57.029823,-3.208564,,,,,,200,OK
52.787074,-0.157195,PE11 1EJ,South Holland,East Midlands,52.787074,-0.157195,200,OK
51.52323,-3.202416,CF14 4SL,Cardiff,,51.52323,-3.202416,200,OK
52.587241,0.479873,PE33 9FN,King's Lynn and West Norfolk,East of England,52.587241,0.479873,200,OK
51.846081,-2.256124,GL1 5NE,Gloucester,South West,51.846081,-2.256124,200,OK
52.710517,-2.523521,TF1 3JT,Telford and Wrekin,West Midlands,52.710517,-2.523521,200,OK
51.515742,-0.15432,W1H 6LA,Westminster,London,51.515742,-0.15432,200,OK
51.568835,-0.006055,E11 1EB,Waltham Forest,London,51.568835,-0.006055,200,OK
50.763948,-4.181356,EX21 5AS,West Devon,South West,50.763948,-4.181356,200,OK
55.604167,-4.586722,KA2 0BN,North Ayrshire,,55.604167,-4.586722,200,OK
51.585085,0.436888,SS15 4HE,Basildon,East of England,51.585085,0.436888,200,OK
54.746124,-1.284359,TS27 4HL,County Durham,North East,54.746124,-1.284359,200,OK
51.404543,0.014195,BR1 1AE,Bromley,London,51.404543,0.014195,200,OK
53.124939,-2.35478,CW11 4XR,Cheshire East,North West,53.124939,-2.35478,200,OK
53.523937,-2.496772,M46 0DH,Wigan,North West,53.523937,-2.496772,200,OK
56.106415,-3.965276,FK7 9PB,Stirling,,56.106415,-3.965276,200,OK
52.92721,-1.490382,DE1 3NX,Derby,East Midlands,52.92721,-1.490382,200,OK
51.365437,0.588401,ME8 0DE,Medway,South East,51.365437,0.588401,200,OK
51.483511,-0.335019,TW7 5ND,Hounslow,London,51.483511,-0.335019,200,OK
53.139478,-4.27366,LL55 2NB,Gwynedd,,53.139313,-4.27383,200,OK
57.646579,-3.322788,IV30 1JA,Moray,,57.646579,-3.322788,200,OK
53.618482,-2.15564,OL16 1JZ,Rochdale,North West,53.618482,-2.15564,200,OK
53.429596,-2.905166,L12 1LA,Liverpool,North West,53.429666,-2.905393,200,OK
51.62786,-0.248888,NW7 4LY,Barnet,London,51.62786,-0.248888,200,OK
52.972245,-2.69404,SY13 1NN,Shropshire,West Midlands,52.972414,-2.693595,200,OK
50.991611,-1.482671,SO51 7NF,Test Valley,South East,50.991611,-1.482671,200,OK
55.917742,-5.216439,PA21 2EG,Argyll and Bute,,55.917742,-5.216439,200,OK
50.760329,-1.304454,PO31 7RB,Isle of Wight,South East,50.760329,-1.304454,200,OK
51.17984,-0.629087,GU7 2FH,Waverley,South East,51.179794,-0.629017,200,OK
50.153176,-5.069809,TR11 3EP,Cornwall,South West,50.153176,-5.069809,200,OK
51.888807,0.882996,CO3 3QA,Colchester,East of England,51.888492,0.882235,200,OK
51.524271,-0.14374,NW1 4AQ,Westminster,London,51.524271,-0.14374,200,OK
53.565949,-2.775551,WN8 6UN,West Lancashire,North West,53.565949,-2.775551,200,OK
51.69617,-3.247928,CF81 9GH,Caerphilly,,51.696239,-3.247724,200,OK
50.895441,-1.189484,PO17 5ND,Winchester,South East,50.895711,-1.18921,200,OK
53.77617,-1.374825,LS25 7EU,Leeds,Yorkshire and The Humber,53.77617,-1.374825,200,OK
51.908213,-1.227789,OX25 4AS,Cherwell,South East,51.908213,-1.227789,200,OK
51.539496,-0.273984,NW10 7BW,Brent,London,51.539496,-0.273984,200,OK
51.046851,0.508558,TN18 4LF,Tunbridge Wells,South East,51.046851,0.508558,200,OK
51.509161,-0.432578,UB3 1EJ,Hillingdon,London,51.509161,-0.432578,200,OK
55.732009,-3.960176,ML9 2RF,South Lanarkshire,,55.732009,-3.960176,200,OK
52.573002,-0.241755,PE1 1XS,Peterborough,East of England,52.573099,-0.241575,200,OK
53.324799,-1.39836,S12 3XW,North East Derbyshire,East Midlands,53.324984,-1.399047,200,OK
51.366383,-0.278379,KT19 9FX,Epsom and Ewell,South East,51.366383,-0.278379,200,OK
54.965123,-1.475632,NE32 5UG,South Tyneside,North East,54.965123,-1.475632,200,OK
54.988342,-1.406786,NE33 3HS,South Tyneside,North East,54.988342,-1.406786,200,OK
50.822618,0.264105,BN26 6FN,Wealden,South East,50.822618,0.264105,200,OK
53.643975,-2.62213,PR7 3EZ,Chorley,North West,53.643975,-2.62213,200,OK
50.770909,0.287959,BN21 3SL,Eastbourne,South East,50.770909,0.287959,200,OK
51.472604,-0.182498,SW6 2GZ,Hammersmith and Fulham,London,51.472689,-0.18274,200,OK
51.984934,-1.690266,,,,,,200,OK
53.218313,-3.053481,CH5 4EG,Flintshire,,53.218313,-3.053481,200,OK
51.819577,-0.22358,AL6 9GN,Welwyn Hatfield,East of England,51.819577,-0.22358,200,OK
54.793932,-7.538588,BT82 9RH,Derry City and Strabane,,54.793932,-7.538588,200,OK
51.474914,0.031863,SE3 8SE,Greenwich,London,51.474914,0.031863,200,OK
50.737801,-1.806343,BH6 5PZ,"Bournemouth, Christchurch and Poole",South West,50.737801,-1.806343,200,OK
51.597778,0.217708,RM3 8EN,Havering,London,51.598062,0.217462,200,OK
51.908388,-1.147587,OX26 4XA,Cherwell,South East,51.908424,-1.14763,200,OK
53.441569,-2.220433,M14 6DU,Manchester,North West,53.441569,-2.220433,200,OK
55.918244,-3.262515,EH14 2JX,City of Edinburgh,,55.918244,-3.262515,200,OK
53.39116,-1.503329,S6 3TL,Sheffield,Yorkshire and The Humber,53.39116,-1.503329,200,OK
57.148028,-2.092317,AB11 5YU,Aberdeen City,,57.148064,-2.092334,200,OK
53.834587,-1.809782,BD18 4BH,Bradford,Yorkshire and The Humber,53.834587,-1.809782,200,OK
51.475578,-0.206241,SW6 5RX,Hammersmith and Fulham,London,51.475578,-0.206241,200,OK
53.410302,-2.362537,M33 4WY,Trafford,North West,53.410302,-2.362537,200,OK
51.660878,-2.811002,,,,,,200,OK
52.63966,1.231021,NR5 9AU,Norwich,East of England,52.63966,1.231021,200,OK
52.090696,-1.962429,WR11 2PR,Wychavon,West Midlands,52.090813,-1.962443,200,OK
52.909515,-1.25329,NG9 6GW,Broxtowe,East Midlands,52.909515,-1.25329,200,OK
53.438454,-2.275151,M21 8AG,Manchester,North West,53.438569,-2.275137,200,OK
51.504971,-0.535544,SL3 8EX,Slough,South East,51.504971,-0.535544,200,OK
53.425693,-2.323557,M33 7YA,Trafford,North West,53.425693,-2.323557,200,OK
52.929059,1.301261,NR27 9DF,North Norfolk,East of England,52.929059,1.301261,200,OK
52.500871,-2.120303,DY5 4JB,Dudley,West Midlands,52.500871,-2.120303,200,OK
51.482418,0.297516,RM16 6EN,Thurrock,East of England,51.482418,0.297516,200,OK
51.354926,1.031956,CT5 1RS,Canterbury,South East,51.354926,1.031956,200,OK
53.477926,-3.024553,L22 0NS,Sefton,North West,53.477992,-3.02502,200,OK
51.481227,-1.620792,SN8 2EL,Wiltshire,South West,51.481227,-1.620792,200,OK
51.432028,-0.912477,RG6 3BY,Wokingham,South East,51.432028,-0.912477,200,OK
51.369425,-2.810725,BS49 5EN,North Somerset,South West,51.369342,-2.811126,200,OK
53.340892,-3.010525,CH63 9YG,Wirral,North West,53.340892,-3.010525,200,OK
51.754062,-4.191821,,,,,,200,OK
52.470767,-2.031836,B62 9HA,Dudley,West Midlands,52.470749,-2.031895,200,OK
55.156714,-6.691392,,,,,,200,OK
52.881614,-0.06415,PE20 2AR,Boston,East Midlands,52.881614,-0.06415,200,OK
51.556813,-0.005008,E11 4ER,Waltham Forest,London,51.556841,-0.00456,200,OK
54.694374,-6.147409,,,,,,200,OK
51.672335,-0.397464,WD24 6BP,Watford,East of England,51.672302,-0.397298,200,OK
54.379083,-1.63591,DL10 7UB,North Yorkshire,Yorkshire and The Humber,54.379083,-1.63591,200,OK
53.523823,-2.280562,M25 9NH,Bury,North West,53.523823,-2.280562,200,OK
53.740409,-0.49283,HU14 3QH,East Riding of Yorkshire,Yorkshire and The Humber,53.740888,-0.49307,200,OK
54.286267,-0.391872,YO11 1RB,North Yorkshire,Yorkshire and The Humber,54.286267,-0.391872,200,OK
54.159879,-3.178168,LA15 8SH,Westmorland and Furness,North West,54.159879,-3.178168,200,OK
52.373657,-2.27158,DY11 7NP,Wyre Forest,West Midlands,52.373678,-2.272193,200,OK
53.520882,-2.144754,OL9 7LS,Oldham,North West,53.520731,-2.143803,200,OK
50.21552,-5.478229,TR26 1NY,Cornwall,South West,50.21552,-5.478229,200,OK
50.919173,-1.401242,SO14 6QS,Southampton,South East,50.919281,-1.401246,200,OK
53.427926,-2.135408,SK5 8LS,Stockport,North West,53.427926,-2.135408,200,OK
51.586425,-0.374607,HA5 5HT,Harrow,London,51.586098,-0.374402,200,OK
51.074971,-0.496245,RH14 0RW,Chichester,South East,51.074971,-0.496245,200,OK
52.633383,-1.116799,LE2 0UY,Leicester,East Midlands,52.633383,-1.116799,200,OK
51.231853,-1.339691,RG28 7DA,Basingstoke and Deane,South East,51.231853,-1.339691,200,OK
53.989875,-1.071228,YO32 4BS,York,Yorkshire and The Humber,53.989883,-1.071237,200,OK
51.401812,-0.681712,SL5 9EP,Windsor and Maidenhead,South East,51.401938,-0.681708,200,OK
52.698006,-2.021364,WS11 5BU,Cannock Chase,West Midlands,52.698006,-2.021364,200,OK
51.600531,-1.244164,OX11 8HX,South Oxfordshire,South East,51.600531,-1.244164,200,OK
51.530742,-0.229621,NW10 5NQ,Brent,London,51.530654,-0.229769,200,OK
51.926032,0.920483,CO4 5JB,Colchester,East of England,51.926032,0.920483,200,OK
50.384684,-4.058958,PL7 1PZ,Plymouth,South West,50.384684,-4.058958,200,OK
53.568961,-2.876883,L39 2XP,West Lancashire,North West,53.569231,-2.878051,200,OK
51.683007,-0.317272,WD7 0FH,Hertsmere,East of England,51.683007,-0.317272,200,OK
52.316408,-0.219768,PE28 4UZ,Huntingdonshire,East of England,52.316408,-0.219768,200,OK
53.424841,-2.136571,SK5 8AQ,Stockport,North West,53.424841,-2.136571,200,OK
52.45298,-0.111673,PE26 1GA,Huntingdonshire,East of England,52.452963,-0.111718,200,OK
51.61897,0.610117,SS5 6DH,Rochford,East of England,51.61897,0.610117,200,OK
51.817142,0.730229,CO5 0UN,Colchester,East of England,51.817142,0.730229,200,OK
53.603134,-2.39012,BL2 3HD,Bolton,North West,53.603134,-2.39012,200,OK
53.783451,-2.237036,BB11 3LS,Burnley,North West,53.783451,-2.237036,200,OK
52.441198,-1.86985,B13 9LG,Birmingham,West Midlands,52.441198,-1.86985,200,OK
53.292985,-3.060794,CH64 9SN,Cheshire West and Chester,North West,53.292985,-3.060794,200,OK
54.430828,-5.930681,BT24 8TN,Lisburn and Castlereagh,,54.430828,-5.930681,200,OK
50.790349,-0.000474,BN10 8LP,Lewes,South East,50.790349,-0.000474,200,OK
50.375233,-4.137578,PL4 8AA,Plymouth,South West,50.375438,-4.13794,200,OK
51.550995,-0.110415,N7 8DL,Islington,London,51.550995,-0.110415,200,OK
54.561566,-3.574088,CA28 6LD,Cumberland,North West,54.561566,-3.574088,200,OK
55.843203,-4.367381,G52 3LZ,Glasgow City,,55.843203,-4.367381,200,OK
54.933143,-6.921353,BT47 4UL,Causeway Coast and Glens,,54.933143,-6.921353,200,OK
52.774395,-3.189812,SY22 6UE,Powys,,52.774395,-3.189812,200,OK
51.058814,0.162953,TN6 1DA,Wealden,South East,51.058869,0.162913,200,OK
51.390093,0.015673,BR2 9BS,Bromley,London,51.390093,0.015673,200,OK
51.410909,-0.401056,TW16 5JW,Spelthorne,South East,51.410614,-0.401225,200,OK
51.34121,-0.816971,GU46 7UU,Hart,South East,51.340943,-0.817222,200,OK
53.430061,-2.794281,L34 2SJ,Knowsley,North West,53.430061,-2.794281,200,OK
51.554042,-0.177393,NW3 6NY,Camden,London,51.554042,-0.177393,200,OK
53.781393,-2.7485,PR2 3ZR,Preston,North West,53.781393,-2.7485,200,OK
51.299489,0.132977,TN14 6HG,Sevenoaks,South East,51.299489,0.132977,200,OK
52.502175,-1.445814,CV11 4GF,Nuneaton and Bedworth,West Midlands,52.502175,-1.445814,200,OK
51.682115,-0.415851,WD24 5LH,Watford,East of England,51.682115,-0.415851,200,OK
51.611174,-2.51483,BS35 2JT,South Gloucestershire,South West,51.611148,-2.514685,200,OK
51.620359,-3.919517,SA1 8RE,Swansea,,51.620354,-3.919228,200,OK
53.571641,-2.098976,OL2 8SQ,Oldham,North West,53.571641,-2.098976,200,OK
51.512083,-0.097542,EC4V 4BJ,City of London,London,51.512038,-0.097431,200,OK
53.420603,-2.907773,L13 5AA,Liverpool,North West,53.420603,-2.907773,200,OK
51.852345,-0.997897,HP18 0RL,Buckinghamshire,South East,51.852345,-0.997897,200,OK
51.598106,-0.129483,N22 7AZ,Haringey,London,51.598106,-0.129483,200,OK
54.782736,-1.585713,DH1 4NH,County Durham,North East,54.782736,-1.585713,200,OK
51.540932,-0.137802,NW1 0SN,Camden,London,51.540874,-0.138078,200,OK
53.767757,-1.850909,BD13 2EY,Bradford,Yorkshire and The Humber,53.767757,-1.850909,200,OK
52.529807,-2.402097,WV15 5BA,Shropshire,West Midlands,52.529807,-2.402097,200,OK
54.099836,-0.964692,,,,,,200,OK
51.790084,1.160287,CO15 6JF,Tendring,East of England,51.790084,1.160287,200,OK
50.902995,-3.517835,EX16 5NJ,Mid Devon,South West,50.902995,-3.517835,200,OK
53.796945,-1.746555,BD1 4EW,Bradford,Yorkshire and The Humber,53.797041,-1.746558,200,OK
52.949873,0.848132,NR23 1QG,North Norfolk,East of England,52.949873,0.848132,200,OK
53.229556,-1.468917,S40 3LB,Chesterfield,East Midlands,53.229556,-1.468917,200,OK
53.693741,-1.589552,WF5 9YA,Wakefield,Yorkshire and The Humber,53.69312,-1.590031,200,OK
53.748256,-0.338436,HU2 8BT,"Kingston upon Hull, City of",Yorkshire and The Humber,53.748256,-0.338436,200,OK
53.548621,-2.666355,WN5 0QH,Wigan,North West,53.548621,-2.666355,200,OK
50.9389,-2.63476,BA20 1SP,Somerset,South West,50.938891,-2.63476,200,OK
51.780946,-0.438188,HP2 7RE,Dacorum,East of England,51.780946,-0.438188,200,OK
51.608888,-0.326638,HA7 3TJ,Harrow,London,51.608888,-0.326638,200,OK
51.513218,-0.14883,W1K 5JT,Westminster,London,51.513182,-0.148788,200,OK
52.30561,-0.593712,NN10 8BN,North Northamptonshire,East Midlands,52.30561,-0.593712,200,OK
50.711781,-3.50342,EX2 6AU,Exeter,South West,50.711781,-3.50342,200,OK
52.145625,-0.526034,MK43 8LR,Bedford,East of England,52.145625,-0.526034,200,OK
51.720367,-0.840183,HP27 9AT,Buckinghamshire,South East,51.720367,-0.840183,200,OK
54.662291,-1.22807,TS25 5EF,Hartlepool,North East,54.662291,-1.22807,200,OK
50.346881,-3.977653,PL8 2EJ,South Hams,South West,50.346881,-3.977653,200,OK
57.664473,-2.537342,AB45 1EG,Aberdeenshire,,57.664617,-2.537294,200,OK
52.551363,0.086946,PE15 5RA,Fenland,East of England,52.551363,0.086946,200,OK
53.339918,-1.939751,SK23 6WN,High Peak,East Midlands,53.339934,-1.939795,200,OK
53.357217,-1.306251,S26 2GN,Rotherham,Yorkshire and The Humber,53.357217,-1.306251,200,OK
56.0855,-3.543178,KY12 9JF,Fife,,56.0855,-3.543178,200,OK
53.426919,-1.486885,,,,,,200,OK
50.167031,-5.454995,TR27 6NE,Cornwall,South West,50.167098,-5.454874,200,OK
52.46351,-1.952356,B17 9JJ,Birmingham,West Midlands,52.46351,-1.952356,200,OK
53.083348,-3.316638,LL15 2PB,Denbighshire,,53.083405,-3.316371,200,OK
54.379516,-3.454897,,,,,,200,OK
52.414435,-2.359559,DY12 3LZ,Wyre Forest,West Midlands,52.414435,-2.359559,200,OK
52.620425,1.482392,NR13 4PA,Broadland,East of England,52.620451,1.482416,200,OK
57.190925,-2.186339,AB21 9JL,Aberdeen City,,57.190925,-2.186339,200,OK
54.973122,-1.688018,NE15 6EY,Newcastle upon Tyne,North East,54.973475,-1.689093,200,OK
53.823237,-1.941767,BD22 9SU,Bradford,Yorkshire and The Humber,53.823237,-1.941767,200,OK
52.064994,-1.328763,OX16 3QP,Cherwell,South East,52.064994,-1.328763,200,OK
51.478808,-0.860749,RG10 9LD,Wokingham,South East,51.478808,-0.860749,200,OK
53.548508,-3.067477,L37 6EJ,Sefton,North West,53.548508,-3.067477,200,OK
53.563649,-0.087955,DN31 1JP,North East Lincolnshire,Yorkshire and The Humber,53.563649,-0.087955,200,OK
51.096298,1.003669,TN25 6JZ,Folkestone and Hythe,South East,51.096298,1.003669,200,OK
51.494357,-0.129872,SW1P 4ET,Westminster,London,51.494357,-0.129872,200,OK
55.806882,-4.186007,G73 5NA,South Lanarkshire,,55.806882,-4.186007,200,OK
53.388056,-2.587884,WA1 2BW,Warrington,North West,53.388103,-2.587448,200,OK
52.704265,-2.015245,WS11 5HL,Cannock Chase,West Midlands,52.704265,-2.015245,200,OK
53.514223,-2.392243,M28 7EU,Salford,North West,53.514223,-2.392243,200,OK
52.382411,-1.853421,B90 1PX,Solihull,West Midlands,52.382411,-1.853421,200,OK
53.453259,-2.232194,M14 7ND,Manchester,North West,53.453259,-2.232194,200,OK
54.887146,-3.805153,,,,,,200,OK
51.563297,-0.348856,HA2 0NJ,Harrow,London,51.563297,-0.348856,200,OK
51.533939,0.191792,RM13 7XS,Havering,London,51.533939,0.191792,200,OK
53.789824,-2.40999,BB6 7NT,Hyndburn,North West,53.789824,-2.40999,200,OK
53.454273,-2.322087,M32 9RQ,Trafford,North West,53.454273,-2.322087,200,OK
56.196334,-3.163607,KY7 5NG,Fife,,56.196334,-3.163607,200,OK
52.267278,-2.134885,WR9 7DN,Wychavon,West Midlands,52.267278,-2.134885,200,OK
51.381169,0.124773,BR5 4HZ,Bromley,London,51.381169,0.124773,200,OK
52.693674,1.245141,NR10 3FF,Broadland,East of England,52.693708,1.245217,200,OK
51.682366,-0.41867,WD17 4HZ,Watford,East of England,51.682366,-0.41867,200,OK
53.167666,-3.142996,CH7 1AN,Flintshire,,53.167651,-3.142982,200,OK
53.850521,-2.761392,PR3 0RS,Wyre,North West,53.850521,-2.761392,200,OK
52.704409,-1.371522,LE67 2FX,North West Leicestershire,East Midlands,52.704409,-1.371522,200,OK
51.238853,-2.805491,BS28 4ET,Somerset,South West,51.238853,-2.805491,200,OK
54.124742,-3.203872,LA13 9LH,Westmorland and Furness,North West,54.124742,-3.203872,200,OK
53.48137,-2.871549,L33 5XS,Knowsley,North West,53.48137,-2.871549,200,OK
51.295857,-0.574278,GU22 0NL,Woking,South East,51.295857,-0.574278,200,OK
52.34351,-3.055018,LD7 1HD,Powys,,52.34351,-3.055018,200,OK
52.537643,-0.996568,LE8 0JE,Harborough,East Midlands,52.537643,-0.996568,200,OK
54.500548,-3.534122,CA22 2TD,Cumberland,North West,54.500548,-3.534122,200,OK
51.488746,-3.172284,CF24 3BY,Cardiff,,51.488746,-3.172284,200,OK
55.777497,-4.04485,ML3 6LR,South Lanarkshire,,55.777497,-4.04485,200,OK
55.975806,-3.16954,EH6 6QU,City of Edinburgh,,55.975806,-3.16954,200,OK
51.492232,-0.224559,W6 9YN,Hammersmith and Fulham,London,51.492224,-0.22455,200,OK
53.906166,-1.692499,LS21 1BL,Leeds,Yorkshire and The Humber,53.906022,-1.692577,200,OK
53.879599,-1.308254,LS24 9NA,North Yorkshire,Yorkshire and The Humber,53.879599,-1.308254,200,OK
51.846284,-0.46503,AL3 8QQ,Dacorum,East of England,51.846284,-0.46503,200,OK
50.391895,-4.070752,PL7 4PG,Plymouth,South West,50.391895,-4.070752,200,OK
51.513546,-0.409629,UB3 3AD,Hillingdon,London,51.513546,-0.409629,200,OK
51.867781,-5.126254,SA62 6AY,Pembrokeshire,,51.867781,-5.126254,200,OK
51.662773,-3.51065,CF42 6TG,Rhondda Cynon Taf,,51.662773,-3.51065,200,OK
52.035962,0.751059,CO10 0LP,Babergh,East of England,52.035962,0.751059,200,OK
52.530201,-1.351089,LE10 2AL,Hinckley and Bosworth,East Midlands,52.530201,-1.351089,200,OK
52.925285,-1.485912,DE1 1DZ,Derby,East Midlands,52.924781,-1.485874,200,OK
50.916069,-1.272643,SO30 2GW,Eastleigh,South East,50.916051,-1.272657,200,OK
51.513249,-0.089062,EC3V 9AA,City of London,London,51.512908,-0.088993,200,OK
54.687098,-5.950039,BT36 6NS,Antrim and Newtownabbey,,54.687098,-5.950039,200,OK
50.318296,-4.034202,PL8 1BD,South Hams,South West,50.318296,-4.034202,200,OK
56.528819,-3.460522,PH1 4FD,Perth and Kinross,,56.529155,-3.460143,200,OK
51.356665,-0.531488,KT16 0LL,Runnymede,South East,51.356665,-0.531488,200,OK
51.61248,-2.522441,BS35 1EJ,South Gloucestershire,South West,51.61248,-2.522441,200,OK
50.86482,-3.223904,EX14 4PP,East Devon,South West,50.86482,-3.223904,200,OK
55.927942,-3.208558,EH10 4SZ,City of Edinburgh,,55.927836,-3.208875,200,OK
52.513368,-0.263309,PE7 3LF,Huntingdonshire,East of England,52.513368,-0.263309,200,OK
54.42131,-7.058057,,,,,,200,OK
52.499552,-1.843408,,,,,,200,OK
52.65851,1.301764,NR6 7NG,Broadland,East of England,52.65851,1.301764,200,OK
52.051841,1.124469,IP2 0XB,Ipswich,East of England,52.051841,1.124469,200,OK
51.51164,-0.212304,W11 4PW,Kensington and Chelsea,London,51.51164,-0.212304,200,OK
51.526924,-0.604467,SL2 1NY,Slough,South East,51.526924,-0.604467,200,OK
53.496968,-2.308437,M6 7GE,Salford,North West,53.496968,-2.308437,200,OK
53.796778,-1.663711,LS28 7LG,Leeds,Yorkshire and The Humber,53.796829,-1.663609,200,OK
51.260578,-0.616847,GU3 3JF,Guildford,South East,51.260371,-0.616796,200,OK
52.393972,-1.868299,B90 1PP,Bromsgrove,West Midlands,52.393972,-1.868299,200,OK
51.651596,-0.911235,HP14 3XS,Buckinghamshire,South East,51.651596,-0.911235,200,OK
57.481482,-4.252453,IV3 8PT,Highland,,57.481146,-4.252132,200,OK
52.477996,-2.167842,DY8 5DG,Dudley,West Midlands,52.477996,-2.167842,200,OK
52.038875,1.208954,IP3 8TT,East Suffolk,East of England,52.038875,1.208954,200,OK
54.435725,-0.7245,YO22 5PB,North Yorkshire,Yorkshire and The Humber,54.435725,-0.7245,200,OK
50.805813,-1.083957,PO1 4PB,Portsmouth,South East,50.805813,-1.083957,200,OK
51.867107,0.175881,CM23 5GP,East Hertfordshire,East of England,51.867107,0.175881,200,OK
52.597452,-1.082656,LE2 5AW,Oadby and Wigston,East Midlands,52.597452,-1.082656,200,OK
51.075723,-0.29331,RH12 4HG,Horsham,South East,51.075723,-0.29331,200,OK
53.772136,-1.819608,BD13 1ES,Bradford,Yorkshire and The Humber,53.772136,-1.819608,200,OK
51.807841,-0.795064,HP21 7FB,Buckinghamshire,South East,51.807841,-0.795064,200,OK
50.972473,-1.36572,SO50 9EA,Eastleigh,South East,50.972519,-1.365809,200,OK
55.866727,-3.053619,,,,,,200,OK
51.740689,-0.024034,EN10 7FU,Broxbourne,East of England,51.740759,-0.024193,200,OK
51.773302,-3.209009,NP23 6DJ,Blaenau Gwent,,51.773302,-3.209009,200,OK
52.026473,-0.754362,MK6 5NA,Milton Keynes,South East,52.02636,-0.753928,200,OK
57.672386,-2.975968,AB56 1DA,Moray,,57.672386,-2.975968,200,OK
51.519961,-3.259493,CF15 8BY,Cardiff,,51.519961,-3.259493,200,OK
51.5169,-2.538683,BS34 8PF,South Gloucestershire,South West,51.517338,-2.539064,200,OK
52.942774,-1.270262,NG9 8JD,Broxtowe,East Midlands,52.942774,-1.270262,200,OK
51.515971,-0.600594,SL1 3PQ,Slough,South East,51.516174,-0.60008,200,OK
54.95699,-4.482477,DG8 6EG,Dumfries and Galloway,,54.95699,-4.482477,200,OK
50.931623,-1.430823,SO16 6QL,Southampton,South East,50.931623,-1.430823,200,OK
53.014179,-2.290523,ST5 5FU,Newcastle-under-Lyme,West Midlands,53.014306,-2.290046,200,OK
50.980453,-1.130227,SO32 3ND,Winchester,South East,50.980531,-1.130624,200,OK
53.716036,-1.375898,WF10 5TW,Wakefield,Yorkshire and The Humber,53.716036,-1.375898,200,OK
51.379283,-0.037238,CR0 8DH,Croydon,London,51.379283,-0.037238,200,OK
52.540743,-1.886557,B44 8LS,Birmingham,West Midlands,52.540743,-1.886557,200,OK
58.201831,-6.227973,HS2 0QF,Na h-Eileanan Siar,,58.201831,-6.227973,200,OK
51.793256,0.640099,CM8 1JB,Braintree,East of England,51.793256,0.640099,200,OK
53.424463,-1.221892,S66 8DS,Rotherham,Yorkshire and The Humber,53.424474,-1.221893,200,OK
51.573298,-1.788216,SN2 1HQ,Swindon,South West,51.573298,-1.788216,200,OK
52.105161,-2.328458,WR14 3NY,Malvern Hills,West Midlands,52.105161,-2.328458,200,OK
51.469874,-3.174737,CF10 5FE,Cardiff,,51.470297,-3.173893,200,OK
53.516367,-2.38522,M28 7JW,Salford,North West,53.516367,-2.38522,200,OK
54.129814,-3.232041,LA14 5DR,Westmorland and Furness,North West,54.129814,-3.232041,200,OK
54.711529,-3.488571,CA15 7PG,Cumberland,North West,54.711529,-3.488571,200,OK
55.931148,-3.743323,FK1 2NN,Falkirk,,55.931148,-3.743323,200,OK
54.369467,-6.555763,BT61 9PH,"Armagh City, Banbridge and Craigavon",,54.369467,-6.555763,200,OK
50.815358,-0.384571,BN11 4PA,Worthing,South East,50.815356,-0.385096,200,OK
54.990123,-3.909707,DG7 3EX,Dumfries and Galloway,,54.99022,-3.909689,200,OK
53.75965,-0.313062,HU8 8QG,"Kingston upon Hull, City of",Yorkshire and The Humber,53.75965,-0.313062,200,OK
53.302654,-1.129285,S80 1LR,Bassetlaw,East Midlands,53.302654,-1.129285,200,OK
53.564437,-2.67512,WN6 8LX,Wigan,North West,53.564437,-2.67512,200,OK
52.132881,-2.072519,WR10 2DW,Wychavon,West Midlands,52.132881,-2.072519,200,OK
51.570984,-0.008645,E10 5WJ,Waltham Forest,London,51.570984,-0.008645,200,OK
51.452583,-0.95289,RG1 4PQ,Reading,South East,51.452583,-0.95289,200,OK
51.653097,0.076879,IG10 2PH,Epping Forest,East of England,51.653097,0.076879,200,OK
50.809794,-3.663323,EX17 4NQ,Mid Devon,South West,50.809794,-3.663323,200,OK
50.7663,0.288628,BN21 3BL,Eastbourne,South East,50.7663,0.288628,200,OK
54.08423,-0.194603,YO15 1YT,East Riding of Yorkshire,Yorkshire and The Humber,54.084436,-0.194564,200,OK
53.793728,-1.708536,BD3 8QD,Leeds,Yorkshire and The Humber,53.793728,-1.708536,200,OK
53.521687,-3.057284,L38 9EG,Sefton,North West,53.522259,-3.057646,200,OK
53.685579,-2.330936,BB4 4LR,Rossendale,North West,53.685445,-2.330965,200,OK
50.512102,-4.219586,PL18 9AE,Cornwall,South West,50.512102,-4.219586,200,OK
51.515213,-0.356332,UB1 3LZ,Ealing,London,51.515213,-0.356332,200,OK
52.871389,-1.339622,DE72 2HE,South Derbyshire,East Midlands,52.871389,-1.339622,200,OK
53.706183,-2.795278,PR4 4RQ,South Ribble,North West,53.706231,-2.794549,200,OK
52.668264,-2.042707,WS11 0XT,South Staffordshire,West Midlands,52.667687,-2.043646,200,OK
54.509928,-6.044763,BT28 1AA,Lisburn and Castlereagh,,54.509928,-6.044763,200,OK
51.994879,-2.582038,HR1 4PU,"Herefordshire, County of",West Midlands,51.994879,-2.582038,200,OK
52.947672,0.498783,PE36 6EW,King's Lynn and West Norfolk,East of England,52.947672,0.498783,200,OK
51.829608,-0.824232,HP19 9LS,Buckinghamshire,South East,51.829608,-0.824232,200,OK
51.371395,0.558778,ME5 7JG,Medway,South East,51.371131,0.558907,200,OK
51.540324,-0.200437,NW6 7HL,Brent,London,51.540324,-0.200437,200,OK
51.401877,-0.252199,KT3 4DU,Kingston upon Thames,London,51.401877,-0.252199,200,OK
52.391816,-1.95571,B31 3QA,Birmingham,West Midlands,52.391816,-1.95571,200,OK
53.399238,-2.522344,WA1 4PS,Warrington,North West,53.399238,-2.522344,200,OK
54.375437,-2.999396,LA22 0NS,Westmorland and Furness,North West,54.375437,-2.999396,200,OK
53.385294,-2.263758,M22 9NS,Manchester,North West,53.385258,-2.264028,200,OK
53.398448,-2.274276,M23 1AF,Manchester,North West,53.398439,-2.274276,200,OK
53.275835,-2.753011,WA6 9LJ,Cheshire West and Chester,North West,53.275835,-2.753011,200,OK
54.574221,-5.986504,BT11 9BT,Belfast,,54.574221,-5.986504,200,OK
51.830038,-0.801873,HP19 0UL,Buckinghamshire,South East,51.830038,-0.801873,200,OK
53.573056,-0.634136,DN16 1HT,North Lincolnshire,Yorkshire and The Humber,53.573056,-0.634136,200,OK
54.462917,-6.33807,BT66 6FF,"Armagh City, Banbridge and Craigavon",,54.462917,-6.33807,200,OK
55.867815,-4.276462,G3 7YR,Glasgow City,,55.867815,-4.276462,200,OK
51.478425,0.269793,RM20 3FJ,Thurrock,East of England,51.47832,0.269212,200,OK
53.857591,-3.032965,FY5 3AL,Blackpool,North West,53.857591,-3.032965,200,OK
51.775882,-1.490189,OX28 4YS,West Oxfordshire,South East,51.776711,-1.490687,200,OK
53.248641,-1.059536,,,,,,200,OK
53.424069,-1.501456,S6 1EY,Sheffield,Yorkshire and The Humber,53.424078,-1.501442,200,OK
51.515665,-0.131262,W1D 3QW,Westminster,London,51.515767,-0.131503,200,OK
52.201949,0.437617,,,,,,200,OK
54.969562,-7.060006,BT47 3YZ,Causeway Coast and Glens,,54.969372,-7.061025,200,OK
54.240302,-1.334827,YO7 1FW,North Yorkshire,Yorkshire and The Humber,54.240302,-1.334827,200,OK
52.532553,-1.370543,LE10 2GJ,Hinckley and Bosworth,East Midlands,52.532553,-1.370543,200,OK
53.193483,-2.548517,CW7 2NA,Cheshire West and Chester,North West,53.193483,-2.548517,200,OK
51.357507,-2.363037,BA2 5SJ,Bath and North East Somerset,South West,51.357507,-2.363037,200,OK
52.662992,-2.440936,TF3 2NH,Telford and Wrekin,West Midlands,52.662992,-2.440936,200,OK
50.996237,-1.479837,SO51 7LQ,Test Valley,South East,50.996273,-1.47995,200,OK
53.898091,-1.548915,LS17 9LS,Leeds,Yorkshire and The Humber,53.898091,-1.548915,200,OK
52.109741,-0.503225,MK42 7HH,Bedford,East of England,52.109741,-0.503225,200,OK
55.648633,-4.699832,KA13 6JD,North Ayrshire,,55.648633,-4.699832,200,OK
52.655996,-2.032465,WS6 7JP,South Staffordshire,West Midlands,52.655996,-2.032465,200,OK
54.879355,-2.897332,CA1 3JW,Cumberland,North West,54.879355,-2.897332,200,OK
52.284366,-0.645417,NN29 7AJ,North Northamptonshire,East Midlands,52.284789,-0.644612,200,OK
52.7104,-1.50964,DE12 7NG,North West Leicestershire,East Midlands,52.7104,-1.50964,200,OK
52.951607,-1.145623,NG1 2GB,Nottingham,East Midlands,52.951635,-1.145711,200,OK
53.037427,-1.200776,NG15 7HD,Ashfield,East Midlands,53.037427,-1.200776,200,OK
52.647546,-1.045315,LE7 9SY,Harborough,East Midlands,52.647546,-1.045315,200,OK
53.948147,-1.556968,LS17 0AG,North Yorkshire,Yorkshire and The Humber,53.948147,-1.556968,200,OK
52.4103,-1.548358,CV5 8FT,Coventry,West Midlands,52.4103,-1.548358,200,OK
52.460369,-2.032129,B62 8DA,Dudley,West Midlands,52.459961,-2.031725,200,OK
52.452254,-1.808825,B26 1ER,Birmingham,West Midlands,52.452254,-1.808825,200,OK
51.245836,-0.570123,GU1 1EZ,Guildford,South East,51.246075,-0.569872,200,OK
51.545058,-0.360218,UB5 5QS,Ealing,London,51.545058,-0.360218,200,OK
52.570461,1.351999,NR14 7SW,South Norfolk,East of England,52.570461,1.351999,200,OK
53.1906,-1.316022,S44 5NW,Bolsover,East Midlands,53.1906,-1.316022,200,OK
53.467491,-2.723396,WA11 9AL,St. Helens,North West,53.467491,-2.723396,200,OK
51.582142,-0.380937,HA5 1HX,Harrow,London,51.582099,-0.380903,200,OK
50.867655,0.562356,TN37 6QF,Hastings,South East,50.867383,0.562469,200,OK
50.901511,-1.404569,SO14 2NZ,Southampton,South East,50.901511,-1.404569,200,OK
52.598994,-2.083787,WV11 1SP,Wolverhampton,West Midlands,52.598974,-2.08378,200,OK
53.462529,-2.972894,L9 8BA,Liverpool,North West,53.462529,-2.972894,200,OK
52.632794,-1.191739,LE3 1DN,Leicester,East Midlands,52.632718,-1.192376,200,OK
50.928242,-1.340254,SO30 3LS,Eastleigh,South East,50.928242,-1.340254,200,OK
51.87109,-2.236861,GL1 3ED,Gloucester,South West,51.87109,-2.236861,200,OK
51.638145,-4.010039,SA5 4RJ,Swansea,,51.638445,-4.010173,200,OK
51.295489,0.433467,ME19 6FX,Tonbridge and Malling,South East,51.295489,0.433467,200,OK
52.913458,-1.411137,DE21 7SF,Derby,East Midlands,52.913861,-1.41073,200,OK
53.418406,-1.521188,S6 1RB,Sheffield,Yorkshire and The Humber,53.418406,-1.521188,200,OK
51.43213,-2.6578,BS41 9ES,North Somerset,South West,51.43213,-2.6578,200,OK
50.784844,-1.571113,,,,,,200,OK
50.444837,-5.041339,TR8 4AA,Cornwall,South West,50.4442,-5.041975,200,OK
54.529003,-1.564783,DL3 6BF,Darlington,North East,54.529003,-1.564783,200,OK
52.930876,-1.524808,DE22 4EJ,Derby,East Midlands,52.930757,-1.524278,200,OK
52.011855,-0.426177,MK45 4ES,Central Bedfordshire,East of England,52.011855,-0.426177,200,OK
